{"type": "FeatureCollection", "features": [
{"geometry": {"type": "Point", "coordinates": [-83.3213681927, 42.5445277488]}, "type": "Feature", "properties": {"collection_times": [{"days": "Mon-Fri", "time": "1:00pm"}, {"days": "Sat-Sun", "time": "Closed"}], "id": "4830100008", "name": "USPS COLLECTION BOX - BLUE BOX", "address": {"city": "BLOOMFLD HLS", "state": "MI", "street": "6441 INKSTER RD", "postcode": "48301"}}},
{"geometry": {"type": "Point", "coordinates": [-83.2851772013, 42.541689105]}, "type": "Feature", "properties": {"collection_times": [{"days": "Mon-Fri", "time": "1:00pm"}, {"days": "Sat-Sun", "time": "Closed"}], "id": "4830100020", "name": "USPS COLLECTION BOX - BLUE BOX", "address": {"city": "BLOOMFLD HLS", "state": "MI", "street": "6680 TELEGRAPH RD", "postcode": "48301"}}},
{"geometry": {"type": "Point", "coordinates": [-83.2851772013, 42.541689105]}, "type": "Feature", "properties": {"collection_times": [{"days": "Mon-Fri", "time": "1:00pm"}, {"days": "Sat-Sun", "time": "Closed"}], "id": "4830100021", "name": "USPS COLLECTION BOX - BLUE BOX", "address": {"city": "BLOOMFLD HLS", "state": "MI", "street": "6680 TELEGRAPH RD", "postcode": "48301"}}},
{"geometry": {"type": "Point", "coordinates": [-83.2624270781, 42.5453589438]}, "type": "Feature", "properties": {"collection_times": [{"days": "Mon-Sat", "time": "1:00pm"}, {"days": "Sun", "time": "Closed"}], "id": "4830100024", "name": "USPS COLLECTION BOX - BLUE BOX", "address": {"city": "BLOOMFLD HLS", "state": "MI", "street": "3600 W MAPLE RD", "postcode": "48301"}}},
{"geometry": {"type": "Point", "coordinates": [-83.2847137512, 42.5416663856]}, "type": "Feature", "properties": {"collection_times": [{"days": "Mon-Fri", "time": "1:00pm"}, {"days": "Sat-Sun", "time": "Closed"}], "id": "4830100028", "name": "USPS COLLECTION BOX - BLUE BOX", "address": {"city": "BLOOMFLD HLS", "state": "MI", "street": "6735 TELEGRAPH RD", "postcode": "48301"}}},
{"geometry": {"type": "Point", "coordinates": [-83.271668375, 42.611780893]}, "type": "Feature", "properties": {"collection_times": [{"days": "Mon-Fri", "time": "1:00pm"}, {"days": "Sat-Sun", "time": "Closed"}], "id": "4830200000", "name": "USPS COLLECTION BOX - BLUE BOX", "address": {"city": "BLOOMFLD HLS", "state": "MI", "street": "44004 WOODWARD AVE", "postcode": "48302"}}},
{"geometry": {"type": "Point", "coordinates": [-83.270437585, 42.610470847]}, "type": "Feature", "properties": {"collection_times": [{"days": "Mon-Fri", "time": "1:00pm"}, {"days": "Sat-Sun", "time": "Closed"}], "id": "4830200001", "name": "USPS COLLECTION BOX - BLUE BOX", "address": {"city": "BLOOMFLD HLS", "state": "MI", "street": "43902 WOODWARD AVE", "postcode": "48302"}}},
{"geometry": {"type": "Point", "coordinates": [-83.2659565154, 42.6052107928]}, "type": "Feature", "properties": {"collection_times": [{"days": "Mon-Fri", "time": "1:00pm"}, {"days": "Sat-Sun", "time": "Closed"}], "id": "4830200002", "name": "USPS COLLECTION BOX - BLUE BOX", "address": {"city": "BLOOMFLD HLS", "state": "MI", "street": "43097 WOODWARD AVE", "postcode": "48302"}}},
{"geometry": {"type": "Point", "coordinates": [-83.289389988, 42.6052539789]}, "type": "Feature", "properties": {"collection_times": [{"days": "Mon-Fri", "time": "3:00pm"}, {"days": "Sat-Sun", "time": "Closed"}], "id": "4830200006", "name": "USPS COLLECTION BOX - BLUE BOX", "address": {"city": "BLOOMFLD HLS", "state": "MI", "street": "775 INDUSTRIAL CT", "postcode": "48302"}}},
{"geometry": {"type": "Point", "coordinates": [-83.3108039112, 42.6144715951]}, "type": "Feature", "properties": {"collection_times": [{"days": "Mon-Fri", "time": "3:00pm"}, {"days": "Sat-Sun", "time": "Closed"}], "id": "4830200007", "name": "USPS COLLECTION BOX - BLUE BOX", "address": {"city": "BLOOMFLD HLS", "state": "MI", "street": "1750 S TELEGRAPH RD", "postcode": "48302"}}},
{"geometry": {"type": "Point", "coordinates": [-83.3108039112, 42.6144715951]}, "type": "Feature", "properties": {"collection_times": [{"days": "Mon-Fri", "time": "3:00pm"}, {"days": "Sat-Sun", "time": "Closed"}], "id": "4830200008", "name": "USPS COLLECTION BOX - BLUE BOX", "address": {"city": "BLOOMFLD HLS", "state": "MI", "street": "1750 S TELEGRAPH RD", "postcode": "48302"}}},
{"geometry": {"type": "Point", "coordinates": [-83.2887689346, 42.602107308]}, "type": "Feature", "properties": {"collection_times": [{"days": "Mon-Fri", "time": "3:00pm"}, {"days": "Sat-Sun", "time": "Closed"}], "id": "4830200013", "name": "USPS COLLECTION BOX - BLUE BOX", "address": {"city": "BLOOMFLD HLS", "state": "MI", "street": "2550 S TELEGRAPH RD", "postcode": "48302"}}},
{"geometry": {"type": "Point", "coordinates": [-83.2806547424, 42.5801434387]}, "type": "Feature", "properties": {"collection_times": [{"days": "Mon-Sat", "time": "1:00pm"}, {"days": "Sun", "time": "Closed"}], "id": "4830200014", "name": "USPS COLLECTION BOX - BLUE BOX", "address": {"city": "BLOOMFLD HLS", "state": "MI", "street": "4075 TELEGRAPH RD", "postcode": "48302"}}},
{"geometry": {"type": "Point", "coordinates": [-83.2806547424, 42.5801434387]}, "type": "Feature", "properties": {"collection_times": [{"days": "Mon-Sat", "time": "1:00pm"}, {"days": "Sun", "time": "Closed"}], "id": "4830200015", "name": "USPS COLLECTION BOX - BLUE BOX", "address": {"city": "BLOOMFLD HLS", "state": "MI", "street": "4075 TELEGRAPH RD", "postcode": "48302"}}},
{"geometry": {"type": "Point", "coordinates": [-83.280712032, 42.580306572]}, "type": "Feature", "properties": {"collection_times": [{"days": "Mon-Sat", "time": "1:00pm"}, {"days": "Sun", "time": "Closed"}], "id": "4830200016", "name": "USPS COLLECTION BOX - BLUE BOX", "address": {"city": "BLOOMFLD HLS", "state": "MI", "street": "4075 TELEGRAPH RD", "postcode": "48302"}}},
{"geometry": {"type": "Point", "coordinates": [-83.2964877418, 42.6063718751]}, "type": "Feature", "properties": {"collection_times": [{"days": "Mon-Fri", "time": "5:00pm"}, {"days": "Sat", "time": "1:00pm"}, {"days": "Sun", "time": "Closed"}], "id": "4830200018", "name": "USPS COLLECTION BOX - BLUE BOX", "address": {"city": "BLOOMFLD HLS", "state": "MI", "street": "2187 S TELEGRAPH RD", "postcode": "48302"}}},
{"geometry": {"type": "Point", "coordinates": [-83.269177658, 42.609160802]}, "type": "Feature", "properties": {"collection_times": [{"days": "Mon-Fri", "time": "1:00pm"}, {"days": "Sat-Sun", "time": "Closed"}], "id": "4830200021", "name": "USPS COLLECTION BOX - BLUE BOX", "address": {"city": "BLOOMFLD HLS", "state": "MI", "street": "43700 WOODWARD AVE", "postcode": "48302"}}},
{"geometry": {"type": "Point", "coordinates": [-83.2431850442, 42.5841143137]}, "type": "Feature", "properties": {"collection_times": [{"days": "Mon-Fri", "time": "5:00pm"}, {"days": "Sat", "time": "1:00pm"}, {"days": "Sun", "time": "Closed"}], "id": "4830300112", "name": "USPS COLLECTION BOX - APC", "address": {"city": "BLOOMFLD HLS", "state": "MI", "street": "2050 SOUTH BLVD", "postcode": "48303"}}},
{"geometry": {"type": "Point", "coordinates": [-83.2431850442, 42.5841143137]}, "type": "Feature", "properties": {"collection_times": [{"days": "Mon-Fri", "time": "5:00pm"}, {"days": "Sat-Sun", "time": "Closed"}], "id": "4830300114", "name": "USPS COLLECTION BOX - PO LOBBY", "address": {"city": "BLOOMFLD HLS", "state": "MI", "street": "2050 SOUTH BLVD", "postcode": "48303"}}},
{"geometry": {"type": "Point", "coordinates": [-83.22266407, 42.558268356]}, "type": "Feature", "properties": {"collection_times": [{"days": "Mon-Fri", "time": "3:00pm"}, {"days": "Sat-Sun", "time": "Closed"}], "id": "4830400001", "name": "USPS COLLECTION BOX - BLUE BOX", "address": {"city": "BLOOMFLD HLS", "state": "MI", "street": "36700 WOODWARD AVE", "postcode": "48304"}}},
{"geometry": {"type": "Point", "coordinates": [-83.26305751, 42.602681675]}, "type": "Feature", "properties": {"collection_times": [{"days": "Mon-Fri", "time": "5:00pm"}, {"days": "Sat-Sun", "time": "Closed"}], "id": "4830400002", "name": "USPS COLLECTION BOX - BLUE BOX", "address": {"city": "BLOOMFLD HLS", "state": "MI", "street": "42934 WOODWARD AVE", "postcode": "48304"}}},
{"geometry": {"type": "Point", "coordinates": [-83.2387794546, 42.5848159968]}, "type": "Feature", "properties": {"collection_times": [{"days": "Mon-Fri", "time": "3:00pm"}, {"days": "Sat-Sun", "time": "Closed"}], "id": "4830400003", "name": "USPS COLLECTION BOX - BLUE BOX", "address": {"city": "BLOOMFLD HLS", "state": "MI", "street": "200 E LONG LAKE RD", "postcode": "48304"}}},
{"geometry": {"type": "Point", "coordinates": [-83.250451266, 42.5671587511]}, "type": "Feature", "properties": {"collection_times": [{"days": "Mon-Sat", "time": "1:00pm"}, {"days": "Sun", "time": "Closed"}], "id": "4830400004", "name": "USPS COLLECTION BOX - BLUE BOX", "address": {"city": "BLOOMFLD HLS", "state": "MI", "street": "411 LONE PINE RD", "postcode": "48304"}}},
{"geometry": {"type": "Point", "coordinates": [-83.244603826, 42.582727966]}, "type": "Feature", "properties": {"collection_times": [{"days": "Mon-Fri", "time": "3:00pm"}, {"days": "Sat-Sun", "time": "Closed"}], "id": "4830400005", "name": "USPS COLLECTION BOX - BLUE BOX", "address": {"city": "BLOOMFLD HLS", "state": "MI", "street": "39533 WOODWARD AVE", "postcode": "48304"}}},
{"geometry": {"type": "Point", "coordinates": [-83.2457186919, 42.6199593418]}, "type": "Feature", "properties": {"collection_times": [{"days": "Mon-Sat", "time": "5:30pm"}, {"days": "Sun", "time": "Closed"}], "id": "4830400006", "name": "USPS COLLECTION BOX - BLUE BOX", "address": {"city": "BLOOMFLD HLS", "state": "MI", "street": "2050 SOUTH BLVD", "postcode": "48304"}}},
{"geometry": {"type": "Point", "coordinates": [-83.2418161103, 42.5819697976]}, "type": "Feature", "properties": {"collection_times": [{"days": "Mon-Fri", "time": "3:00pm"}, {"days": "Sat-Sun", "time": "Closed"}], "id": "4830400007", "name": "USPS COLLECTION BOX - BLUE BOX", "address": {"city": "BLOOMFLD HLS", "state": "MI", "street": "33 BLOOMFIELD HILLS PKWY", "postcode": "48304"}}},
{"geometry": {"type": "Point", "coordinates": [-83.244603826, 42.582727966]}, "type": "Feature", "properties": {"collection_times": [{"days": "Mon-Fri", "time": "3:00pm"}, {"days": "Sat-Sun", "time": "Closed"}], "id": "4830400008", "name": "USPS COLLECTION BOX - BLUE BOX", "address": {"city": "BLOOMFLD HLS", "state": "MI", "street": "39533 WOODWARD AVE", "postcode": "48304"}}},
{"geometry": {"type": "Point", "coordinates": [-83.26305751, 42.602681675]}, "type": "Feature", "properties": {"collection_times": [{"days": "Mon-Fri", "time": "5:00pm"}, {"days": "Sat-Sun", "time": "Closed"}], "id": "4830400010", "name": "USPS COLLECTION BOX - BLUE BOX", "address": {"city": "BLOOMFLD HLS", "state": "MI", "street": "42934 WOODWARD AVE", "postcode": "48304"}}},
{"geometry": {"type": "Point", "coordinates": [-83.2421888681, 42.5806918016]}, "type": "Feature", "properties": {"collection_times": [{"days": "Mon-Fri", "time": "3:00pm"}, {"days": "Sat-Sun", "time": "Closed"}], "id": "4830400015", "name": "USPS COLLECTION BOX - BLUE BOX", "address": {"city": "BLOOMFLD HLS", "state": "MI", "street": "39400 WOODWARD AVE", "postcode": "48304"}}},
{"geometry": {"type": "Point", "coordinates": [-83.248497498, 42.588304168]}, "type": "Feature", "properties": {"collection_times": [{"days": "Mon-Fri", "time": "4:30pm"}, {"days": "Sat-Sun", "time": "Closed"}], "id": "4830400016", "name": "USPS COLLECTION BOX - BLUE BOX", "address": {"city": "BLOOMFLD HLS", "state": "MI", "street": "40950 WOODWARD AVE", "postcode": "48304"}}},
{"geometry": {"type": "Point", "coordinates": [-83.246905729, 42.585369035]}, "type": "Feature", "properties": {"collection_times": [{"days": "Mon-Fri", "time": "3:00pm"}, {"days": "Sat-Sun", "time": "Closed"}], "id": "4830400017", "name": "USPS COLLECTION BOX - BLUE BOX", "address": {"city": "BLOOMFLD HLS", "state": "MI", "street": "40701 WOODWARD AVE", "postcode": "48304"}}},
{"geometry": {"type": "Point", "coordinates": [-83.248705045, 42.588541407]}, "type": "Feature", "properties": {"collection_times": [{"days": "Mon-Fri", "time": "3:00pm"}, {"days": "Sat-Sun", "time": "Closed"}], "id": "4830400020", "name": "USPS COLLECTION BOX - BLUE BOX", "address": {"city": "BLOOMFLD HLS", "state": "MI", "street": "41000 WOODWARD AVE", "postcode": "48304"}}},
{"geometry": {"type": "Point", "coordinates": [-83.2373244151, 42.5854193059]}, "type": "Feature", "properties": {"collection_times": [{"days": "Mon-Fri", "time": "3:00pm"}, {"days": "Sat-Sun", "time": "Closed"}], "id": "4830400025", "name": "USPS COLLECTION BOX - BLUE BOX", "address": {"city": "BLOOMFLD HLS", "state": "MI", "street": "300 E LONG LAKE RD", "postcode": "48304"}}},
{"geometry": {"type": "Point", "coordinates": [-83.2373244151, 42.5854193059]}, "type": "Feature", "properties": {"collection_times": [{"days": "Mon-Fri", "time": "3:00pm"}, {"days": "Sat-Sun", "time": "Closed"}], "id": "4830400026", "name": "USPS COLLECTION BOX - BLUE BOX", "address": {"city": "BLOOMFLD HLS", "state": "MI", "street": "300 E LONG LAKE RD", "postcode": "48304"}}},
{"geometry": {"type": "Point", "coordinates": [-83.2472200811, 42.5835071743]}, "type": "Feature", "properties": {"collection_times": [{"days": "Mon-Fri", "time": "1:00pm"}, {"days": "Sat-Sun", "time": "Closed"}], "id": "4830400028", "name": "USPS COLLECTION BOX - BLUE BOX", "address": {"city": "BLOOMFLD HLS", "state": "MI", "street": "61 W LONG LAKE RD", "postcode": "48304"}}},
{"geometry": {"type": "Point", "coordinates": [-83.138418399, 42.6955539685]}, "type": "Feature", "properties": {"collection_times": [{"days": "Mon-Sat", "time": "12:00pm"}, {"days": "Sun", "time": "Closed"}], "id": "4830600000", "name": "USPS COLLECTION BOX - BLUE BOX", "address": {"city": "ROCHESTER", "state": "MI", "street": "6910 N ROCHESTER RD", "postcode": "48306"}}},
{"geometry": {"type": "Point", "coordinates": [-83.1964680986, 42.7258812659]}, "type": "Feature", "properties": {"collection_times": [{"days": "Mon-Sat", "time": "12:00pm"}, {"days": "Sun", "time": "Closed"}], "id": "4830600002", "name": "USPS COLLECTION BOX - BLUE BOX", "address": {"city": "ROCHESTER", "state": "MI", "street": "4888 N ADAMS RD", "postcode": "48306"}}},
{"geometry": {"type": "Point", "coordinates": [-83.153219883, 42.6801700197]}, "type": "Feature", "properties": {"collection_times": [{"days": "Mon-Fri", "time": "2:30pm"}, {"days": "Sat", "time": "1:00pm"}, {"days": "Sun", "time": "Closed"}], "id": "4830700001", "name": "USPS COLLECTION BOX - BLUE BOX", "address": {"city": "ROCHESTER HILLS", "state": "MI", "street": "145 S LIVERNOIS RD", "postcode": "48307"}}},
{"geometry": {"type": "Point", "coordinates": [-83.1488890098, 42.6817148837]}, "type": "Feature", "properties": {"collection_times": [{"days": "Mon-Fri", "time": "3:00pm"}, {"days": "Sat", "time": "12:00pm"}, {"days": "Sun", "time": "Closed"}], "id": "4830700003", "name": "USPS COLLECTION BOX - BLUE BOX", "address": {"city": "ROCHESTER HILLS", "state": "MI", "street": "1135 W UNIVERSITY DR", "postcode": "48307"}}},
{"geometry": {"type": "Point", "coordinates": [-83.1337811998, 42.6808178487]}, "type": "Feature", "properties": {"collection_times": [{"days": "Mon-Fri", "time": "12:00pm"}, {"days": "Sat", "time": "10:00am"}, {"days": "Sun", "time": "Closed"}], "id": "4830700008", "name": "USPS COLLECTION BOX - BLUE BOX", "address": {"city": "ROCHESTER HILLS", "state": "MI", "street": "400 S MAIN ST", "postcode": "48307"}}},
{"geometry": {"type": "Point", "coordinates": [-83.1323282924, 42.6502591936]}, "type": "Feature", "properties": {"collection_times": [{"days": "Mon-Sat", "time": "12:00pm"}, {"days": "Sun", "time": "Closed"}], "id": "4830700011", "name": "USPS COLLECTION BOX - BLUE BOX", "address": {"city": "ROCHESTER HILLS", "state": "MI", "street": "75 BARCLAY CIR", "postcode": "48307"}}},
{"geometry": {"type": "Point", "coordinates": [-83.1466529763, 42.6659788114]}, "type": "Feature", "properties": {"collection_times": [{"days": "Mon-Fri", "time": "2:30pm"}, {"days": "Sat-Sun", "time": "Closed"}], "id": "4830700012", "name": "USPS COLLECTION BOX - BLUE BOX", "address": {"city": "ROCHESTER HILLS", "state": "MI", "street": "800 W AVON RD", "postcode": "48307"}}},
{"geometry": {"type": "Point", "coordinates": [-83.1326007035, 42.6519535186]}, "type": "Feature", "properties": {"collection_times": [{"days": "Mon-Fri", "time": "2:30pm"}, {"days": "Sat", "time": "12:00pm"}, {"days": "Sun", "time": "Closed"}], "id": "4830700017", "name": "USPS COLLECTION BOX - BLUE BOX", "address": {"city": "ROCHESTER HILLS", "state": "MI", "street": "1954 S ROCHESTER RD", "postcode": "48307"}}},
{"geometry": {"type": "Point", "coordinates": [-83.1145741111, 42.6366780299]}, "type": "Feature", "properties": {"collection_times": [{"days": "Mon-Sat", "time": "12:00pm"}, {"days": "Sun", "time": "Closed"}], "id": "4830700019", "name": "USPS COLLECTION BOX - BLUE BOX", "address": {"city": "ROCHESTER HILLS", "state": "MI", "street": "829 E AUBURN RD", "postcode": "48307"}}},
{"geometry": {"type": "Point", "coordinates": [-83.1315740085, 42.633976131]}, "type": "Feature", "properties": {"collection_times": [{"days": "Mon-Fri", "time": "3:00pm"}, {"days": "Sat", "time": "1:00pm"}, {"days": "Sun", "time": "Closed"}], "id": "4830700023", "name": "USPS COLLECTION BOX - BLUE BOX", "address": {"city": "ROCHESTER HILLS", "state": "MI", "street": "3175 S ROCHESTER RD", "postcode": "48307"}}},
{"geometry": {"type": "Point", "coordinates": [-83.1331353043, 42.6652264495]}, "type": "Feature", "properties": {"collection_times": [{"days": "Mon-Fri", "time": "2:30pm"}, {"days": "Sat", "time": "12:00pm"}, {"days": "Sun", "time": "Closed"}], "id": "4830700027", "name": "USPS COLLECTION BOX - BLUE BOX", "address": {"city": "ROCHESTER HILLS", "state": "MI", "street": "1100 S ROCHESTER RD", "postcode": "48307"}}},
{"geometry": {"type": "Point", "coordinates": [-83.1532810954, 42.6744819204]}, "type": "Feature", "properties": {"collection_times": [{"days": "Mon-Fri", "time": "2:30pm"}, {"days": "Sat", "time": "1:00pm"}, {"days": "Sun", "time": "Closed"}], "id": "4830700030", "name": "USPS COLLECTION BOX - BLUE BOX", "address": {"city": "ROCHESTER HILLS", "state": "MI", "street": "455 S LIVERNOIS RD", "postcode": "48307"}}},
{"geometry": {"type": "Point", "coordinates": [-83.1344028477, 42.6941757539]}, "type": "Feature", "properties": {"collection_times": [{"days": "Mon-Fri", "time": "2:30pm"}, {"days": "Sat", "time": "12:00pm"}, {"days": "Sun", "time": "Closed"}], "id": "4830700032", "name": "USPS COLLECTION BOX - BLUE BOX", "address": {"city": "ROCHESTER HILLS", "state": "MI", "street": "1451 N ROCHESTER RD", "postcode": "48307"}}},
{"geometry": {"type": "Point", "coordinates": [-83.1295166328, 42.6472407414]}, "type": "Feature", "properties": {"collection_times": [{"days": "Mon-Fri", "time": "12:00pm"}, {"days": "Sat", "time": "10:00am"}, {"days": "Sun", "time": "Closed"}], "id": "4830700033", "name": "USPS COLLECTION BOX - BLUE BOX", "address": {"city": "ROCHESTER HILLS", "state": "MI", "street": "254 HAMPTON CIR", "postcode": "48307"}}},
{"geometry": {"type": "Point", "coordinates": [-83.132121996, 42.6424314753]}, "type": "Feature", "properties": {"collection_times": [{"days": "Mon-Fri", "time": "2:30pm"}, {"days": "Sat", "time": "12:00pm"}, {"days": "Sun", "time": "Closed"}], "id": "4830700035", "name": "USPS COLLECTION BOX - BLUE BOX", "address": {"city": "ROCHESTER HILLS", "state": "MI", "street": "2506 S ROCHESTER RD", "postcode": "48307"}}},
{"geometry": {"type": "Point", "coordinates": [-83.1520666117, 42.6659753631]}, "type": "Feature", "properties": {"collection_times": [{"days": "Mon-Fri", "time": "2:30pm"}, {"days": "Sat", "time": "10:00am"}, {"days": "Sun", "time": "Closed"}], "id": "4830700041", "name": "USPS COLLECTION BOX - BLUE BOX", "address": {"city": "ROCHESTER HILLS", "state": "MI", "street": "930 W AVON RD", "postcode": "48307"}}},
{"geometry": {"type": "Point", "coordinates": [-83.1461076323, 42.6818257297]}, "type": "Feature", "properties": {"collection_times": [{"days": "Mon-Fri", "time": "3:00pm"}, {"days": "Sat", "time": "10:00am"}, {"days": "Sun", "time": "Closed"}], "id": "4830700042", "name": "USPS COLLECTION BOX - BLUE BOX", "address": {"city": "ROCHESTER HILLS", "state": "MI", "street": "1000 W UNIVERSITY DR", "postcode": "48307"}}},
{"geometry": {"type": "Point", "coordinates": [-83.1320442478, 42.6407657386]}, "type": "Feature", "properties": {"collection_times": [{"days": "Mon-Fri", "time": "5:00pm"}, {"days": "Sat", "time": "3:00pm"}, {"days": "Sun", "time": "Closed"}], "id": "4830700045", "name": "USPS COLLECTION BOX - BLUE BOX", "address": {"city": "ROCHESTER HILLS", "state": "MI", "street": "2632 S ROCHESTER RD", "postcode": "48307"}}},
{"geometry": {"type": "Point", "coordinates": [-83.1320442478, 42.6407657386]}, "type": "Feature", "properties": {"collection_times": [{"days": "Mon-Fri", "time": "5:00pm"}, {"days": "Sat", "time": "3:00pm"}, {"days": "Sun", "time": "Closed"}], "id": "4830700049", "name": "USPS COLLECTION BOX - PO LOBBY", "address": {"city": "ROCHESTER HILLS", "state": "MI", "street": "2632 S ROCHESTER RD", "postcode": "48307"}}},
{"geometry": {"type": "Point", "coordinates": [-83.1320442478, 42.6407657386]}, "type": "Feature", "properties": {"collection_times": [{"days": "Mon-Fri", "time": "5:00pm"}, {"days": "Sat", "time": "3:00pm"}, {"days": "Sun", "time": "Closed"}], "id": "4830700050", "name": "USPS COLLECTION BOX - APC", "address": {"city": "ROCHESTER HILLS", "state": "MI", "street": "2632 S ROCHESTER RD", "postcode": "48307"}}},
{"geometry": {"type": "Point", "coordinates": [-83.1315903598, 42.6835268247]}, "type": "Feature", "properties": {"collection_times": [{"days": "Mon-Sat", "time": "5:00pm"}, {"days": "Sun", "time": "Closed"}], "id": "4830800037", "name": "USPS COLLECTION BOX - PO LOBBY", "address": {"city": "ROCHESTER", "state": "MI", "street": "511 OLDE TOWNE RD", "postcode": "48308"}}},
{"geometry": {"type": "Point", "coordinates": [-83.13701837, 42.6834223931]}, "type": "Feature", "properties": {"collection_times": [{"days": "Mon-Sat", "time": "5:00pm"}, {"days": "Sun", "time": "Closed"}], "id": "4830800039", "name": "USPS COLLECTION BOX - BLUE BOX", "address": {"city": "ROCHESTER", "state": "MI", "street": "511 OLDE TOWNE RD", "postcode": "48308"}}},
{"geometry": {"type": "Point", "coordinates": [-83.1315903598, 42.6835268247]}, "type": "Feature", "properties": {"collection_times": [{"days": "Mon-Sat", "time": "5:00pm"}, {"days": "Sun", "time": "Closed"}], "id": "4830800040", "name": "USPS COLLECTION BOX - BLUE BOX", "address": {"city": "ROCHESTER", "state": "MI", "street": "511 OLDE TOWNE RD", "postcode": "48308"}}},
{"geometry": {"type": "Point", "coordinates": [-83.1315903598, 42.6835268247]}, "type": "Feature", "properties": {"collection_times": [{"days": "Mon-Sat", "time": "5:00pm"}, {"days": "Sun", "time": "Closed"}], "id": "4830800060", "name": "USPS COLLECTION BOX - PO LOBBY", "address": {"city": "ROCHESTER", "state": "MI", "street": "511 OLDE TOWNE RD", "postcode": "48308"}}},
{"geometry": {"type": "Point", "coordinates": [-83.1315903598, 42.6835268247]}, "type": "Feature", "properties": {"collection_times": [{"days": "Mon-Sat", "time": "5:00pm"}, {"days": "Sun", "time": "Closed"}], "id": "4830800061", "name": "USPS COLLECTION BOX - PO LOBBY", "address": {"city": "ROCHESTER", "state": "MI", "street": "511 OLDE TOWNE RD", "postcode": "48308"}}},
{"geometry": {"type": "Point", "coordinates": [-83.1315903598, 42.6835268247]}, "type": "Feature", "properties": {"collection_times": [{"days": "Mon-Sat", "time": "5:00pm"}, {"days": "Sun", "time": "Closed"}], "id": "4830800062", "name": "USPS COLLECTION BOX - PO LOBBY", "address": {"city": "ROCHESTER", "state": "MI", "street": "511 OLDE TOWNE RD", "postcode": "48308"}}},
{"geometry": {"type": "Point", "coordinates": [-83.1315903598, 42.6835268247]}, "type": "Feature", "properties": {"collection_times": [{"days": "Mon-Sat", "time": "5:00pm"}, {"days": "Sun", "time": "Closed"}], "id": "4830800064", "name": "USPS COLLECTION BOX - APC", "address": {"city": "ROCHESTER", "state": "MI", "street": "511 OLDE TOWNE RD", "postcode": "48308"}}},
{"geometry": {"type": "Point", "coordinates": [-83.1883227059, 42.6350527152]}, "type": "Feature", "properties": {"collection_times": [{"days": "Mon-Fri", "time": "2:30pm"}, {"days": "Sat", "time": "10:00am"}, {"days": "Sun", "time": "Closed"}], "id": "4830900001", "name": "USPS COLLECTION BOX - BLUE BOX", "address": {"city": "ROCHESTER HILLS", "state": "MI", "street": "2960 BOND ST", "postcode": "48309"}}},
{"geometry": {"type": "Point", "coordinates": [-83.1697727264, 42.6480723616]}, "type": "Feature", "properties": {"collection_times": [{"days": "Mon-Fri", "time": "2:30pm"}, {"days": "Sat", "time": "10:00am"}, {"days": "Sun", "time": "Closed"}], "id": "4830900003", "name": "USPS COLLECTION BOX - BLUE BOX", "address": {"city": "ROCHESTER HILLS", "state": "MI", "street": "1928 STAR BATT DR", "postcode": "48309"}}},
{"geometry": {"type": "Point", "coordinates": [-83.1710569951, 42.648397032]}, "type": "Feature", "properties": {"collection_times": [{"days": "Mon-Fri", "time": "2:30pm"}, {"days": "Sat", "time": "10:00am"}, {"days": "Sun", "time": "Closed"}], "id": "4830900005", "name": "USPS COLLECTION BOX - BLUE BOX", "address": {"city": "ROCHESTER HILLS", "state": "MI", "street": "2256 CROOKS RD", "postcode": "48309"}}},
{"geometry": {"type": "Point", "coordinates": [-83.1685, 42.6415]}, "type": "Feature", "properties": {"collection_times": [{"days": "Mon-Fri", "time": "3:00pm"}, {"days": "Sat", "time": "10:00am"}, {"days": "Sun", "time": "Closed"}], "id": "4830900007", "name": "USPS COLLECTION BOX - BLUE BOX", "address": {"city": "ROCHESTER HILLS", "state": "MI", "street": "1955 ENTERPRISE DR", "postcode": "48309"}}},
{"geometry": {"type": "Point", "coordinates": [-83.194958405, 42.6807057077]}, "type": "Feature", "properties": {"collection_times": [{"days": "Mon-Fri", "time": "3:00pm"}, {"days": "Sat", "time": "12:00pm"}, {"days": "Sun", "time": "Closed"}], "id": "4830900011", "name": "USPS COLLECTION BOX - BLUE BOX", "address": {"city": "ROCHESTER HILLS", "state": "MI", "street": "3038 WALTON BLVD", "postcode": "48309"}}},
{"geometry": {"type": "Point", "coordinates": [-83.1588800402, 42.6805090964]}, "type": "Feature", "properties": {"collection_times": [{"days": "Mon-Fri", "time": "12:00pm"}, {"days": "Sat-Sun", "time": "Closed"}], "id": "4830900012", "name": "USPS COLLECTION BOX - BLUE BOX", "address": {"city": "ROCHESTER HILLS", "state": "MI", "street": "111 ROCHDALE DR S", "postcode": "48309"}}},
{"geometry": {"type": "Point", "coordinates": [-83.1626998147, 42.6387589256]}, "type": "Feature", "properties": {"collection_times": [{"days": "Mon-Fri", "time": "3:00pm"}, {"days": "Sat", "time": "10:00am"}, {"days": "Sun", "time": "Closed"}], "id": "4830900017", "name": "USPS COLLECTION BOX - BLUE BOX", "address": {"city": "ROCHESTER HILLS", "state": "MI", "street": "1685 NORTHFIELD DR", "postcode": "48309"}}},
{"geometry": {"type": "Point", "coordinates": [-83.1687253703, 42.6386132493]}, "type": "Feature", "properties": {"collection_times": [{"days": "Mon-Fri", "time": "2:30pm"}, {"days": "Sat", "time": "10:00am"}, {"days": "Sun", "time": "Closed"}], "id": "4830900019", "name": "USPS COLLECTION BOX - BLUE BOX", "address": {"city": "ROCHESTER HILLS", "state": "MI", "street": "1926 NORTHFIELD DR", "postcode": "48309"}}},
{"geometry": {"type": "Point", "coordinates": [-83.1685, 42.6415]}, "type": "Feature", "properties": {"collection_times": [{"days": "Mon-Fri", "time": "3:00pm"}, {"days": "Sat", "time": "10:00am"}, {"days": "Sun", "time": "Closed"}], "id": "4830900020", "name": "USPS COLLECTION BOX - BLUE BOX", "address": {"city": "ROCHESTER HILLS", "state": "MI", "street": "1955 ENTERPRISE DR", "postcode": "48309"}}},
{"geometry": {"type": "Point", "coordinates": [-83.1559949409, 42.6816241762]}, "type": "Feature", "properties": {"collection_times": [{"days": "Mon-Sat", "time": "12:00pm"}, {"days": "Sun", "time": "Closed"}], "id": "4830900022", "name": "USPS COLLECTION BOX - BLUE BOX", "address": {"city": "ROCHESTER HILLS", "state": "MI", "street": "1394 WALTON BLVD", "postcode": "48309"}}},
{"geometry": {"type": "Point", "coordinates": [-83.170675324, 42.6378149244]}, "type": "Feature", "properties": {"collection_times": [{"days": "Mon-Fri", "time": "2:30pm"}, {"days": "Sat", "time": "10:00am"}, {"days": "Sun", "time": "Closed"}], "id": "4830900023", "name": "USPS COLLECTION BOX - BLUE BOX", "address": {"city": "ROCHESTER HILLS", "state": "MI", "street": "2840 CROOKS RD", "postcode": "48309"}}},
{"geometry": {"type": "Point", "coordinates": [-83.1802694436, 42.6597543179]}, "type": "Feature", "properties": {"collection_times": [{"days": "Mon-Fri", "time": "3:00pm"}, {"days": "Sat", "time": "12:00pm"}, {"days": "Sun", "time": "Closed"}], "id": "4830900025", "name": "USPS COLLECTION BOX - BLUE BOX", "address": {"city": "ROCHESTER HILLS", "state": "MI", "street": "3028 WALTON BLVD", "postcode": "48309"}}},
{"geometry": {"type": "Point", "coordinates": [-83.159809846, 42.6814755739]}, "type": "Feature", "properties": {"collection_times": [{"days": "Mon-Fri", "time": "3:00pm"}, {"days": "Sat", "time": "12:00pm"}, {"days": "Sun", "time": "Closed"}], "id": "4830900026", "name": "USPS COLLECTION BOX - BLUE BOX", "address": {"city": "ROCHESTER HILLS", "state": "MI", "street": "1460 WALTON BLVD", "postcode": "48309"}}},
{"geometry": {"type": "Point", "coordinates": [-83.158431624, 42.6535848019]}, "type": "Feature", "properties": {"collection_times": [{"days": "Mon-Fri", "time": "2:30pm"}, {"days": "Sat", "time": "10:00am"}, {"days": "Sun", "time": "Closed"}], "id": "4830900029", "name": "USPS COLLECTION BOX - BLUE BOX", "address": {"city": "ROCHESTER HILLS", "state": "MI", "street": "1954 ROCHESTER INDUSTRIAL DR", "postcode": "48309"}}},
{"geometry": {"type": "Point", "coordinates": [-83.1839019534, 42.6347012852]}, "type": "Feature", "properties": {"collection_times": [{"days": "Mon-Fri", "time": "12:00pm"}, {"days": "Sat", "time": "10:00am"}, {"days": "Sun", "time": "Closed"}], "id": "4830900030", "name": "USPS COLLECTION BOX - BLUE BOX", "address": {"city": "ROCHESTER HILLS", "state": "MI", "street": "2600 W AUBURN RD", "postcode": "48309"}}},
{"geometry": {"type": "Point", "coordinates": [-83.0863428745, 42.549477907]}, "type": "Feature", "properties": {"collection_times": [{"days": "Mon-Sat", "time": "10:00am"}, {"days": "Sun", "time": "Closed"}], "id": "4831000008", "name": "USPS COLLECTION BOX - BLUE BOX", "address": {"city": "STERLING HTS", "state": "MI", "street": "2079 15 MILE RD", "postcode": "48310"}}},
{"geometry": {"type": "Point", "coordinates": [-83.0892414471, 42.5778940417]}, "type": "Feature", "properties": {"collection_times": [{"days": "Mon-Fri", "time": "10:00am"}, {"days": "Sat", "time": "9:00am"}, {"days": "Sun", "time": "Closed"}], "id": "4831000012", "name": "USPS COLLECTION BOX - BLUE BOX", "address": {"city": "STERLING HTS", "state": "MI", "street": "38916 DEQUINDRE RD", "postcode": "48310"}}},
{"geometry": {"type": "Point", "coordinates": [-83.086934696, 42.5364515044]}, "type": "Feature", "properties": {"collection_times": [{"days": "Mon-Sat", "time": "10:00am"}, {"days": "Sun", "time": "Closed"}], "id": "4831000014", "name": "USPS COLLECTION BOX - BLUE BOX", "address": {"city": "STERLING HTS", "state": "MI", "street": "33178 DEQUINDRE RD", "postcode": "48310"}}},
{"geometry": {"type": "Point", "coordinates": [-83.0549641929, 42.5901759839]}, "type": "Feature", "properties": {"collection_times": [{"days": "Mon-Fri", "time": "11:00am"}, {"days": "Sat", "time": "10:00am"}, {"days": "Sun", "time": "Closed"}], "id": "4831000015", "name": "USPS COLLECTION BOX - BLUE BOX", "address": {"city": "STERLING HTS", "state": "MI", "street": "40550 BRENTWOOD DR", "postcode": "48310"}}},
{"geometry": {"type": "Point", "coordinates": [-83.0711198635, 42.5791354279]}, "type": "Feature", "properties": {"collection_times": [{"days": "Mon-Sat", "time": "10:00am"}, {"days": "Sun", "time": "Closed"}], "id": "4831000018", "name": "USPS COLLECTION BOX - BLUE BOX", "address": {"city": "STERLING HTS", "state": "MI", "street": "3905 17 MILE RD", "postcode": "48310"}}},
{"geometry": {"type": "Point", "coordinates": [-83.0704182184, 42.5506672728]}, "type": "Feature", "properties": {"collection_times": [{"days": "Mon-Sat", "time": "10:00am"}, {"days": "Sun", "time": "Closed"}], "id": "4831000019", "name": "USPS COLLECTION BOX - BLUE BOX", "address": {"city": "STERLING HTS", "state": "MI", "street": "3787 15 MILE RD", "postcode": "48310"}}},
{"geometry": {"type": "Point", "coordinates": [-83.0398550803, 42.5652690213]}, "type": "Feature", "properties": {"collection_times": [{"days": "Mon-Sat", "time": "5:00pm"}, {"days": "Sun", "time": "Closed"}], "id": "4831100000", "name": "USPS COLLECTION BOX - APC", "address": {"city": "STERLING HTS", "state": "MI", "street": "7007 16 MILE RD", "postcode": "48311"}}},
{"geometry": {"type": "Point", "coordinates": [-83.0398550803, 42.5652690213]}, "type": "Feature", "properties": {"collection_times": [{"days": "Mon-Sat", "time": "5:00pm"}, {"days": "Sun", "time": "Closed"}], "id": "4831100018", "name": "USPS COLLECTION BOX - BLUE BOX", "address": {"city": "STERLING HTS", "state": "MI", "street": "7007 16 MILE RD", "postcode": "48311"}}},
{"geometry": {"type": "Point", "coordinates": [-83.0398550803, 42.5652690213]}, "type": "Feature", "properties": {"collection_times": [{"days": "Mon-Sat", "time": "5:00pm"}, {"days": "Sun", "time": "Closed"}], "id": "4831100019", "name": "USPS COLLECTION BOX - BLUE BOX", "address": {"city": "STERLING HTS", "state": "MI", "street": "7007 16 MILE RD", "postcode": "48311"}}},
{"geometry": {"type": "Point", "coordinates": [-83.0398550803, 42.5652690213]}, "type": "Feature", "properties": {"collection_times": [{"days": "Mon-Sat", "time": "5:00pm"}, {"days": "Sun", "time": "Closed"}], "id": "4831100020", "name": "USPS COLLECTION BOX - BLUE BOX", "address": {"city": "STERLING HTS", "state": "MI", "street": "7007 16 MILE RD", "postcode": "48311"}}},
{"geometry": {"type": "Point", "coordinates": [-83.0398550803, 42.5652690213]}, "type": "Feature", "properties": {"collection_times": [{"days": "Mon-Sat", "time": "5:00pm"}, {"days": "Sun", "time": "Closed"}], "id": "4831100021", "name": "USPS COLLECTION BOX - BLUE BOX", "address": {"city": "STERLING HTS", "state": "MI", "street": "7007 16 MILE RD", "postcode": "48311"}}},
{"geometry": {"type": "Point", "coordinates": [-83.0398550803, 42.5652690213]}, "type": "Feature", "properties": {"collection_times": [{"days": "Mon-Sat", "time": "5:00pm"}, {"days": "Sun", "time": "Closed"}], "id": "4831100133", "name": "USPS COLLECTION BOX - PO LOBBY", "address": {"city": "STERLING HTS", "state": "MI", "street": "7007 16 MILE RD", "postcode": "48311"}}},
{"geometry": {"type": "Point", "coordinates": [-83.0398550803, 42.5652690213]}, "type": "Feature", "properties": {"collection_times": [{"days": "Mon-Sat", "time": "5:00pm"}, {"days": "Sun", "time": "Closed"}], "id": "4831100134", "name": "USPS COLLECTION BOX - PO LOBBY", "address": {"city": "STERLING HTS", "state": "MI", "street": "7007 16 MILE RD", "postcode": "48311"}}},
{"geometry": {"type": "Point", "coordinates": [-83.0096533156, 42.5532002355]}, "type": "Feature", "properties": {"collection_times": [{"days": "Mon-Sat", "time": "10:00am"}, {"days": "Sun", "time": "Closed"}], "id": "4831200009", "name": "USPS COLLECTION BOX - BLUE BOX", "address": {"city": "STERLING HTS", "state": "MI", "street": "35170 DODGE PARK RD", "postcode": "48312"}}},
{"geometry": {"type": "Point", "coordinates": [-83.0096533156, 42.5532002355]}, "type": "Feature", "properties": {"collection_times": [{"days": "Mon-Sat", "time": "10:00am"}, {"days": "Sun", "time": "Closed"}], "id": "4831200010", "name": "USPS COLLECTION BOX - BLUE BOX", "address": {"city": "STERLING HTS", "state": "MI", "street": "35170 DODGE PARK RD", "postcode": "48312"}}},
{"geometry": {"type": "Point", "coordinates": [-83.0107295489, 42.5767158333]}, "type": "Feature", "properties": {"collection_times": [{"days": "Mon-Sat", "time": "10:00am"}, {"days": "Sun", "time": "Closed"}], "id": "4831200016", "name": "USPS COLLECTION BOX - BLUE BOX", "address": {"city": "STERLING HTS", "state": "MI", "street": "38365 DODGE PARK RD", "postcode": "48312"}}},
{"geometry": {"type": "Point", "coordinates": [-82.9892129677, 42.5703318473]}, "type": "Feature", "properties": {"collection_times": [{"days": "Mon-Sat", "time": "10:00am"}, {"days": "Sun", "time": "Closed"}], "id": "4831200018", "name": "USPS COLLECTION BOX - BLUE BOX", "address": {"city": "STERLING HTS", "state": "MI", "street": "37500 SCHOENHERR RD", "postcode": "48312"}}},
{"geometry": {"type": "Point", "coordinates": [-82.9913648451, 42.5522097543]}, "type": "Feature", "properties": {"collection_times": [{"days": "Mon-Fri", "time": "10:00am"}, {"days": "Sat", "time": "11:00am"}, {"days": "Sun", "time": "Closed"}], "id": "4831200021", "name": "USPS COLLECTION BOX - BLUE BOX", "address": {"city": "STERLING HTS", "state": "MI", "street": "13375 15 MILE RD", "postcode": "48312"}}},
{"geometry": {"type": "Point", "coordinates": [-82.9927251729, 42.6170906663]}, "type": "Feature", "properties": {"collection_times": [{"days": "Mon-Fri", "time": "10:00am"}, {"days": "Sat", "time": "12:00pm"}, {"days": "Sun", "time": "Closed"}], "id": "4831300002", "name": "USPS COLLECTION BOX - BLUE BOX", "address": {"city": "STERLING HTS", "state": "MI", "street": "43893 SCHOENHERR RD", "postcode": "48313"}}},
{"geometry": {"type": "Point", "coordinates": [-83.0301118897, 42.5941159883]}, "type": "Feature", "properties": {"collection_times": [{"days": "Mon-Fri", "time": "12:15pm"}, {"days": "Sat", "time": "11:15am"}, {"days": "Sun", "time": "Closed"}], "id": "4831300008", "name": "USPS COLLECTION BOX - BLUE BOX", "address": {"city": "STERLING HTS", "state": "MI", "street": "40752 VAN DYKE AVE", "postcode": "48313"}}},
{"geometry": {"type": "Point", "coordinates": [-82.9927251729, 42.6170906663]}, "type": "Feature", "properties": {"collection_times": [{"days": "Mon-Fri", "time": "10:00am"}, {"days": "Sat", "time": "12:00pm"}, {"days": "Sun", "time": "Closed"}], "id": "4831300016", "name": "USPS COLLECTION BOX - BLUE BOX", "address": {"city": "STERLING HTS", "state": "MI", "street": "43893 SCHOENHERR RD", "postcode": "48313"}}},
{"geometry": {"type": "Point", "coordinates": [-83.011218704, 42.5909831727]}, "type": "Feature", "properties": {"collection_times": [{"days": "Mon-Fri", "time": "12:15pm"}, {"days": "Sat", "time": "10:00am"}, {"days": "Sun", "time": "Closed"}], "id": "4831300017", "name": "USPS COLLECTION BOX - BLUE BOX", "address": {"city": "STERLING HTS", "state": "MI", "street": "40333 DODGE PARK RD", "postcode": "48313"}}},
{"geometry": {"type": "Point", "coordinates": [-83.0317453191, 42.6142522962]}, "type": "Feature", "properties": {"collection_times": [{"days": "Mon-Sat", "time": "11:00am"}, {"days": "Sun", "time": "Closed"}], "id": "4831400001", "name": "USPS COLLECTION BOX - BLUE BOX", "address": {"city": "STERLING HTS", "state": "MI", "street": "43520 VAN DYKE AVE", "postcode": "48314"}}},
{"geometry": {"type": "Point", "coordinates": [-83.0462469683, 42.6077358268]}, "type": "Feature", "properties": {"collection_times": [{"days": "Mon-Sat", "time": "11:00am"}, {"days": "Sun", "time": "Closed"}], "id": "4831400003", "name": "USPS COLLECTION BOX - BLUE BOX", "address": {"city": "STERLING HTS", "state": "MI", "street": "42825 MERRILL RD", "postcode": "48314"}}},
{"geometry": {"type": "Point", "coordinates": [-83.08837332, 42.5930635867]}, "type": "Feature", "properties": {"collection_times": [{"days": "Mon-Sat", "time": "11:00am"}, {"days": "Sun", "time": "Closed"}], "id": "4831400007", "name": "USPS COLLECTION BOX - BLUE BOX", "address": {"city": "STERLING HTS", "state": "MI", "street": "2051 18 MILE RD", "postcode": "48314"}}},
{"geometry": {"type": "Point", "coordinates": [-83.08837332, 42.5930635867]}, "type": "Feature", "properties": {"collection_times": [{"days": "Mon-Sat", "time": "11:00am"}, {"days": "Sun", "time": "Closed"}], "id": "4831400008", "name": "USPS COLLECTION BOX - BLUE BOX", "address": {"city": "STERLING HTS", "state": "MI", "street": "2051 18 MILE RD", "postcode": "48314"}}},
{"geometry": {"type": "Point", "coordinates": [-83.0510139832, 42.6077496725]}, "type": "Feature", "properties": {"collection_times": [{"days": "Mon-Fri", "time": "11:00am"}, {"days": "Sat", "time": "10:00am"}, {"days": "Sun", "time": "Closed"}], "id": "4831400011", "name": "USPS COLLECTION BOX - BLUE BOX", "address": {"city": "STERLING HTS", "state": "MI", "street": "42850 MOUND RD", "postcode": "48314"}}},
{"geometry": {"type": "Point", "coordinates": [-82.9942475136, 42.6570745726]}, "type": "Feature", "properties": {"collection_times": [{"days": "Mon-Fri", "time": "12:00pm"}, {"days": "Sat", "time": "10:00am"}, {"days": "Sun", "time": "Closed"}], "id": "4831500005", "name": "USPS COLLECTION BOX - BLUE BOX", "address": {"city": "SHELBY TOWNSHIP", "state": "MI", "street": "49159 SCHOENHERR RD", "postcode": "48315"}}},
{"geometry": {"type": "Point", "coordinates": [-82.9946131754, 42.6689953568]}, "type": "Feature", "properties": {"collection_times": [{"days": "Mon-Fri", "time": "12:00pm"}, {"days": "Sat", "time": "11:30am"}, {"days": "Sun", "time": "Closed"}], "id": "4831500006", "name": "USPS COLLECTION BOX - BLUE BOX", "address": {"city": "SHELBY TOWNSHIP", "state": "MI", "street": "50820 SCHOENHERR RD", "postcode": "48315"}}},
{"geometry": {"type": "Point", "coordinates": [-82.9945595634, 42.6656505367]}, "type": "Feature", "properties": {"collection_times": [{"days": "Mon-Fri", "time": "2:00pm"}, {"days": "Sat", "time": "1:00pm"}, {"days": "Sun", "time": "Closed"}], "id": "4831500010", "name": "USPS COLLECTION BOX - BLUE BOX", "address": {"city": "SHELBY TOWNSHIP", "state": "MI", "street": "15055 HALL RD", "postcode": "48315"}}},
{"geometry": {"type": "Point", "coordinates": [-82.9946131754, 42.6689953568]}, "type": "Feature", "properties": {"collection_times": [{"days": "Mon-Fri", "time": "12:00pm"}, {"days": "Sat", "time": "11:30am"}, {"days": "Sun", "time": "Closed"}], "id": "4831500011", "name": "USPS COLLECTION BOX - BLUE BOX", "address": {"city": "SHELBY TOWNSHIP", "state": "MI", "street": "50820 SCHOENHERR RD", "postcode": "48315"}}},
{"geometry": {"type": "Point", "coordinates": [-82.9788238818, 42.6712706844]}, "type": "Feature", "properties": {"collection_times": [{"days": "Mon-Fri", "time": "12:00pm"}, {"days": "Sat", "time": "10:00am"}, {"days": "Sun", "time": "Closed"}], "id": "4831500015", "name": "USPS COLLECTION BOX - BLUE BOX", "address": {"city": "SHELBY TOWNSHIP", "state": "MI", "street": "14945 23 MILE RD", "postcode": "48315"}}},
{"geometry": {"type": "Point", "coordinates": [-83.0342910703, 42.6824695137]}, "type": "Feature", "properties": {"collection_times": [{"days": "Mon-Fri", "time": "12:30pm"}, {"days": "Sat", "time": "12:15pm"}, {"days": "Sun", "time": "Closed"}], "id": "4831600000", "name": "USPS COLLECTION BOX - BLUE BOX", "address": {"city": "SHELBY TOWNSHIP", "state": "MI", "street": "52700 VAN DYKE AVE", "postcode": "48316"}}},
{"geometry": {"type": "Point", "coordinates": [-83.0540450338, 42.682710583]}, "type": "Feature", "properties": {"collection_times": [{"days": "Mon-Fri", "time": "12:30pm"}, {"days": "Sat", "time": "12:15pm"}, {"days": "Sun", "time": "Closed"}], "id": "4831600004", "name": "USPS COLLECTION BOX - BLUE BOX", "address": {"city": "SHELBY TOWNSHIP", "state": "MI", "street": "52871 MOUND RD", "postcode": "48316"}}},
{"geometry": {"type": "Point", "coordinates": [-83.0342910703, 42.6824695137]}, "type": "Feature", "properties": {"collection_times": [{"days": "Mon-Fri", "time": "12:30pm"}, {"days": "Sat", "time": "12:15pm"}, {"days": "Sun", "time": "Closed"}], "id": "4831600010", "name": "USPS COLLECTION BOX - BLUE BOX", "address": {"city": "SHELBY TOWNSHIP", "state": "MI", "street": "52700 VAN DYKE AVE", "postcode": "48316"}}},
{"geometry": {"type": "Point", "coordinates": [-83.0674254826, 42.6819523063]}, "type": "Feature", "properties": {"collection_times": [{"days": "Mon-Fri", "time": "12:30pm"}, {"days": "Sat", "time": "10:00am"}, {"days": "Sun", "time": "Closed"}], "id": "4831600014", "name": "USPS COLLECTION BOX - BLUE BOX", "address": {"city": "SHELBY TOWNSHIP", "state": "MI", "street": "52801 SHELBY RD", "postcode": "48316"}}},
{"geometry": {"type": "Point", "coordinates": [-83.0360534109, 42.6259664074]}, "type": "Feature", "properties": {"collection_times": [{"days": "Mon-Sat", "time": "12:00pm"}, {"days": "Sun", "time": "Closed"}], "id": "4831700006", "name": "USPS COLLECTION BOX - BLUE BOX", "address": {"city": "UTICA", "state": "MI", "street": "7550 AUBURN RD", "postcode": "48317"}}},
{"geometry": {"type": "Point", "coordinates": [-83.0228274747, 42.6260141063]}, "type": "Feature", "properties": {"collection_times": [{"days": "Mon-Fri", "time": "5:00pm"}, {"days": "Sat", "time": "2:30pm"}, {"days": "Sun", "time": "Closed"}], "id": "4831700007", "name": "USPS COLLECTION BOX - BLUE BOX", "address": {"city": "UTICA", "state": "MI", "street": "8785 HALL RD", "postcode": "48317"}}},
{"geometry": {"type": "Point", "coordinates": [-83.0228274747, 42.6260141063]}, "type": "Feature", "properties": {"collection_times": [{"days": "Mon-Fri", "time": "5:00pm"}, {"days": "Sat", "time": "2:30pm"}, {"days": "Sun", "time": "Closed"}], "id": "4831700008", "name": "USPS COLLECTION BOX - BLUE BOX", "address": {"city": "UTICA", "state": "MI", "street": "8785 HALL RD", "postcode": "48317"}}},
{"geometry": {"type": "Point", "coordinates": [-83.0901170015, 42.6388133417]}, "type": "Feature", "properties": {"collection_times": [{"days": "Mon-Fri", "time": "12:30pm"}, {"days": "Sat", "time": "10:00am"}, {"days": "Sun", "time": "Closed"}], "id": "4831700011", "name": "USPS COLLECTION BOX - BLUE BOX", "address": {"city": "UTICA", "state": "MI", "street": "2100 AUBURN RD", "postcode": "48317"}}},
{"geometry": {"type": "Point", "coordinates": [-83.0228274747, 42.6260141063]}, "type": "Feature", "properties": {"collection_times": [{"days": "Mon-Fri", "time": "5:00pm"}, {"days": "Sat", "time": "2:30pm"}, {"days": "Sun", "time": "Closed"}], "id": "4831700021", "name": "USPS COLLECTION BOX - BLUE BOX", "address": {"city": "UTICA", "state": "MI", "street": "8785 HALL RD", "postcode": "48317"}}},
{"geometry": {"type": "Point", "coordinates": [-83.0359658719, 42.6550861253]}, "type": "Feature", "properties": {"collection_times": [{"days": "Mon-Sat", "time": "5:00pm"}, {"days": "Sun", "time": "Closed"}], "id": "4831700022", "name": "USPS COLLECTION BOX - BLUE BOX", "address": {"city": "UTICA", "state": "MI", "street": "7755 22 MILE RD", "postcode": "48317"}}},
{"geometry": {"type": "Point", "coordinates": [-83.0359658719, 42.6550861253]}, "type": "Feature", "properties": {"collection_times": [{"days": "Mon-Sat", "time": "5:00pm"}, {"days": "Sun", "time": "Closed"}], "id": "4831700023", "name": "USPS COLLECTION BOX - BLUE BOX", "address": {"city": "UTICA", "state": "MI", "street": "7755 22 MILE RD", "postcode": "48317"}}},
{"geometry": {"type": "Point", "coordinates": [-83.0359658719, 42.6550861253]}, "type": "Feature", "properties": {"collection_times": [{"days": "Mon-Fri", "time": "5:00pm"}, {"days": "Sat", "time": "2:30pm"}, {"days": "Sun", "time": "Closed"}], "id": "4831700025", "name": "USPS COLLECTION BOX - APC", "address": {"city": "UTICA", "state": "MI", "street": "7755 22 MILE RD", "postcode": "48317"}}},
{"geometry": {"type": "Point", "coordinates": [-83.0359658719, 42.6550861253]}, "type": "Feature", "properties": {"collection_times": [{"days": "Mon-Fri", "time": "5:00pm"}, {"days": "Sat", "time": "2:30pm"}, {"days": "Sun", "time": "Closed"}], "id": "4831700026", "name": "USPS COLLECTION BOX - PO LOBBY", "address": {"city": "UTICA", "state": "MI", "street": "7755 22 MILE RD", "postcode": "48317"}}},
{"geometry": {"type": "Point", "coordinates": [-83.0359658719, 42.6550861253]}, "type": "Feature", "properties": {"collection_times": [{"days": "Mon-Fri", "time": "5:00pm"}, {"days": "Sat", "time": "2:30pm"}, {"days": "Sun", "time": "Closed"}], "id": "4831700030", "name": "USPS COLLECTION BOX - PO LOBBY", "address": {"city": "UTICA", "state": "MI", "street": "7755 22 MILE RD", "postcode": "48317"}}},
{"geometry": {"type": "Point", "coordinates": [-83.0228274747, 42.6260141063]}, "type": "Feature", "properties": {"collection_times": [{"days": "Mon-Fri", "time": "5:00pm"}, {"days": "Sat", "time": "2:30pm"}, {"days": "Sun", "time": "Closed"}], "id": "4831800036", "name": "USPS COLLECTION BOX - PO LOBBY", "address": {"city": "UTICA", "state": "MI", "street": "8785 HALL RD", "postcode": "48318"}}},
{"geometry": {"type": "Point", "coordinates": [-83.0228274747, 42.6260141063]}, "type": "Feature", "properties": {"collection_times": [{"days": "Mon-Fri", "time": "5:00pm"}, {"days": "Sat", "time": "2:30pm"}, {"days": "Sun", "time": "Closed"}], "id": "4831800037", "name": "USPS COLLECTION BOX - PO LOBBY", "address": {"city": "UTICA", "state": "MI", "street": "8785 HALL RD", "postcode": "48318"}}},
{"geometry": {"type": "Point", "coordinates": [-83.0228274747, 42.6260141063]}, "type": "Feature", "properties": {"collection_times": [{"days": "Mon-Fri", "time": "5:00pm"}, {"days": "Sat", "time": "2:30pm"}, {"days": "Sun", "time": "Closed"}], "id": "4831800038", "name": "USPS COLLECTION BOX - PO LOBBY", "address": {"city": "UTICA", "state": "MI", "street": "8785 HALL RD", "postcode": "48318"}}},
{"geometry": {"type": "Point", "coordinates": [-83.0228274747, 42.6260141063]}, "type": "Feature", "properties": {"collection_times": [{"days": "Mon-Fri", "time": "5:00pm"}, {"days": "Sat", "time": "2:30pm"}, {"days": "Sun", "time": "Closed"}], "id": "4831800039", "name": "USPS COLLECTION BOX - APC", "address": {"city": "UTICA", "state": "MI", "street": "8785 HALL RD", "postcode": "48318"}}},
{"geometry": {"type": "Point", "coordinates": [-83.3311576028, 42.6103233056]}, "type": "Feature", "properties": {"collection_times": [{"days": "Mon-Fri", "time": "11:00am"}, {"days": "Sat", "time": "9:30am"}, {"days": "Sun", "time": "Closed"}], "id": "4832000001", "name": "USPS COLLECTION BOX - BLUE BOX", "address": {"city": "SYLVAN LAKE", "state": "MI", "street": "2375 ORCHARD LAKE RD", "postcode": "48320"}}},
{"geometry": {"type": "Point", "coordinates": [-83.3404996137, 42.6070049587]}, "type": "Feature", "properties": {"collection_times": [{"days": "Mon-Sat", "time": "5:00pm"}, {"days": "Sun", "time": "Closed"}], "id": "4832000003", "name": "USPS COLLECTION BOX - BLUE BOX", "address": {"city": "SYLVAN LAKE", "state": "MI", "street": "2851 ORCHARD LAKE RD", "postcode": "48320"}}},
{"geometry": {"type": "Point", "coordinates": [-83.3404996137, 42.6070049587]}, "type": "Feature", "properties": {"collection_times": [{"days": "Mon-Fri", "time": "5:00pm"}, {"days": "Sat", "time": "9:30am"}, {"days": "Sun", "time": "Closed"}], "id": "4832000004", "name": "USPS COLLECTION BOX - PO LOBBY", "address": {"city": "SYLVAN LAKE", "state": "MI", "street": "2851 ORCHARD LAKE RD", "postcode": "48320"}}},
{"geometry": {"type": "Point", "coordinates": [-83.3404996137, 42.6070049587]}, "type": "Feature", "properties": {"collection_times": [{"days": "Mon-Fri", "time": "5:00pm"}, {"days": "Sat", "time": "9:30am"}, {"days": "Sun", "time": "Closed"}], "id": "4832000005", "name": "USPS COLLECTION BOX - PO LOBBY", "address": {"city": "SYLVAN LAKE", "state": "MI", "street": "2851 ORCHARD LAKE RD", "postcode": "48320"}}},
{"geometry": {"type": "Point", "coordinates": [-83.2287881832, 42.6334107681]}, "type": "Feature", "properties": {"collection_times": [{"days": "Mon-Fri", "time": "5:00pm"}, {"days": "Sat", "time": "4:00pm"}, {"days": "Sun", "time": "Closed"}], "id": "4832100001", "name": "USPS COLLECTION BOX - BLUE BOX", "address": {"city": "AUBURN HILLS", "state": "MI", "street": "2960 AUBURN RD", "postcode": "48321"}}},
{"geometry": {"type": "Point", "coordinates": [-83.2287881836, 42.6334107686]}, "type": "Feature", "properties": {"collection_times": [{"days": "Mon-Fri", "time": "5:00pm"}, {"days": "Sat", "time": "4:00pm"}, {"days": "Sun", "time": "Closed"}], "id": "4832100003", "name": "USPS COLLECTION BOX - BLUE BOX", "address": {"city": "AUBURN HILLS", "state": "MI", "street": "2960 AUBURN RD", "postcode": "48321"}}},
{"geometry": {"type": "Point", "coordinates": [-83.2287881832, 42.6334107681]}, "type": "Feature", "properties": {"collection_times": [{"days": "Mon-Fri", "time": "5:00pm"}, {"days": "Sat", "time": "2:30pm"}, {"days": "Sun", "time": "Closed"}], "id": "4832100004", "name": "USPS COLLECTION BOX - PO LOBBY", "address": {"city": "AUBURN HILLS", "state": "MI", "street": "2960 AUBURN RD", "postcode": "48321"}}},
{"geometry": {"type": "Point", "coordinates": [-83.2287881832, 42.6334107681]}, "type": "Feature", "properties": {"collection_times": [{"days": "Mon-Fri", "time": "5:00pm"}, {"days": "Sat", "time": "2:30pm"}, {"days": "Sun", "time": "Closed"}], "id": "4832100005", "name": "USPS COLLECTION BOX - PO LOBBY", "address": {"city": "AUBURN HILLS", "state": "MI", "street": "2960 AUBURN RD", "postcode": "48321"}}},
{"geometry": {"type": "Point", "coordinates": [-83.3063918467, 42.6989284565]}, "type": "Feature", "properties": {"collection_times": [{"days": "Mon-Fri", "time": "5:00pm"}, {"days": "Sat", "time": "4:00pm"}, {"days": "Sun", "time": "Closed"}], "id": "4832100009", "name": "USPS COLLECTION BOX - BLUE BOX", "address": {"city": "AUBURN HILLS", "state": "MI", "street": "3906 BALDWIN RD", "postcode": "48321"}}},
{"geometry": {"type": "Point", "coordinates": [-83.3063918467, 42.6989284565]}, "type": "Feature", "properties": {"collection_times": [{"days": "Mon-Fri", "time": "5:00pm"}, {"days": "Sat", "time": "4:00pm"}, {"days": "Sun", "time": "Closed"}], "id": "4832100012", "name": "USPS COLLECTION BOX - APC", "address": {"city": "AUBURN HILLS", "state": "MI", "street": "3906 BALDWIN RD", "postcode": "48321"}}},
{"geometry": {"type": "Point", "coordinates": [-83.3063918467, 42.6989284565]}, "type": "Feature", "properties": {"collection_times": [{"days": "Mon-Fri", "time": "5:00pm"}, {"days": "Sat", "time": "4:00pm"}, {"days": "Sun", "time": "Closed"}], "id": "4832100013", "name": "USPS COLLECTION BOX - BLUE BOX", "address": {"city": "AUBURN HILLS", "state": "MI", "street": "3906 BALDWIN RD", "postcode": "48321"}}},
{"geometry": {"type": "Point", "coordinates": [-83.3603344031, 42.5337654027]}, "type": "Feature", "properties": {"collection_times": [{"days": "Mon-Fri", "time": "3:00pm"}, {"days": "Sat", "time": "9:30am"}, {"days": "Sun", "time": "Closed"}], "id": "4832200000", "name": "USPS COLLECTION BOX - BLUE BOX", "address": {"city": "WEST BLOOMFIELD", "state": "MI", "street": "7091 ORCHARD LAKE RD", "postcode": "48322"}}},
{"geometry": {"type": "Point", "coordinates": [-83.3606967088, 42.5438898354]}, "type": "Feature", "properties": {"collection_times": [{"days": "Mon-Fri", "time": "3:00pm"}, {"days": "Sat", "time": "9:30am"}, {"days": "Sun", "time": "Closed"}], "id": "4832200005", "name": "USPS COLLECTION BOX - BLUE BOX", "address": {"city": "WEST BLOOMFIELD", "state": "MI", "street": "6399 ORCHARD LAKE RD", "postcode": "48322"}}},
{"geometry": {"type": "Point", "coordinates": [-83.4006572461, 42.5542531073]}, "type": "Feature", "properties": {"collection_times": [{"days": "Mon-Fri", "time": "11:00am"}, {"days": "Sat", "time": "9:30am"}, {"days": "Sun", "time": "Closed"}], "id": "4832200021", "name": "USPS COLLECTION BOX - BLUE BOX", "address": {"city": "WEST BLOOMFIELD", "state": "MI", "street": "5562 DRAKE RD", "postcode": "48322"}}},
{"geometry": {"type": "Point", "coordinates": [-83.3609235166, 42.5471446686]}, "type": "Feature", "properties": {"collection_times": [{"days": "Mon-Fri", "time": "11:00am"}, {"days": "Sat", "time": "9:30am"}, {"days": "Sun", "time": "Closed"}], "id": "4832200024", "name": "USPS COLLECTION BOX - BLUE BOX", "address": {"city": "WEST BLOOMFIELD", "state": "MI", "street": "6230 ORCHARD LAKE RD", "postcode": "48322"}}},
{"geometry": {"type": "Point", "coordinates": [-83.4336016272, 42.5432054932]}, "type": "Feature", "properties": {"collection_times": [{"days": "Mon-Fri", "time": "11:00am"}, {"days": "Sat", "time": "9:30am"}, {"days": "Sun", "time": "Closed"}], "id": "4832200030", "name": "USPS COLLECTION BOX - BLUE BOX", "address": {"city": "WEST BLOOMFIELD", "state": "MI", "street": "6425 SILVERBROOK W", "postcode": "48322"}}},
{"geometry": {"type": "Point", "coordinates": [-83.3603344031, 42.5337654027]}, "type": "Feature", "properties": {"collection_times": [{"days": "Mon-Fri", "time": "3:00pm"}, {"days": "Sat", "time": "9:30am"}, {"days": "Sun", "time": "Closed"}], "id": "4832200031", "name": "USPS COLLECTION BOX - BLUE BOX", "address": {"city": "WEST BLOOMFIELD", "state": "MI", "street": "7091 ORCHARD LAKE RD", "postcode": "48322"}}},
{"geometry": {"type": "Point", "coordinates": [-83.3746529384, 42.5571383059]}, "type": "Feature", "properties": {"collection_times": [{"days": "Mon-Fri", "time": "3:00pm"}, {"days": "Sat", "time": "9:30am"}, {"days": "Sun", "time": "Closed"}], "id": "4832300001", "name": "USPS COLLECTION BOX - BLUE BOX", "address": {"city": "WEST BLOOMFIELD", "state": "MI", "street": "4550 WALNUT LAKE RD", "postcode": "48323"}}},
{"geometry": {"type": "Point", "coordinates": [-83.3621247831, 42.575101622]}, "type": "Feature", "properties": {"collection_times": [{"days": "Mon-Fri", "time": "1:00pm"}, {"days": "Sat", "time": "9:30am"}, {"days": "Sun", "time": "Closed"}], "id": "4832300007", "name": "USPS COLLECTION BOX - BLUE BOX", "address": {"city": "WEST BLOOMFIELD", "state": "MI", "street": "4301 ORCHARD LAKE RD", "postcode": "48323"}}},
{"geometry": {"type": "Point", "coordinates": [-83.35836882, 42.5963735949]}, "type": "Feature", "properties": {"collection_times": [{"days": "Mon-Sat", "time": "5:00pm"}, {"days": "Sun", "time": "Closed"}], "id": "4832400001", "name": "USPS COLLECTION BOX - BLUE BOX", "address": {"city": "ORCHARD LAKE", "state": "MI", "street": "3735 COMMERCE RD", "postcode": "48324"}}},
{"geometry": {"type": "Point", "coordinates": [-83.3981473536, 42.6077511259]}, "type": "Feature", "properties": {"collection_times": [{"days": "Mon-Sat", "time": "9:30am"}, {"days": "Sun", "time": "Closed"}], "id": "4832400004", "name": "USPS COLLECTION BOX - BLUE BOX", "address": {"city": "ORCHARD LAKE", "state": "MI", "street": "2077 HILLER RD", "postcode": "48324"}}},
{"geometry": {"type": "Point", "coordinates": [-83.3642665587, 42.5399368996]}, "type": "Feature", "properties": {"collection_times": [{"days": "Mon-Sat", "time": "5:00pm"}, {"days": "Sun", "time": "Closed"}], "id": "4832500000", "name": "USPS COLLECTION BOX - BLUE BOX", "address": {"city": "WEST BLOOMFIELD", "state": "MI", "street": "6725 DALY RD", "postcode": "48325"}}},
{"geometry": {"type": "Point", "coordinates": [-83.3642665587, 42.5399368996]}, "type": "Feature", "properties": {"collection_times": [{"days": "Mon-Sat", "time": "5:00pm"}, {"days": "Sun", "time": "Closed"}], "id": "4832500001", "name": "USPS COLLECTION BOX - BLUE BOX", "address": {"city": "WEST BLOOMFIELD", "state": "MI", "street": "6725 DALY RD", "postcode": "48325"}}},
{"geometry": {"type": "Point", "coordinates": [-83.3642065614, 42.5392803504]}, "type": "Feature", "properties": {"collection_times": [{"days": "Mon-Sat", "time": "5:00pm"}, {"days": "Sun", "time": "Closed"}], "id": "4832500002", "name": "USPS COLLECTION BOX - BLUE BOX", "address": {"city": "WEST BLOOMFIELD", "state": "MI", "street": "6725 DALY RD", "postcode": "48325"}}},
{"geometry": {"type": "Point", "coordinates": [-83.3642665587, 42.5399368996]}, "type": "Feature", "properties": {"collection_times": [{"days": "Mon-Sat", "time": "5:00pm"}, {"days": "Sun", "time": "Closed"}], "id": "4832500003", "name": "USPS COLLECTION BOX - BLUE BOX", "address": {"city": "WEST BLOOMFIELD", "state": "MI", "street": "6725 DALY RD", "postcode": "48325"}}},
{"geometry": {"type": "Point", "coordinates": [-83.3642665587, 42.5399368996]}, "type": "Feature", "properties": {"collection_times": [{"days": "Mon-Sat", "time": "5:00pm"}, {"days": "Sun", "time": "Closed"}], "id": "4832500004", "name": "USPS COLLECTION BOX - PO LOBBY", "address": {"city": "WEST BLOOMFIELD", "state": "MI", "street": "6725 DALY RD", "postcode": "48325"}}},
{"geometry": {"type": "Point", "coordinates": [-83.3642665587, 42.5399368996]}, "type": "Feature", "properties": {"collection_times": [{"days": "Mon-Sat", "time": "5:00pm"}, {"days": "Sun", "time": "Closed"}], "id": "4832500005", "name": "USPS COLLECTION BOX - PO LOBBY", "address": {"city": "WEST BLOOMFIELD", "state": "MI", "street": "6725 DALY RD", "postcode": "48325"}}},
{"geometry": {"type": "Point", "coordinates": [-83.3642665587, 42.5399368996]}, "type": "Feature", "properties": {"collection_times": [{"days": "Mon-Sat", "time": "5:00pm"}, {"days": "Sun", "time": "Closed"}], "id": "4832500006", "name": "USPS COLLECTION BOX - APC", "address": {"city": "WEST BLOOMFIELD", "state": "MI", "street": "6725 DALY RD", "postcode": "48325"}}},
{"geometry": {"type": "Point", "coordinates": [-83.2457269515, 42.666180581]}, "type": "Feature", "properties": {"collection_times": [{"days": "Mon-Fri", "time": "3:00pm"}, {"days": "Sat", "time": "12:00pm"}, {"days": "Sun", "time": "Closed"}], "id": "4832600005", "name": "USPS COLLECTION BOX - BLUE BOX", "address": {"city": "AUBURN HILLS", "state": "MI", "street": "2275 N OPDYKE RD", "postcode": "48326"}}},
{"geometry": {"type": "Point", "coordinates": [-83.2373575379, 42.6696944855]}, "type": "Feature", "properties": {"collection_times": [{"days": "Mon-Fri", "time": "3:00pm"}, {"days": "Sat", "time": "12:00pm"}, {"days": "Sun", "time": "Closed"}], "id": "4832600009", "name": "USPS COLLECTION BOX - BLUE BOX", "address": {"city": "AUBURN HILLS", "state": "MI", "street": "2701 CAMBRIDGE CT", "postcode": "48326"}}},
{"geometry": {"type": "Point", "coordinates": [-83.2268340604, 42.680281372]}, "type": "Feature", "properties": {"collection_times": [{"days": "Mon-Fri", "time": "3:00pm"}, {"days": "Sat", "time": "12:00pm"}, {"days": "Sun", "time": "Closed"}], "id": "4832600010", "name": "USPS COLLECTION BOX - BLUE BOX", "address": {"city": "AUBURN HILLS", "state": "MI", "street": "2541 PATRICK HENRY ST", "postcode": "48326"}}},
{"geometry": {"type": "Point", "coordinates": [-83.2201301065, 42.6482628179]}, "type": "Feature", "properties": {"collection_times": [{"days": "Mon-Fri", "time": "3:00pm"}, {"days": "Sat", "time": "12:00pm"}, {"days": "Sun", "time": "Closed"}], "id": "4832600011", "name": "USPS COLLECTION BOX - BLUE BOX", "address": {"city": "AUBURN HILLS", "state": "MI", "street": "691 N SQUIRREL RD", "postcode": "48326"}}},
{"geometry": {"type": "Point", "coordinates": [-83.2251010972, 42.620616721]}, "type": "Feature", "properties": {"collection_times": [{"days": "Mon-Fri", "time": "11:00am"}, {"days": "Sat", "time": "9:30am"}, {"days": "Sun", "time": "Closed"}], "id": "4832600016", "name": "USPS COLLECTION BOX - BLUE BOX", "address": {"city": "AUBURN HILLS", "state": "MI", "street": "3251 SOUTH BLVD", "postcode": "48326"}}},
{"geometry": {"type": "Point", "coordinates": [-83.2493562907, 42.6314801791]}, "type": "Feature", "properties": {"collection_times": [{"days": "Mon-Fri", "time": "11:00am"}, {"days": "Sat", "time": "9:30am"}, {"days": "Sun", "time": "Closed"}], "id": "4832600017", "name": "USPS COLLECTION BOX - BLUE BOX", "address": {"city": "AUBURN HILLS", "state": "MI", "street": "165 S OPDYKE RD", "postcode": "48326"}}},
{"geometry": {"type": "Point", "coordinates": [-83.2182906053, 42.6465652718]}, "type": "Feature", "properties": {"collection_times": [{"days": "Mon-Fri", "time": "3:00pm"}, {"days": "Sat", "time": "11:30am"}, {"days": "Sun", "time": "Closed"}], "id": "4832600022", "name": "USPS COLLECTION BOX - BLUE BOX", "address": {"city": "AUBURN HILLS", "state": "MI", "street": "3551 HAMLIN RD", "postcode": "48326"}}},
{"geometry": {"type": "Point", "coordinates": [-83.2489623654, 42.6543645203]}, "type": "Feature", "properties": {"collection_times": [{"days": "Mon-Fri", "time": "3:00pm"}, {"days": "Sat", "time": "12:00pm"}, {"days": "Sun", "time": "Closed"}], "id": "4832600023", "name": "USPS COLLECTION BOX - BLUE BOX", "address": {"city": "AUBURN HILLS", "state": "MI", "street": "1091 CENTRE RD", "postcode": "48326"}}},
{"geometry": {"type": "Point", "coordinates": [-83.2440637323, 42.6571669501]}, "type": "Feature", "properties": {"collection_times": [{"days": "Mon-Fri", "time": "3:00pm"}, {"days": "Sat", "time": "12:00pm"}, {"days": "Sun", "time": "Closed"}], "id": "4832600024", "name": "USPS COLLECTION BOX - BLUE BOX", "address": {"city": "AUBURN HILLS", "state": "MI", "street": "1270 DORIS RD", "postcode": "48326"}}},
{"geometry": {"type": "Point", "coordinates": [-83.2201301065, 42.6482628179]}, "type": "Feature", "properties": {"collection_times": [{"days": "Mon-Fri", "time": "3:00pm"}, {"days": "Sat", "time": "12:00pm"}, {"days": "Sun", "time": "Closed"}], "id": "4832600026", "name": "USPS COLLECTION BOX - BLUE BOX", "address": {"city": "AUBURN HILLS", "state": "MI", "street": "691 N SQUIRREL RD", "postcode": "48326"}}},
{"geometry": {"type": "Point", "coordinates": [-83.2246738519, 42.6747457203]}, "type": "Feature", "properties": {"collection_times": [{"days": "Mon-Fri", "time": "3:00pm"}, {"days": "Sat", "time": "12:00pm"}, {"days": "Sun", "time": "Closed"}], "id": "4832600039", "name": "USPS COLLECTION BOX - BLUE BOX", "address": {"city": "AUBURN HILLS", "state": "MI", "street": "3271 FIVE POINTS DR", "postcode": "48326"}}},
{"geometry": {"type": "Point", "coordinates": [-83.3880892615, 42.6602911475]}, "type": "Feature", "properties": {"collection_times": [{"days": "Mon-Fri", "time": "3:00pm"}, {"days": "Sat-Sun", "time": "Closed"}], "id": "4832700003", "name": "USPS COLLECTION BOX - BLUE BOX", "address": {"city": "WATERFORD", "state": "MI", "street": "5119 HIGHLAND RD", "postcode": "48327"}}},
{"geometry": {"type": "Point", "coordinates": [-83.387574964, 42.6603017915]}, "type": "Feature", "properties": {"collection_times": [{"days": "Mon-Sat", "time": "3:00pm"}, {"days": "Sun", "time": "Closed"}], "id": "4832700004", "name": "USPS COLLECTION BOX - BLUE BOX", "address": {"city": "WATERFORD", "state": "MI", "street": "5070 HIGHLAND RD", "postcode": "48327"}}},
{"geometry": {"type": "Point", "coordinates": [-83.4050380058, 42.6598163646]}, "type": "Feature", "properties": {"collection_times": [{"days": "Mon-Sat", "time": "3:00pm"}, {"days": "Sun", "time": "Closed"}], "id": "4832700005", "name": "USPS COLLECTION BOX - BLUE BOX", "address": {"city": "WATERFORD", "state": "MI", "street": "5961 HIGHLAND RD", "postcode": "48327"}}},
{"geometry": {"type": "Point", "coordinates": [-83.3939860367, 42.6602012398]}, "type": "Feature", "properties": {"collection_times": [{"days": "Mon-Sat", "time": "5:00pm"}, {"days": "Sun", "time": "Closed"}], "id": "4832700009", "name": "USPS COLLECTION BOX - BLUE BOX", "address": {"city": "WATERFORD", "state": "MI", "street": "5340 HIGHLAND RD", "postcode": "48327"}}},
{"geometry": {"type": "Point", "coordinates": [-83.4009362574, 42.650616531]}, "type": "Feature", "properties": {"collection_times": [{"days": "Mon-Sat", "time": "3:00pm"}, {"days": "Sun", "time": "Closed"}], "id": "4832700011", "name": "USPS COLLECTION BOX - BLUE BOX", "address": {"city": "WATERFORD", "state": "MI", "street": "504 GLENBROOKE", "postcode": "48327"}}},
{"geometry": {"type": "Point", "coordinates": [-83.4299437113, 42.6602059332]}, "type": "Feature", "properties": {"collection_times": [{"days": "Mon-Fri", "time": "3:00pm"}, {"days": "Sat-Sun", "time": "Closed"}], "id": "4832700023", "name": "USPS COLLECTION BOX - BLUE BOX", "address": {"city": "WATERFORD", "state": "MI", "street": "7300 HIGHLAND RD", "postcode": "48327"}}},
{"geometry": {"type": "Point", "coordinates": [-83.3517431093, 42.6390162238]}, "type": "Feature", "properties": {"collection_times": [{"days": "Mon-Sat", "time": "2:00pm"}, {"days": "Sun", "time": "Closed"}], "id": "4832800003", "name": "USPS COLLECTION BOX - BLUE BOX", "address": {"city": "WATERFORD", "state": "MI", "street": "3273 W HURON ST", "postcode": "48328"}}},
{"geometry": {"type": "Point", "coordinates": [-83.389323803, 42.692617241]}, "type": "Feature", "properties": {"collection_times": [{"days": "Mon-Fri", "time": "5:00pm"}, {"days": "Sat", "time": "4:00pm"}, {"days": "Sun", "time": "Closed"}], "id": "4832900003", "name": "USPS COLLECTION BOX - BLUE BOX", "address": {"city": "WATERFORD", "state": "MI", "street": "5036 DIXIE HWY", "postcode": "48329"}}},
{"geometry": {"type": "Point", "coordinates": [-83.3748664897, 42.6823042622]}, "type": "Feature", "properties": {"collection_times": [{"days": "Mon-Sat", "time": "10:00am"}, {"days": "Sun", "time": "Closed"}], "id": "4832900006", "name": "USPS COLLECTION BOX - BLUE BOX", "address": {"city": "WATERFORD", "state": "MI", "street": "4350 DIXIE HWY", "postcode": "48329"}}},
{"geometry": {"type": "Point", "coordinates": [-83.389323803, 42.692617241]}, "type": "Feature", "properties": {"collection_times": [{"days": "Mon-Fri", "time": "5:00pm"}, {"days": "Sat", "time": "4:00pm"}, {"days": "Sun", "time": "Closed"}], "id": "4832900011", "name": "USPS COLLECTION BOX - PO LOBBY", "address": {"city": "WATERFORD", "state": "MI", "street": "5036 DIXIE HWY", "postcode": "48329"}}},
{"geometry": {"type": "Point", "coordinates": [-83.389323803, 42.692617241]}, "type": "Feature", "properties": {"collection_times": [{"days": "Mon-Fri", "time": "5:00pm"}, {"days": "Sat", "time": "4:00pm"}, {"days": "Sun", "time": "Closed"}], "id": "4832900012", "name": "USPS COLLECTION BOX - PO LOBBY", "address": {"city": "WATERFORD", "state": "MI", "street": "5036 DIXIE HWY", "postcode": "48329"}}},
{"geometry": {"type": "Point", "coordinates": [-83.389323803, 42.692617241]}, "type": "Feature", "properties": {"collection_times": [{"days": "Mon-Fri", "time": "5:00pm"}, {"days": "Sat", "time": "4:00pm"}, {"days": "Sun", "time": "Closed"}], "id": "4832900013", "name": "USPS COLLECTION BOX - PO LOBBY", "address": {"city": "WATERFORD", "state": "MI", "street": "5036 DIXIE HWY", "postcode": "48329"}}},
{"geometry": {"type": "Point", "coordinates": [-83.389323803, 42.692617241]}, "type": "Feature", "properties": {"collection_times": [{"days": "Mon-Fri", "time": "5:00pm"}, {"days": "Sat", "time": "4:00pm"}, {"days": "Sun", "time": "Closed"}], "id": "4832900014", "name": "USPS COLLECTION BOX - PO LOBBY", "address": {"city": "WATERFORD", "state": "MI", "street": "5036 DIXIE HWY", "postcode": "48329"}}},
{"geometry": {"type": "Point", "coordinates": [-83.389323803, 42.692617241]}, "type": "Feature", "properties": {"collection_times": [{"days": "Mon-Fri", "time": "5:00pm"}, {"days": "Sat", "time": "4:00pm"}, {"days": "Sun", "time": "Closed"}], "id": "4832900015", "name": "USPS COLLECTION BOX - BLUE BOX", "address": {"city": "WATERFORD", "state": "MI", "street": "5036 DIXIE HWY", "postcode": "48329"}}},
{"geometry": {"type": "Point", "coordinates": [-83.389323803, 42.692617241]}, "type": "Feature", "properties": {"collection_times": [{"days": "Mon-Fri", "time": "5:00pm"}, {"days": "Sat", "time": "4:00pm"}, {"days": "Sun", "time": "Closed"}], "id": "4832900016", "name": "USPS COLLECTION BOX - APC", "address": {"city": "WATERFORD", "state": "MI", "street": "5036 DIXIE HWY", "postcode": "48329"}}},
{"geometry": {"type": "Point", "coordinates": [-83.3800235721, 42.4985913008]}, "type": "Feature", "properties": {"collection_times": [{"days": "Mon-Fri", "time": "3:00pm"}, {"days": "Sat", "time": "12:00pm"}, {"days": "Sun", "time": "Closed"}], "id": "4833100003", "name": "USPS COLLECTION BOX - BLUE BOX", "address": {"city": "FARMINGTN HLS", "state": "MI", "street": "33533 W 12 MILE RD", "postcode": "48331"}}},
{"geometry": {"type": "Point", "coordinates": [-83.4212374079, 42.4974108726]}, "type": "Feature", "properties": {"collection_times": [{"days": "Mon-Fri", "time": "3:00pm"}, {"days": "Sat-Sun", "time": "Closed"}], "id": "4833100007", "name": "USPS COLLECTION BOX - BLUE BOX", "address": {"city": "FARMINGTN HLS", "state": "MI", "street": "37899 W 12 MILE RD", "postcode": "48331"}}},
{"geometry": {"type": "Point", "coordinates": [-83.3810854006, 42.5277573815]}, "type": "Feature", "properties": {"collection_times": [{"days": "Mon-Fri", "time": "3:00pm"}, {"days": "Sat", "time": "12:00pm"}, {"days": "Sun", "time": "Closed"}], "id": "4833100011", "name": "USPS COLLECTION BOX - BLUE BOX", "address": {"city": "FARMINGTN HLS", "state": "MI", "street": "33505 W 14 MILE RD", "postcode": "48331"}}},
{"geometry": {"type": "Point", "coordinates": [-83.4360366791, 42.4926528468]}, "type": "Feature", "properties": {"collection_times": [{"days": "Mon-Fri", "time": "3:00pm"}, {"days": "Sat", "time": "12:00pm"}, {"days": "Sun", "time": "Closed"}], "id": "4833100014", "name": "USPS COLLECTION BOX - BLUE BOX", "address": {"city": "FARMINGTN HLS", "state": "MI", "street": "27260 HAGGERTY RD", "postcode": "48331"}}},
{"geometry": {"type": "Point", "coordinates": [-83.4247465187, 42.4901698159]}, "type": "Feature", "properties": {"collection_times": [{"days": "Mon-Fri", "time": "3:00pm"}, {"days": "Sat-Sun", "time": "Closed"}], "id": "4833100016", "name": "USPS COLLECTION BOX - BLUE BOX", "address": {"city": "FARMINGTN HLS", "state": "MI", "street": "38000 HILLS TECH DR", "postcode": "48331"}}},
{"geometry": {"type": "Point", "coordinates": [-83.4374387279, 42.5258179153]}, "type": "Feature", "properties": {"collection_times": [{"days": "Mon-Fri", "time": "2:00pm"}, {"days": "Sat", "time": "12:00pm"}, {"days": "Sun", "time": "Closed"}], "id": "4833100017", "name": "USPS COLLECTION BOX - BLUE BOX", "address": {"city": "FARMINGTN HLS", "state": "MI", "street": "31162 HAGGERTY RD", "postcode": "48331"}}},
{"geometry": {"type": "Point", "coordinates": [-83.3810854006, 42.5277573815]}, "type": "Feature", "properties": {"collection_times": [{"days": "Mon-Fri", "time": "3:00pm"}, {"days": "Sat", "time": "12:00pm"}, {"days": "Sun", "time": "Closed"}], "id": "4833100018", "name": "USPS COLLECTION BOX - BLUE BOX", "address": {"city": "FARMINGTN HLS", "state": "MI", "street": "33505 W 14 MILE RD", "postcode": "48331"}}},
{"geometry": {"type": "Point", "coordinates": [-83.4263565259, 42.4964489621]}, "type": "Feature", "properties": {"collection_times": [{"days": "Mon-Fri", "time": "3:00pm"}, {"days": "Sat", "time": "12:00pm"}, {"days": "Sun", "time": "Closed"}], "id": "4833100027", "name": "USPS COLLECTION BOX - BLUE BOX", "address": {"city": "FARMINGTN HLS", "state": "MI", "street": "38505 COUNTRY CLUB DR", "postcode": "48331"}}},
{"geometry": {"type": "Point", "coordinates": [-83.4180947405, 42.4977726932]}, "type": "Feature", "properties": {"collection_times": [{"days": "Mon-Fri", "time": "2:00pm"}, {"days": "Sat", "time": "12:00pm"}, {"days": "Sun", "time": "Closed"}], "id": "4833100029", "name": "USPS COLLECTION BOX - BLUE BOX", "address": {"city": "FARMINGTN HLS", "state": "MI", "street": "37550 W 12 MILE RD", "postcode": "48331"}}},
{"geometry": {"type": "Point", "coordinates": [-83.4168313403, 42.489706096]}, "type": "Feature", "properties": {"collection_times": [{"days": "Mon-Fri", "time": "3:00pm"}, {"days": "Sat-Sun", "time": "Closed"}], "id": "4833100031", "name": "USPS COLLECTION BOX - BLUE BOX", "address": {"city": "FARMINGTN HLS", "state": "MI", "street": "26777 HALSTED RD", "postcode": "48331"}}},
{"geometry": {"type": "Point", "coordinates": [-83.4247465187, 42.4901698159]}, "type": "Feature", "properties": {"collection_times": [{"days": "Mon-Fri", "time": "3:00pm"}, {"days": "Sat-Sun", "time": "Closed"}], "id": "4833100033", "name": "USPS COLLECTION BOX - BLUE BOX", "address": {"city": "FARMINGTN HLS", "state": "MI", "street": "38000 HILLS TECH DR", "postcode": "48331"}}},
{"geometry": {"type": "Point", "coordinates": [-83.3592163683, 42.5122243581]}, "type": "Feature", "properties": {"collection_times": [{"days": "Mon-Fri", "time": "3:00pm"}, {"days": "Sat", "time": "1:00pm"}, {"days": "Sun", "time": "Closed"}], "id": "4833400000", "name": "USPS COLLECTION BOX - BLUE BOX", "address": {"city": "FARMINGTN HLS", "state": "MI", "street": "29308 ORCHARD LAKE RD", "postcode": "48334"}}},
{"geometry": {"type": "Point", "coordinates": [-83.3596908734, 42.5196065668]}, "type": "Feature", "properties": {"collection_times": [{"days": "Mon-Fri", "time": "2:00pm"}, {"days": "Sat-Sun", "time": "Closed"}], "id": "4833400005", "name": "USPS COLLECTION BOX - BLUE BOX", "address": {"city": "FARMINGTN HLS", "state": "MI", "street": "30201 ORCHARD LAKE RD", "postcode": "48334"}}},
{"geometry": {"type": "Point", "coordinates": [-83.3627192483, 42.5136752106]}, "type": "Feature", "properties": {"collection_times": [{"days": "Mon-Fri", "time": "3:00pm"}, {"days": "Sat", "time": "12:00pm"}, {"days": "Sun", "time": "Closed"}], "id": "4833400006", "name": "USPS COLLECTION BOX - BLUE BOX", "address": {"city": "FARMINGTN HLS", "state": "MI", "street": "31600 W 13 MILE RD", "postcode": "48334"}}},
{"geometry": {"type": "Point", "coordinates": [-83.3607720979, 42.5137331756]}, "type": "Feature", "properties": {"collection_times": [{"days": "Mon-Fri", "time": "2:00pm"}, {"days": "Sat", "time": "12:00pm"}, {"days": "Sun", "time": "Closed"}], "id": "4833400010", "name": "USPS COLLECTION BOX - BLUE BOX", "address": {"city": "FARMINGTN HLS", "state": "MI", "street": "31521 W 13 MILE RD", "postcode": "48334"}}},
{"geometry": {"type": "Point", "coordinates": [-83.3400620353, 42.5191333832]}, "type": "Feature", "properties": {"collection_times": [{"days": "Mon-Fri", "time": "3:00pm"}, {"days": "Sat-Sun", "time": "Closed"}], "id": "4833400012", "name": "USPS COLLECTION BOX - BLUE BOX", "address": {"city": "FARMINGTN HLS", "state": "MI", "street": "31550 NORTHWESTERN HWY", "postcode": "48334"}}},
{"geometry": {"type": "Point", "coordinates": [-83.3400620353, 42.5191333832]}, "type": "Feature", "properties": {"collection_times": [{"days": "Mon-Fri", "time": "3:00pm"}, {"days": "Sat-Sun", "time": "Closed"}], "id": "4833400013", "name": "USPS COLLECTION BOX - BLUE BOX", "address": {"city": "FARMINGTN HLS", "state": "MI", "street": "31550 NORTHWESTERN HWY", "postcode": "48334"}}},
{"geometry": {"type": "Point", "coordinates": [-83.3420505893, 42.5203198911]}, "type": "Feature", "properties": {"collection_times": [{"days": "Mon-Fri", "time": "3:00pm"}, {"days": "Sat-Sun", "time": "Closed"}], "id": "4833400014", "name": "USPS COLLECTION BOX - BLUE BOX", "address": {"city": "FARMINGTN HLS", "state": "MI", "street": "31800 NORTHWESTERN HWY", "postcode": "48334"}}},
{"geometry": {"type": "Point", "coordinates": [-83.3465458334, 42.5229910124]}, "type": "Feature", "properties": {"collection_times": [{"days": "Mon-Fri", "time": "3:00pm"}, {"days": "Sat-Sun", "time": "Closed"}], "id": "4833400017", "name": "USPS COLLECTION BOX - BLUE BOX", "address": {"city": "FARMINGTN HLS", "state": "MI", "street": "32000 NORTHWESTERN HWY", "postcode": "48334"}}},
{"geometry": {"type": "Point", "coordinates": [-83.3696218139, 42.4989071509]}, "type": "Feature", "properties": {"collection_times": [{"days": "Mon-Sat", "time": "5:00pm"}, {"days": "Sun", "time": "Closed"}], "id": "4833400020", "name": "USPS COLLECTION BOX - BLUE BOX", "address": {"city": "FARMINGTN HLS", "state": "MI", "street": "32455 W 12 MILE RD", "postcode": "48334"}}},
{"geometry": {"type": "Point", "coordinates": [-83.3696218139, 42.4989071509]}, "type": "Feature", "properties": {"collection_times": [{"days": "Mon-Sat", "time": "5:00pm"}, {"days": "Sun", "time": "Closed"}], "id": "4833400021", "name": "USPS COLLECTION BOX - BLUE BOX", "address": {"city": "FARMINGTN HLS", "state": "MI", "street": "32455 W 12 MILE RD", "postcode": "48334"}}},
{"geometry": {"type": "Point", "coordinates": [-83.3406594296, 42.5191239196]}, "type": "Feature", "properties": {"collection_times": [{"days": "Mon-Fri", "time": "3:00pm"}, {"days": "Sat-Sun", "time": "Closed"}], "id": "4833400023", "name": "USPS COLLECTION BOX - BLUE BOX", "address": {"city": "FARMINGTN HLS", "state": "MI", "street": "31731 NORTHWESTERN HWY", "postcode": "48334"}}},
{"geometry": {"type": "Point", "coordinates": [-83.3406594296, 42.5191239196]}, "type": "Feature", "properties": {"collection_times": [{"days": "Mon-Fri", "time": "3:00pm"}, {"days": "Sat-Sun", "time": "Closed"}], "id": "4833400024", "name": "USPS COLLECTION BOX - BLUE BOX", "address": {"city": "FARMINGTN HLS", "state": "MI", "street": "31731 NORTHWESTERN HWY", "postcode": "48334"}}},
{"geometry": {"type": "Point", "coordinates": [-83.336495414, 42.5166243273]}, "type": "Feature", "properties": {"collection_times": [{"days": "Mon-Fri", "time": "3:00pm"}, {"days": "Sat-Sun", "time": "Closed"}], "id": "4833400025", "name": "USPS COLLECTION BOX - BLUE BOX", "address": {"city": "FARMINGTN HLS", "state": "MI", "street": "31313 NORTHWESTERN HWY", "postcode": "48334"}}},
{"geometry": {"type": "Point", "coordinates": [-83.3486976357, 42.5240899813]}, "type": "Feature", "properties": {"collection_times": [{"days": "Mon-Fri", "time": "3:00pm"}, {"days": "Sat-Sun", "time": "Closed"}], "id": "4833400030", "name": "USPS COLLECTION BOX - BLUE BOX", "address": {"city": "FARMINGTN HLS", "state": "MI", "street": "32300 NORTHWESTERN HWY", "postcode": "48334"}}},
{"geometry": {"type": "Point", "coordinates": [-83.3351929762, 42.5158447573]}, "type": "Feature", "properties": {"collection_times": [{"days": "Mon-Fri", "time": "3:00pm"}, {"days": "Sat-Sun", "time": "Closed"}], "id": "4833400033", "name": "USPS COLLECTION BOX - BLUE BOX", "address": {"city": "FARMINGTN HLS", "state": "MI", "street": "31275 NORTHWESTERN HWY", "postcode": "48334"}}},
{"geometry": {"type": "Point", "coordinates": [-83.3351929762, 42.5158447573]}, "type": "Feature", "properties": {"collection_times": [{"days": "Mon-Fri", "time": "3:00pm"}, {"days": "Sat-Sun", "time": "Closed"}], "id": "4833400035", "name": "USPS COLLECTION BOX - BLUE BOX", "address": {"city": "FARMINGTN HLS", "state": "MI", "street": "31275 NORTHWESTERN HWY", "postcode": "48334"}}},
{"geometry": {"type": "Point", "coordinates": [-83.3276409662, 42.5116783759]}, "type": "Feature", "properties": {"collection_times": [{"days": "Mon-Fri", "time": "3:00pm"}, {"days": "Sat-Sun", "time": "Closed"}], "id": "4833400036", "name": "USPS COLLECTION BOX - BLUE BOX", "address": {"city": "FARMINGTN HLS", "state": "MI", "street": "30600 NORTHWESTERN HWY", "postcode": "48334"}}},
{"geometry": {"type": "Point", "coordinates": [-83.3310993493, 42.5138304764]}, "type": "Feature", "properties": {"collection_times": [{"days": "Mon-Fri", "time": "3:00pm"}, {"days": "Sat-Sun", "time": "Closed"}], "id": "4833400039", "name": "USPS COLLECTION BOX - BLUE BOX", "address": {"city": "FARMINGTN HLS", "state": "MI", "street": "30840 NORTHWESTERN HWY", "postcode": "48334"}}},
{"geometry": {"type": "Point", "coordinates": [-83.3313791165, 42.5144441339]}, "type": "Feature", "properties": {"collection_times": [{"days": "Mon-Fri", "time": "3:00pm"}, {"days": "Sat-Sun", "time": "Closed"}], "id": "4833400042", "name": "USPS COLLECTION BOX - BLUE BOX", "address": {"city": "FARMINGTN HLS", "state": "MI", "street": "28470 W 13 MILE RD", "postcode": "48334"}}},
{"geometry": {"type": "Point", "coordinates": [-83.3365242283, 42.5170757347]}, "type": "Feature", "properties": {"collection_times": [{"days": "Mon-Fri", "time": "3:00pm"}, {"days": "Sat-Sun", "time": "Closed"}], "id": "4833400043", "name": "USPS COLLECTION BOX - BLUE BOX", "address": {"city": "FARMINGTN HLS", "state": "MI", "street": "31390 NORTHWESTERN HWY", "postcode": "48334"}}},
{"geometry": {"type": "Point", "coordinates": [-83.3590295993, 42.5069725651]}, "type": "Feature", "properties": {"collection_times": [{"days": "Mon-Fri", "time": "2:00pm"}, {"days": "Sat-Sun", "time": "Closed"}], "id": "4833400046", "name": "USPS COLLECTION BOX - BLUE BOX", "address": {"city": "FARMINGTN HLS", "state": "MI", "street": "28564 ORCHARD LAKE RD", "postcode": "48334"}}},
{"geometry": {"type": "Point", "coordinates": [-83.3626115991, 42.5283261574]}, "type": "Feature", "properties": {"collection_times": [{"days": "Mon-Fri", "time": "3:00pm"}, {"days": "Sat", "time": "12:00pm"}, {"days": "Sun", "time": "Closed"}], "id": "4833400049", "name": "USPS COLLECTION BOX - BLUE BOX", "address": {"city": "FARMINGTN HLS", "state": "MI", "street": "31555 W 14 MILE RD", "postcode": "48334"}}},
{"geometry": {"type": "Point", "coordinates": [-83.3405961783, 42.5284422905]}, "type": "Feature", "properties": {"collection_times": [{"days": "Mon-Fri", "time": "3:00pm"}, {"days": "Sat", "time": "12:00pm"}, {"days": "Sun", "time": "Closed"}], "id": "4833400051", "name": "USPS COLLECTION BOX - BLUE BOX", "address": {"city": "FARMINGTN HLS", "state": "MI", "street": "32871 MIDDLEBELT RD", "postcode": "48334"}}},
{"geometry": {"type": "Point", "coordinates": [-83.3404549285, 42.5287216798]}, "type": "Feature", "properties": {"collection_times": [{"days": "Mon-Fri", "time": "3:00pm"}, {"days": "Sat", "time": "12:00pm"}, {"days": "Sun", "time": "Closed"}], "id": "4833400054", "name": "USPS COLLECTION BOX - BLUE BOX", "address": {"city": "FARMINGTN HLS", "state": "MI", "street": "32940 MIDDLEBELT RD", "postcode": "48334"}}},
{"geometry": {"type": "Point", "coordinates": [-83.3391203999, 42.5002202353]}, "type": "Feature", "properties": {"collection_times": [{"days": "Mon-Fri", "time": "3:00pm"}, {"days": "Sat", "time": "12:00pm"}, {"days": "Sun", "time": "Closed"}], "id": "4833400062", "name": "USPS COLLECTION BOX - BLUE BOX", "address": {"city": "FARMINGTN HLS", "state": "MI", "street": "28000 MIDDLEBELT RD", "postcode": "48334"}}},
{"geometry": {"type": "Point", "coordinates": [-83.3340975562, 42.5151882151]}, "type": "Feature", "properties": {"collection_times": [{"days": "Mon-Fri", "time": "3:00pm"}, {"days": "Sat-Sun", "time": "Closed"}], "id": "4833400063", "name": "USPS COLLECTION BOX - BLUE BOX", "address": {"city": "FARMINGTN HLS", "state": "MI", "street": "31155 NORTHWESTERN HWY", "postcode": "48334"}}},
{"geometry": {"type": "Point", "coordinates": [-83.3309922889, 42.5133274206]}, "type": "Feature", "properties": {"collection_times": [{"days": "Mon-Fri", "time": "3:00pm"}, {"days": "Sat-Sun", "time": "Closed"}], "id": "4833400066", "name": "USPS COLLECTION BOX - BLUE BOX", "address": {"city": "FARMINGTN HLS", "state": "MI", "street": "30833 NORTHWESTERN HWY", "postcode": "48334"}}},
{"geometry": {"type": "Point", "coordinates": [-83.3309922889, 42.5133274206]}, "type": "Feature", "properties": {"collection_times": [{"days": "Mon-Fri", "time": "3:00pm"}, {"days": "Sat-Sun", "time": "Closed"}], "id": "4833400067", "name": "USPS COLLECTION BOX - BLUE BOX", "address": {"city": "FARMINGTN HLS", "state": "MI", "street": "30833 NORTHWESTERN HWY", "postcode": "48334"}}},
{"geometry": {"type": "Point", "coordinates": [-83.3279000342, 42.5114784558]}, "type": "Feature", "properties": {"collection_times": [{"days": "Mon-Fri", "time": "3:00pm"}, {"days": "Sat-Sun", "time": "Closed"}], "id": "4833400069", "name": "USPS COLLECTION BOX - BLUE BOX", "address": {"city": "FARMINGTN HLS", "state": "MI", "street": "30555 NORTHWESTERN HWY", "postcode": "48334"}}},
{"geometry": {"type": "Point", "coordinates": [-83.3279000342, 42.5114784558]}, "type": "Feature", "properties": {"collection_times": [{"days": "Mon-Fri", "time": "3:00pm"}, {"days": "Sat-Sun", "time": "Closed"}], "id": "4833400070", "name": "USPS COLLECTION BOX - BLUE BOX", "address": {"city": "FARMINGTN HLS", "state": "MI", "street": "30555 NORTHWESTERN HWY", "postcode": "48334"}}},
{"geometry": {"type": "Point", "coordinates": [-83.3240790767, 42.509339666]}, "type": "Feature", "properties": {"collection_times": [{"days": "Mon-Fri", "time": "3:00pm"}, {"days": "Sat-Sun", "time": "Closed"}], "id": "4833400073", "name": "USPS COLLECTION BOX - BLUE BOX", "address": {"city": "FARMINGTN HLS", "state": "MI", "street": "30301 NORTHWESTERN HWY", "postcode": "48334"}}},
{"geometry": {"type": "Point", "coordinates": [-83.3240790767, 42.509339666]}, "type": "Feature", "properties": {"collection_times": [{"days": "Mon-Fri", "time": "3:00pm"}, {"days": "Sat-Sun", "time": "Closed"}], "id": "4833400074", "name": "USPS COLLECTION BOX - BLUE BOX", "address": {"city": "FARMINGTN HLS", "state": "MI", "street": "30301 NORTHWESTERN HWY", "postcode": "48334"}}},
{"geometry": {"type": "Point", "coordinates": [-83.3771455204, 42.4987439873]}, "type": "Feature", "properties": {"collection_times": [{"days": "Mon-Fri", "time": "2:00pm"}, {"days": "Sat", "time": "12:00pm"}, {"days": "Sun", "time": "Closed"}], "id": "4833400076", "name": "USPS COLLECTION BOX - BLUE BOX", "address": {"city": "FARMINGTN HLS", "state": "MI", "street": "33330 W 12 MILE RD", "postcode": "48334"}}},
{"geometry": {"type": "Point", "coordinates": [-83.3249331731, 42.5101701032]}, "type": "Feature", "properties": {"collection_times": [{"days": "Mon-Fri", "time": "3:00pm"}, {"days": "Sat-Sun", "time": "Closed"}], "id": "4833400077", "name": "USPS COLLECTION BOX - BLUE BOX", "address": {"city": "FARMINGTN HLS", "state": "MI", "street": "30300 NORTHWESTERN HWY", "postcode": "48334"}}},
{"geometry": {"type": "Point", "coordinates": [-83.3600291926, 42.5249245961]}, "type": "Feature", "properties": {"collection_times": [{"days": "Mon-Fri", "time": "2:00pm"}, {"days": "Sat", "time": "12:00pm"}, {"days": "Sun", "time": "Closed"}], "id": "4833400085", "name": "USPS COLLECTION BOX - BLUE BOX", "address": {"city": "FARMINGTN HLS", "state": "MI", "street": "30965 ORCHARD LAKE RD", "postcode": "48334"}}},
{"geometry": {"type": "Point", "coordinates": [-83.3253188177, 42.5100328799]}, "type": "Feature", "properties": {"collection_times": [{"days": "Mon-Fri", "time": "3:00pm"}, {"days": "Sat-Sun", "time": "Closed"}], "id": "4833400094", "name": "USPS COLLECTION BOX - BLUE BOX", "address": {"city": "FARMINGTN HLS", "state": "MI", "street": "30375 NORTHWESTERN HWY", "postcode": "48334"}}},
{"geometry": {"type": "Point", "coordinates": [-83.3696218139, 42.4989071509]}, "type": "Feature", "properties": {"collection_times": [{"days": "Mon-Sat", "time": "5:00pm"}, {"days": "Sun", "time": "Closed"}], "id": "4833400111", "name": "USPS COLLECTION BOX - PO LOBBY", "address": {"city": "FARMINGTN HLS", "state": "MI", "street": "32455 W 12 MILE RD", "postcode": "48334"}}},
{"geometry": {"type": "Point", "coordinates": [-83.3696218139, 42.4989071509]}, "type": "Feature", "properties": {"collection_times": [{"days": "Mon-Sat", "time": "5:00pm"}, {"days": "Sun", "time": "Closed"}], "id": "4833400119", "name": "USPS COLLECTION BOX - PO LOBBY", "address": {"city": "FARMINGTN HLS", "state": "MI", "street": "32455 W 12 MILE RD", "postcode": "48334"}}},
{"geometry": {"type": "Point", "coordinates": [-83.3696218139, 42.4989071509]}, "type": "Feature", "properties": {"collection_times": [{"days": "Mon-Sat", "time": "5:00pm"}, {"days": "Sun", "time": "Closed"}], "id": "4833400120", "name": "USPS COLLECTION BOX - APC", "address": {"city": "FARMINGTN HLS", "state": "MI", "street": "32455 W 12 MILE RD", "postcode": "48334"}}},
{"geometry": {"type": "Point", "coordinates": [-83.3696218139, 42.4989071509]}, "type": "Feature", "properties": {"collection_times": [{"days": "Mon-Sat", "time": "5:00pm"}, {"days": "Sun", "time": "Closed"}], "id": "4833400121", "name": "USPS COLLECTION BOX - BLUE BOX", "address": {"city": "FARMINGTN HLS", "state": "MI", "street": "32455 W 12 MILE RD", "postcode": "48334"}}},
{"geometry": {"type": "Point", "coordinates": [-83.3696218139, 42.4989071509]}, "type": "Feature", "properties": {"collection_times": [{"days": "Mon-Sat", "time": "5:00pm"}, {"days": "Sun", "time": "Closed"}], "id": "4833400122", "name": "USPS COLLECTION BOX - BLUE BOX", "address": {"city": "FARMINGTN HLS", "state": "MI", "street": "32455 W 12 MILE RD", "postcode": "48334"}}},
{"geometry": {"type": "Point", "coordinates": [-83.3276409662, 42.5116783759]}, "type": "Feature", "properties": {"collection_times": [{"days": "Mon-Fri", "time": "3:00pm"}, {"days": "Sat-Sun", "time": "Closed"}], "id": "4833400123", "name": "USPS COLLECTION BOX - BLUE BOX", "address": {"city": "FARMINGTN HLS", "state": "MI", "street": "30600 NORTHWESTERN HWY", "postcode": "48334"}}},
{"geometry": {"type": "Point", "coordinates": [-83.3276409662, 42.5116783759]}, "type": "Feature", "properties": {"collection_times": [{"days": "Mon-Fri", "time": "3:00pm"}, {"days": "Sat-Sun", "time": "Closed"}], "id": "4833400124", "name": "USPS COLLECTION BOX - BLUE BOX", "address": {"city": "FARMINGTN HLS", "state": "MI", "street": "30600 NORTHWESTERN HWY", "postcode": "48334"}}},
{"geometry": {"type": "Point", "coordinates": [-83.3405961783, 42.5284422905]}, "type": "Feature", "properties": {"collection_times": [{"days": "Mon-Fri", "time": "3:00pm"}, {"days": "Sat", "time": "12:00pm"}, {"days": "Sun", "time": "Closed"}], "id": "4833400125", "name": "USPS COLLECTION BOX - BLUE BOX", "address": {"city": "FARMINGTN HLS", "state": "MI", "street": "32871 MIDDLEBELT RD", "postcode": "48334"}}},
{"geometry": {"type": "Point", "coordinates": [-83.3626115991, 42.5283261574]}, "type": "Feature", "properties": {"collection_times": [{"days": "Mon-Fri", "time": "3:00pm"}, {"days": "Sat", "time": "12:00pm"}, {"days": "Sun", "time": "Closed"}], "id": "4833400126", "name": "USPS COLLECTION BOX - BLUE BOX", "address": {"city": "FARMINGTN HLS", "state": "MI", "street": "31555 W 14 MILE RD", "postcode": "48334"}}},
{"geometry": {"type": "Point", "coordinates": [-83.3592163683, 42.5122243581]}, "type": "Feature", "properties": {"collection_times": [{"days": "Mon-Fri", "time": "3:00pm"}, {"days": "Sat", "time": "1:00pm"}, {"days": "Sun", "time": "Closed"}], "id": "4833400127", "name": "USPS COLLECTION BOX - BLUE BOX", "address": {"city": "FARMINGTN HLS", "state": "MI", "street": "29308 ORCHARD LAKE RD", "postcode": "48334"}}},
{"geometry": {"type": "Point", "coordinates": [-83.319177546, 42.4919873191]}, "type": "Feature", "properties": {"collection_times": [{"days": "Mon-Fri", "time": "3:00pm"}, {"days": "Sat", "time": "1:00pm"}, {"days": "Sun", "time": "Closed"}], "id": "4833400133", "name": "USPS COLLECTION BOX - BLUE BOX", "address": {"city": "FARMINGTN HLS", "state": "MI", "street": "27777 INKSTER RD", "postcode": "48334"}}},
{"geometry": {"type": "Point", "coordinates": [-83.4172122531, 42.4724124189]}, "type": "Feature", "properties": {"collection_times": [{"days": "Mon-Fri", "time": "2:00pm"}, {"days": "Sat", "time": "12:00pm"}, {"days": "Sun", "time": "Closed"}], "id": "4833500000", "name": "USPS COLLECTION BOX - BLUE BOX", "address": {"city": "FARMINGTN HLS", "state": "MI", "street": "24501 HALLWOOD CT", "postcode": "48335"}}},
{"geometry": {"type": "Point", "coordinates": [-83.4172122531, 42.4724124189]}, "type": "Feature", "properties": {"collection_times": [{"days": "Mon-Fri", "time": "2:00pm"}, {"days": "Sat", "time": "12:00pm"}, {"days": "Sun", "time": "Closed"}], "id": "4833500001", "name": "USPS COLLECTION BOX - BLUE BOX", "address": {"city": "FARMINGTN HLS", "state": "MI", "street": "24501 HALLWOOD CT", "postcode": "48335"}}},
{"geometry": {"type": "Point", "coordinates": [-83.4279854601, 42.4701281249]}, "type": "Feature", "properties": {"collection_times": [{"days": "Mon-Fri", "time": "2:00pm"}, {"days": "Sat", "time": "10:00am"}, {"days": "Sun", "time": "Closed"}], "id": "4833500002", "name": "USPS COLLECTION BOX - BLUE BOX", "address": {"city": "FARMINGTN HLS", "state": "MI", "street": "38800 GRAND RIVER AVE", "postcode": "48335"}}},
{"geometry": {"type": "Point", "coordinates": [-83.4221333624, 42.4683903584]}, "type": "Feature", "properties": {"collection_times": [{"days": "Mon-Fri", "time": "2:00pm"}, {"days": "Sat", "time": "10:00am"}, {"days": "Sun", "time": "Closed"}], "id": "4833500005", "name": "USPS COLLECTION BOX - BLUE BOX", "address": {"city": "FARMINGTN HLS", "state": "MI", "street": "38123 W 10 MILE RD", "postcode": "48335"}}},
{"geometry": {"type": "Point", "coordinates": [-83.4221333624, 42.4683903584]}, "type": "Feature", "properties": {"collection_times": [{"days": "Mon-Fri", "time": "2:00pm"}, {"days": "Sat", "time": "10:00am"}, {"days": "Sun", "time": "Closed"}], "id": "4833500006", "name": "USPS COLLECTION BOX - BLUE BOX", "address": {"city": "FARMINGTN HLS", "state": "MI", "street": "38123 W 10 MILE RD", "postcode": "48335"}}},
{"geometry": {"type": "Point", "coordinates": [-83.4184732873, 42.4635520563]}, "type": "Feature", "properties": {"collection_times": [{"days": "Mon-Fri", "time": "2:00pm"}, {"days": "Sat", "time": "10:00am"}, {"days": "Sun", "time": "Closed"}], "id": "4833500008", "name": "USPS COLLECTION BOX - BLUE BOX", "address": {"city": "FARMINGTN HLS", "state": "MI", "street": "23414 INDUSTRIAL PARK CT", "postcode": "48335"}}},
{"geometry": {"type": "Point", "coordinates": [-83.4184732873, 42.4635520563]}, "type": "Feature", "properties": {"collection_times": [{"days": "Mon-Fri", "time": "2:00pm"}, {"days": "Sat", "time": "10:00am"}, {"days": "Sun", "time": "Closed"}], "id": "4833500009", "name": "USPS COLLECTION BOX - BLUE BOX", "address": {"city": "FARMINGTN HLS", "state": "MI", "street": "23414 INDUSTRIAL PARK CT", "postcode": "48335"}}},
{"geometry": {"type": "Point", "coordinates": [-83.4184732873, 42.4635520563]}, "type": "Feature", "properties": {"collection_times": [{"days": "Mon-Fri", "time": "2:00pm"}, {"days": "Sat", "time": "10:00am"}, {"days": "Sun", "time": "Closed"}], "id": "4833500010", "name": "USPS COLLECTION BOX - BLUE BOX", "address": {"city": "FARMINGTN HLS", "state": "MI", "street": "23414 INDUSTRIAL PARK CT", "postcode": "48335"}}},
{"geometry": {"type": "Point", "coordinates": [-83.4272792339, 42.4670098453]}, "type": "Feature", "properties": {"collection_times": [{"days": "Mon-Fri", "time": "2:00pm"}, {"days": "Sat-Sun", "time": "Closed"}], "id": "4833500011", "name": "USPS COLLECTION BOX - BLUE BOX", "address": {"city": "FARMINGTN HLS", "state": "MI", "street": "24148 RESEARCH DR", "postcode": "48335"}}},
{"geometry": {"type": "Point", "coordinates": [-83.4128787471, 42.4687097427]}, "type": "Feature", "properties": {"collection_times": [{"days": "Mon-Fri", "time": "2:00pm"}, {"days": "Sat-Sun", "time": "Closed"}], "id": "4833500014", "name": "USPS COLLECTION BOX - BLUE BOX", "address": {"city": "FARMINGTN HLS", "state": "MI", "street": "37000 GRAND RIVER AVE", "postcode": "48335"}}},
{"geometry": {"type": "Point", "coordinates": [-83.4128787471, 42.4687097427]}, "type": "Feature", "properties": {"collection_times": [{"days": "Mon-Fri", "time": "2:00pm"}, {"days": "Sat-Sun", "time": "Closed"}], "id": "4833500015", "name": "USPS COLLECTION BOX - BLUE BOX", "address": {"city": "FARMINGTN HLS", "state": "MI", "street": "37000 GRAND RIVER AVE", "postcode": "48335"}}},
{"geometry": {"type": "Point", "coordinates": [-83.4100937181, 42.4687711151]}, "type": "Feature", "properties": {"collection_times": [{"days": "Mon-Fri", "time": "2:00pm"}, {"days": "Sat", "time": "12:00pm"}, {"days": "Sun", "time": "Closed"}], "id": "4833500026", "name": "USPS COLLECTION BOX - BLUE BOX", "address": {"city": "FARMINGTN HLS", "state": "MI", "street": "36700 GRAND RIVER AVE", "postcode": "48335"}}},
{"geometry": {"type": "Point", "coordinates": [-83.4174677722, 42.4765492264]}, "type": "Feature", "properties": {"collection_times": [{"days": "Mon-Fri", "time": "2:00pm"}, {"days": "Sat", "time": "11:00am"}, {"days": "Sun", "time": "Closed"}], "id": "4833500027", "name": "USPS COLLECTION BOX - BLUE BOX", "address": {"city": "FARMINGTN HLS", "state": "MI", "street": "37483 INTERCHANGE DR", "postcode": "48335"}}},
{"geometry": {"type": "Point", "coordinates": [-83.398252677, 42.4690740196]}, "type": "Feature", "properties": {"collection_times": [{"days": "Mon-Fri", "time": "11:00am"}, {"days": "Sat", "time": "10:30am"}, {"days": "Sun", "time": "Closed"}], "id": "4833500030", "name": "USPS COLLECTION BOX - BLUE BOX", "address": {"city": "FARMINGTN HLS", "state": "MI", "street": "35584 GRAND RIVER AVE", "postcode": "48335"}}},
{"geometry": {"type": "Point", "coordinates": [-83.3783366726, 42.4648225542]}, "type": "Feature", "properties": {"collection_times": [{"days": "Mon-Fri", "time": "2:00pm"}, {"days": "Sat", "time": "12:00pm"}, {"days": "Sun", "time": "Closed"}], "id": "4833500036", "name": "USPS COLLECTION BOX - BLUE BOX", "address": {"city": "FARMINGTN HLS", "state": "MI", "street": "23617 LIBERTY ST", "postcode": "48335"}}},
{"geometry": {"type": "Point", "coordinates": [-83.3382883284, 42.484274017]}, "type": "Feature", "properties": {"collection_times": [{"days": "Mon-Fri", "time": "2:00pm"}, {"days": "Sat-Sun", "time": "Closed"}], "id": "4833600003", "name": "USPS COLLECTION BOX - BLUE BOX", "address": {"city": "FARMINGTN HLS", "state": "MI", "street": "25874 MIDDLEBELT RD", "postcode": "48336"}}},
{"geometry": {"type": "Point", "coordinates": [-83.3571818174, 42.469814641]}, "type": "Feature", "properties": {"collection_times": [{"days": "Mon-Sat", "time": "1:00pm"}, {"days": "Sun", "time": "Closed"}], "id": "4833600006", "name": "USPS COLLECTION BOX - BLUE BOX", "address": {"city": "FARMINGTN HLS", "state": "MI", "street": "24115 ORCHARD LAKE RD", "postcode": "48336"}}},
{"geometry": {"type": "Point", "coordinates": [-83.3753733604, 42.4418778821]}, "type": "Feature", "properties": {"collection_times": [{"days": "Mon-Sat", "time": "12:00pm"}, {"days": "Sun", "time": "Closed"}], "id": "4833600010", "name": "USPS COLLECTION BOX - BLUE BOX", "address": {"city": "FARMINGTN HLS", "state": "MI", "street": "20788 FARMINGTON RD", "postcode": "48336"}}},
{"geometry": {"type": "Point", "coordinates": [-83.3746781346, 42.464079432]}, "type": "Feature", "properties": {"collection_times": [{"days": "Mon-Fri", "time": "2:00pm"}, {"days": "Sat", "time": "12:00pm"}, {"days": "Sun", "time": "Closed"}], "id": "4833600011", "name": "USPS COLLECTION BOX - BLUE BOX", "address": {"city": "FARMINGTN HLS", "state": "MI", "street": "33199 GRAND RIVER AVE", "postcode": "48336"}}},
{"geometry": {"type": "Point", "coordinates": [-83.3576844551, 42.4569301546]}, "type": "Feature", "properties": {"collection_times": [{"days": "Mon-Fri", "time": "2:00pm"}, {"days": "Sat", "time": "12:00pm"}, {"days": "Sun", "time": "Closed"}], "id": "4833600012", "name": "USPS COLLECTION BOX - BLUE BOX", "address": {"city": "FARMINGTN HLS", "state": "MI", "street": "31578 GRAND RIVER AVE", "postcode": "48336"}}},
{"geometry": {"type": "Point", "coordinates": [-83.3577555525, 42.4836008448]}, "type": "Feature", "properties": {"collection_times": [{"days": "Mon-Fri", "time": "2:00pm"}, {"days": "Sat", "time": "12:00pm"}, {"days": "Sun", "time": "Closed"}], "id": "4833600014", "name": "USPS COLLECTION BOX - BLUE BOX", "address": {"city": "FARMINGTN HLS", "state": "MI", "street": "25882 ORCHARD LAKE RD", "postcode": "48336"}}},
{"geometry": {"type": "Point", "coordinates": [-83.3606378289, 42.4845885449]}, "type": "Feature", "properties": {"collection_times": [{"days": "Mon-Fri", "time": "2:00pm"}, {"days": "Sat", "time": "1:00pm"}, {"days": "Sun", "time": "Closed"}], "id": "4833600015", "name": "USPS COLLECTION BOX - BLUE BOX", "address": {"city": "FARMINGTN HLS", "state": "MI", "street": "31655 W 11 MILE RD", "postcode": "48336"}}},
{"geometry": {"type": "Point", "coordinates": [-83.3606378289, 42.4845885449]}, "type": "Feature", "properties": {"collection_times": [{"days": "Mon-Fri", "time": "2:00pm"}, {"days": "Sat", "time": "1:00pm"}, {"days": "Sun", "time": "Closed"}], "id": "4833600016", "name": "USPS COLLECTION BOX - BLUE BOX", "address": {"city": "FARMINGTN HLS", "state": "MI", "street": "31655 W 11 MILE RD", "postcode": "48336"}}},
{"geometry": {"type": "Point", "coordinates": [-83.3758834924, 42.4551508941]}, "type": "Feature", "properties": {"collection_times": [{"days": "Mon-Fri", "time": "2:00pm"}, {"days": "Sat", "time": "1:00pm"}, {"days": "Sun", "time": "Closed"}], "id": "4833600019", "name": "USPS COLLECTION BOX - BLUE BOX", "address": {"city": "FARMINGTN HLS", "state": "MI", "street": "22128 FARMINGTON RD", "postcode": "48336"}}},
{"geometry": {"type": "Point", "coordinates": [-83.3567180975, 42.4612109805]}, "type": "Feature", "properties": {"collection_times": [{"days": "Mon-Fri", "time": "1:30pm"}, {"days": "Sat", "time": "12:00pm"}, {"days": "Sun", "time": "Closed"}], "id": "4833600020", "name": "USPS COLLECTION BOX - BLUE BOX", "address": {"city": "FARMINGTN HLS", "state": "MI", "street": "23133 ORCHARD LAKE RD", "postcode": "48336"}}},
{"geometry": {"type": "Point", "coordinates": [-83.3442978886, 42.4513774034]}, "type": "Feature", "properties": {"collection_times": [{"days": "Mon-Fri", "time": "12:00pm"}, {"days": "Sat", "time": "10:30am"}, {"days": "Sun", "time": "Closed"}], "id": "4833600021", "name": "USPS COLLECTION BOX - BLUE BOX", "address": {"city": "FARMINGTN HLS", "state": "MI", "street": "30020 GRAND RIVER AVE", "postcode": "48336"}}},
{"geometry": {"type": "Point", "coordinates": [-83.3637442728, 42.4409502481]}, "type": "Feature", "properties": {"collection_times": [{"days": "Mon-Sat", "time": "11:00am"}, {"days": "Sun", "time": "Closed"}], "id": "4833600024", "name": "USPS COLLECTION BOX - BLUE BOX", "address": {"city": "FARMINGTN HLS", "state": "MI", "street": "32242 W 8 MILE RD", "postcode": "48336"}}},
{"geometry": {"type": "Point", "coordinates": [-83.3386464066, 42.4706811095]}, "type": "Feature", "properties": {"collection_times": [{"days": "Mon-Fri", "time": "12:30pm"}, {"days": "Sat", "time": "12:00pm"}, {"days": "Sun", "time": "Closed"}], "id": "4833600025", "name": "USPS COLLECTION BOX - BLUE BOX", "address": {"city": "FARMINGTN HLS", "state": "MI", "street": "29510 W 10 MILE RD", "postcode": "48336"}}},
{"geometry": {"type": "Point", "coordinates": [-83.3243056488, 42.4434978628]}, "type": "Feature", "properties": {"collection_times": [{"days": "Mon-Fri", "time": "2:00pm"}, {"days": "Sat", "time": "1:00pm"}, {"days": "Sun", "time": "Closed"}], "id": "4833600032", "name": "USPS COLLECTION BOX - BLUE BOX", "address": {"city": "FARMINGTN HLS", "state": "MI", "street": "28050 GRAND RIVER AVE", "postcode": "48336"}}},
{"geometry": {"type": "Point", "coordinates": [-83.3751437642, 42.4623303443]}, "type": "Feature", "properties": {"collection_times": [{"days": "Mon-Fri", "time": "3:00pm"}, {"days": "Sat", "time": "12:00pm"}, {"days": "Sun", "time": "Closed"}], "id": "4833600034", "name": "USPS COLLECTION BOX - BLUE BOX", "address": {"city": "FARMINGTN HLS", "state": "MI", "street": "33209 ORCHARD ST", "postcode": "48336"}}},
{"geometry": {"type": "Point", "coordinates": [-83.3751437642, 42.4623303443]}, "type": "Feature", "properties": {"collection_times": [{"days": "Mon-Fri", "time": "3:00pm"}, {"days": "Sat", "time": "12:00pm"}, {"days": "Sun", "time": "Closed"}], "id": "4833600035", "name": "USPS COLLECTION BOX - BLUE BOX", "address": {"city": "FARMINGTN HLS", "state": "MI", "street": "33209 ORCHARD ST", "postcode": "48336"}}},
{"geometry": {"type": "Point", "coordinates": [-83.3751437642, 42.4623303443]}, "type": "Feature", "properties": {"collection_times": [{"days": "Mon-Fri", "time": "3:00pm"}, {"days": "Sat", "time": "12:00pm"}, {"days": "Sun", "time": "Closed"}], "id": "4833600036", "name": "USPS COLLECTION BOX - BLUE BOX", "address": {"city": "FARMINGTN HLS", "state": "MI", "street": "33209 ORCHARD ST", "postcode": "48336"}}},
{"geometry": {"type": "Point", "coordinates": [-83.3751437642, 42.4623303443]}, "type": "Feature", "properties": {"collection_times": [{"days": "Mon-Fri", "time": "3:00pm"}, {"days": "Sat", "time": "12:00pm"}, {"days": "Sun", "time": "Closed"}], "id": "4833600037", "name": "USPS COLLECTION BOX - BLUE BOX", "address": {"city": "FARMINGTN HLS", "state": "MI", "street": "33209 ORCHARD ST", "postcode": "48336"}}},
{"geometry": {"type": "Point", "coordinates": [-83.3751437642, 42.4623303443]}, "type": "Feature", "properties": {"collection_times": [{"days": "Mon-Fri", "time": "3:00pm"}, {"days": "Sat", "time": "12:00pm"}, {"days": "Sun", "time": "Closed"}], "id": "4833600038", "name": "USPS COLLECTION BOX - BLUE BOX", "address": {"city": "FARMINGTN HLS", "state": "MI", "street": "33209 ORCHARD ST", "postcode": "48336"}}},
{"geometry": {"type": "Point", "coordinates": [-83.3751437642, 42.4623303443]}, "type": "Feature", "properties": {"collection_times": [{"days": "Mon-Fri", "time": "3:00pm"}, {"days": "Sat", "time": "12:00pm"}, {"days": "Sun", "time": "Closed"}], "id": "4833600039", "name": "USPS COLLECTION BOX - BLUE BOX", "address": {"city": "FARMINGTN HLS", "state": "MI", "street": "33209 ORCHARD ST", "postcode": "48336"}}},
{"geometry": {"type": "Point", "coordinates": [-83.376254418, 42.4625987349]}, "type": "Feature", "properties": {"collection_times": [{"days": "Mon-Fri", "time": "5:00pm"}, {"days": "Sat", "time": "2:00pm"}, {"days": "Sun", "time": "Closed"}], "id": "4833600042", "name": "USPS COLLECTION BOX - PO LOBBY", "address": {"city": "FARMINGTN HLS", "state": "MI", "street": "23332 FARMINGTON RD", "postcode": "48336"}}},
{"geometry": {"type": "Point", "coordinates": [-83.376254418, 42.4625987349]}, "type": "Feature", "properties": {"collection_times": [{"days": "Mon-Fri", "time": "5:00pm"}, {"days": "Sat", "time": "2:00pm"}, {"days": "Sun", "time": "Closed"}], "id": "4833600044", "name": "USPS COLLECTION BOX - PO LOBBY", "address": {"city": "FARMINGTN HLS", "state": "MI", "street": "23332 FARMINGTON RD", "postcode": "48336"}}},
{"geometry": {"type": "Point", "coordinates": [-83.376254418, 42.4625987349]}, "type": "Feature", "properties": {"collection_times": [{"days": "Mon-Fri", "time": "5:00pm"}, {"days": "Sat", "time": "2:00pm"}, {"days": "Sun", "time": "Closed"}], "id": "4833600046", "name": "USPS COLLECTION BOX - APC", "address": {"city": "FARMINGTN HLS", "state": "MI", "street": "23332 FARMINGTON RD", "postcode": "48336"}}},
{"geometry": {"type": "Point", "coordinates": [-83.2522070421, 42.6765377849]}, "type": "Feature", "properties": {"collection_times": [{"days": "Mon-Fri", "time": "1:00pm"}, {"days": "Sat", "time": "9:30am"}, {"days": "Sun", "time": "Closed"}], "id": "4834000001", "name": "USPS COLLECTION BOX - BLUE BOX", "address": {"city": "PONTIAC", "state": "MI", "street": "1859 N PERRY ST", "postcode": "48340"}}},
{"geometry": {"type": "Point", "coordinates": [-83.2989778704, 42.6770548562]}, "type": "Feature", "properties": {"collection_times": [{"days": "Mon-Fri", "time": "3:00pm"}, {"days": "Sat", "time": "9:30am"}, {"days": "Sun", "time": "Closed"}], "id": "4834000004", "name": "USPS COLLECTION BOX - BLUE BOX", "address": {"city": "PONTIAC", "state": "MI", "street": "20 E WALTON BLVD", "postcode": "48340"}}},
{"geometry": {"type": "Point", "coordinates": [-83.3198892336, 42.6677424948]}, "type": "Feature", "properties": {"collection_times": [{"days": "Mon-Fri", "time": "11:00am"}, {"days": "Sat", "time": "9:30am"}, {"days": "Sun", "time": "Closed"}], "id": "4834000007", "name": "USPS COLLECTION BOX - BLUE BOX", "address": {"city": "PONTIAC", "state": "MI", "street": "74 CHERRY HILL DR", "postcode": "48340"}}},
{"geometry": {"type": "Point", "coordinates": [-83.288389477, 42.636889373]}, "type": "Feature", "properties": {"collection_times": [{"days": "Mon-Fri", "time": "3:00pm"}, {"days": "Sat", "time": "11:30am"}, {"days": "Sun", "time": "Closed"}], "id": "4834100000", "name": "USPS COLLECTION BOX - BLUE BOX", "address": {"city": "PONTIAC", "state": "MI", "street": "47450 WOODWARD AVE", "postcode": "48341"}}},
{"geometry": {"type": "Point", "coordinates": [-83.2997657849, 42.6279401876]}, "type": "Feature", "properties": {"collection_times": [{"days": "Mon-Fri", "time": "3:00pm"}, {"days": "Sat", "time": "12:00pm"}, {"days": "Sun", "time": "Closed"}], "id": "4834100003", "name": "USPS COLLECTION BOX - BLUE BOX", "address": {"city": "PONTIAC", "state": "MI", "street": "2701 CAMBRIDGE CT", "postcode": "48341"}}},
{"geometry": {"type": "Point", "coordinates": [-83.2997657849, 42.6279401876]}, "type": "Feature", "properties": {"collection_times": [{"days": "Mon-Fri", "time": "1:00pm"}, {"days": "Sat", "time": "9:30am"}, {"days": "Sun", "time": "Closed"}], "id": "4834100009", "name": "USPS COLLECTION BOX - BLUE BOX", "address": {"city": "PONTIAC", "state": "MI", "street": "1450 HIGHWOOD BLVD", "postcode": "48341"}}},
{"geometry": {"type": "Point", "coordinates": [-83.2997657849, 42.6279401876]}, "type": "Feature", "properties": {"collection_times": [{"days": "Mon-Fri", "time": "3:00pm"}, {"days": "Sat", "time": "9:30am"}, {"days": "Sun", "time": "Closed"}], "id": "4834100016", "name": "USPS COLLECTION BOX - BLUE BOX", "address": {"city": "PONTIAC", "state": "MI", "street": "20 E WALTON BLVD", "postcode": "48341"}}},
{"geometry": {"type": "Point", "coordinates": [-83.294666423, 42.641594904]}, "type": "Feature", "properties": {"collection_times": [{"days": "Mon-Sat", "time": "5:00pm"}, {"days": "Sun", "time": "Closed"}], "id": "4834200005", "name": "USPS COLLECTION BOX - BLUE BOX", "address": {"city": "PONTIAC", "state": "MI", "street": "45 OAKLAND AVE", "postcode": "48342"}}},
{"geometry": {"type": "Point", "coordinates": [-83.2761739705, 42.6551263459]}, "type": "Feature", "properties": {"collection_times": [{"days": "Mon-Fri", "time": "11:00am"}, {"days": "Sat", "time": "9:30am"}, {"days": "Sun", "time": "Closed"}], "id": "4834200012", "name": "USPS COLLECTION BOX - BLUE BOX", "address": {"city": "PONTIAC", "state": "MI", "street": "690 MARTIN LUTHER KING JR BLVD N", "postcode": "48342"}}},
{"geometry": {"type": "Point", "coordinates": [-83.2616749388, 42.6346686302]}, "type": "Feature", "properties": {"collection_times": [{"days": "Mon-Fri", "time": "11:00am"}, {"days": "Sat", "time": "9:30am"}, {"days": "Sun", "time": "Closed"}], "id": "4834200015", "name": "USPS COLLECTION BOX - BLUE BOX", "address": {"city": "PONTIAC", "state": "MI", "street": "140 CARRIAGE CIRCLE DR", "postcode": "48342"}}},
{"geometry": {"type": "Point", "coordinates": [-83.3197411662, 42.6353508208]}, "type": "Feature", "properties": {"collection_times": [{"days": "Mon-Sat", "time": "5:00pm"}, {"days": "Sun", "time": "Closed"}], "id": "4834300071", "name": "USPS COLLECTION BOX - BLUE BOX", "address": {"city": "PONTIAC", "state": "MI", "street": "735 W HURON ST", "postcode": "48343"}}},
{"geometry": {"type": "Point", "coordinates": [-83.3197411662, 42.6353508208]}, "type": "Feature", "properties": {"collection_times": [{"days": "Mon-Sat", "time": "5:00pm"}, {"days": "Sun", "time": "Closed"}], "id": "4834300079", "name": "USPS COLLECTION BOX - BLUE BOX", "address": {"city": "PONTIAC", "state": "MI", "street": "735 W HURON ST", "postcode": "48343"}}},
{"geometry": {"type": "Point", "coordinates": [-83.3197411662, 42.6353508208]}, "type": "Feature", "properties": {"collection_times": [{"days": "Mon-Sat", "time": "5:00pm"}, {"days": "Sun", "time": "Closed"}], "id": "4834300080", "name": "USPS COLLECTION BOX - PO LOBBY", "address": {"city": "PONTIAC", "state": "MI", "street": "735 W HURON ST", "postcode": "48343"}}},
{"geometry": {"type": "Point", "coordinates": [-83.419173599, 42.7355415304]}, "type": "Feature", "properties": {"collection_times": [{"days": "Mon-Sat", "time": "1:00pm"}, {"days": "Sun", "time": "Closed"}], "id": "4834600000", "name": "USPS COLLECTION BOX - BLUE BOX", "address": {"city": "CLARKSTON", "state": "MI", "street": "5 S MAIN ST", "postcode": "48346"}}},
{"geometry": {"type": "Point", "coordinates": [-83.3385847748, 42.7056973629]}, "type": "Feature", "properties": {"collection_times": [{"days": "Mon-Sat", "time": "12:00pm"}, {"days": "Sun", "time": "Closed"}], "id": "4834600005", "name": "USPS COLLECTION BOX - BLUE BOX", "address": {"city": "CLARKSTON", "state": "MI", "street": "2500 MANN RD", "postcode": "48346"}}},
{"geometry": {"type": "Point", "coordinates": [-83.425771547, 42.7218025893]}, "type": "Feature", "properties": {"collection_times": [{"days": "Mon-Sat", "time": "1:00pm"}, {"days": "Sun", "time": "Closed"}], "id": "4834600006", "name": "USPS COLLECTION BOX - BLUE BOX", "address": {"city": "CLARKSTON", "state": "MI", "street": "7210 M-15", "postcode": "48346"}}},
{"geometry": {"type": "Point", "coordinates": [-83.3359820098, 42.7639940594]}, "type": "Feature", "properties": {"collection_times": [{"days": "Mon-Sat", "time": "11:00am"}, {"days": "Sun", "time": "Closed"}], "id": "4834600007", "name": "USPS COLLECTION BOX - BLUE BOX", "address": {"city": "CLARKSTON", "state": "MI", "street": "4597 CLARKSTON RD", "postcode": "48346"}}},
{"geometry": {"type": "Point", "coordinates": [-83.3456148447, 42.7143204295]}, "type": "Feature", "properties": {"collection_times": [{"days": "Mon-Sat", "time": "12:00pm"}, {"days": "Sun", "time": "Closed"}], "id": "4834600008", "name": "USPS COLLECTION BOX - BLUE BOX", "address": {"city": "CLARKSTON", "state": "MI", "street": "4855 FOX CRK", "postcode": "48346"}}},
{"geometry": {"type": "Point", "coordinates": [-83.4275708681, 42.7245243492]}, "type": "Feature", "properties": {"collection_times": [{"days": "Mon-Sat", "time": "1:00pm"}, {"days": "Sun", "time": "Closed"}], "id": "4834600009", "name": "USPS COLLECTION BOX - BLUE BOX", "address": {"city": "CLARKSTON", "state": "MI", "street": "7121 DIXIE HWY", "postcode": "48346"}}},
{"geometry": {"type": "Point", "coordinates": [-83.3795728647, 42.7331353919]}, "type": "Feature", "properties": {"collection_times": [{"days": "Mon-Sat", "time": "1:00pm"}, {"days": "Sun", "time": "Closed"}], "id": "4834600010", "name": "USPS COLLECTION BOX - BLUE BOX", "address": {"city": "CLARKSTON", "state": "MI", "street": "6555 SASHABAW RD", "postcode": "48346"}}},
{"geometry": {"type": "Point", "coordinates": [-83.4156194368, 42.7179572906]}, "type": "Feature", "properties": {"collection_times": [{"days": "Mon-Sat", "time": "1:00pm"}, {"days": "Sun", "time": "Closed"}], "id": "4834600012", "name": "USPS COLLECTION BOX - BLUE BOX", "address": {"city": "CLARKSTON", "state": "MI", "street": "6647 DIXIE HWY", "postcode": "48346"}}},
{"geometry": {"type": "Point", "coordinates": [-83.4185892173, 42.7225597387]}, "type": "Feature", "properties": {"collection_times": [{"days": "Mon-Sat", "time": "4:45pm"}, {"days": "Sun", "time": "Closed"}], "id": "4834700001", "name": "USPS COLLECTION BOX - BLUE BOX", "address": {"city": "CLARKSTON", "state": "MI", "street": "5799 S MAIN ST", "postcode": "48347"}}},
{"geometry": {"type": "Point", "coordinates": [-83.4185892173, 42.7225597387]}, "type": "Feature", "properties": {"collection_times": [{"days": "Mon-Sat", "time": "4:45pm"}, {"days": "Sun", "time": "Closed"}], "id": "4834700002", "name": "USPS COLLECTION BOX - BLUE BOX", "address": {"city": "CLARKSTON", "state": "MI", "street": "5799 S MAIN ST", "postcode": "48347"}}},
{"geometry": {"type": "Point", "coordinates": [-83.4185892173, 42.7225597387]}, "type": "Feature", "properties": {"collection_times": [{"days": "Mon-Sat", "time": "4:45pm"}, {"days": "Sun", "time": "Closed"}], "id": "4834700003", "name": "USPS COLLECTION BOX - BLUE BOX", "address": {"city": "CLARKSTON", "state": "MI", "street": "5799 S MAIN ST", "postcode": "48347"}}},
{"geometry": {"type": "Point", "coordinates": [-83.4185892173, 42.7225597387]}, "type": "Feature", "properties": {"collection_times": [{"days": "Mon-Sat", "time": "4:45pm"}, {"days": "Sun", "time": "Closed"}], "id": "4834700014", "name": "USPS COLLECTION BOX - BLUE BOX", "address": {"city": "CLARKSTON", "state": "MI", "street": "5799 S MAIN ST", "postcode": "48347"}}},
{"geometry": {"type": "Point", "coordinates": [-83.4185892173, 42.7225597387]}, "type": "Feature", "properties": {"collection_times": [{"days": "Mon-Fri", "time": "4:45pm"}, {"days": "Sat", "time": "1:45pm"}, {"days": "Sun", "time": "Closed"}], "id": "4834700016", "name": "USPS COLLECTION BOX - PO LOBBY", "address": {"city": "CLARKSTON", "state": "MI", "street": "5799 S MAIN ST", "postcode": "48347"}}},
{"geometry": {"type": "Point", "coordinates": [-83.4185892173, 42.7225597387]}, "type": "Feature", "properties": {"collection_times": [{"days": "Mon-Sat", "time": "4:45pm"}, {"days": "Sun", "time": "Closed"}], "id": "4834700017", "name": "USPS COLLECTION BOX - BLUE BOX", "address": {"city": "CLARKSTON", "state": "MI", "street": "5799 S MAIN ST", "postcode": "48347"}}},
{"geometry": {"type": "Point", "coordinates": [-83.4185892173, 42.7225597387]}, "type": "Feature", "properties": {"collection_times": [{"days": "Mon-Fri", "time": "4:45pm"}, {"days": "Sat", "time": "1:45pm"}, {"days": "Sun", "time": "Closed"}], "id": "4834700018", "name": "USPS COLLECTION BOX - PO LOBBY", "address": {"city": "CLARKSTON", "state": "MI", "street": "5799 S MAIN ST", "postcode": "48347"}}},
{"geometry": {"type": "Point", "coordinates": [-83.4185892173, 42.7225597387]}, "type": "Feature", "properties": {"collection_times": [{"days": "Mon-Fri", "time": "4:45pm"}, {"days": "Sat", "time": "1:45pm"}, {"days": "Sun", "time": "Closed"}], "id": "4834700020", "name": "USPS COLLECTION BOX - APC", "address": {"city": "CLARKSTON", "state": "MI", "street": "5799 S MAIN ST", "postcode": "48347"}}},
{"geometry": {"type": "Point", "coordinates": [-83.5444004521, 42.7470280619]}, "type": "Feature", "properties": {"collection_times": [{"days": "Mon-Fri", "time": "3:00pm"}, {"days": "Sat", "time": "11:00am"}, {"days": "Sun", "time": "Closed"}], "id": "4835000002", "name": "USPS COLLECTION BOX - PO LOBBY", "address": {"city": "DAVISBURG", "state": "MI", "street": "12795 FOUNTAIN SQUARE", "postcode": "48350"}}},
{"geometry": {"type": "Point", "coordinates": [-83.5444004521, 42.7470280619]}, "type": "Feature", "properties": {"collection_times": [{"days": "Mon-Fri", "time": "3:00pm"}, {"days": "Sat", "time": "11:00am"}, {"days": "Sun", "time": "Closed"}], "id": "4835000003", "name": "USPS COLLECTION BOX - PO LOBBY", "address": {"city": "DAVISBURG", "state": "MI", "street": "12795 FOUNTAIN SQUARE", "postcode": "48350"}}},
{"geometry": {"type": "Point", "coordinates": [-83.5444004521, 42.7470280619]}, "type": "Feature", "properties": {"collection_times": [{"days": "Mon-Fri", "time": "3:00pm"}, {"days": "Sat", "time": "11:00am"}, {"days": "Sun", "time": "Closed"}], "id": "4835000004", "name": "USPS COLLECTION BOX - BLUE BOX", "address": {"city": "DAVISBURG", "state": "MI", "street": "12795 FOUNTAIN SQUARE", "postcode": "48350"}}},
{"geometry": {"type": "Point", "coordinates": [-83.7354942931, 42.6350676741]}, "type": "Feature", "properties": {"collection_times": [{"days": "Mon-Sat", "time": "9:30am"}, {"days": "Sun", "time": "Closed"}], "id": "4835300001", "name": "USPS COLLECTION BOX - BLUE BOX", "address": {"city": "HARTLAND", "state": "MI", "street": "11202 HIGHLAND RD", "postcode": "48353"}}},
{"geometry": {"type": "Point", "coordinates": [-83.7531967809, 42.6549982854]}, "type": "Feature", "properties": {"collection_times": [{"days": "Mon-Fri", "time": "4:30pm"}, {"days": "Sat", "time": "12:00pm"}, {"days": "Sun", "time": "Closed"}], "id": "4835300002", "name": "USPS COLLECTION BOX - BLUE BOX", "address": {"city": "HARTLAND", "state": "MI", "street": "10246 CROUSE RD", "postcode": "48353"}}},
{"geometry": {"type": "Point", "coordinates": [-83.7531967809, 42.6549982854]}, "type": "Feature", "properties": {"collection_times": [{"days": "Mon-Fri", "time": "4:30pm"}, {"days": "Sat", "time": "12:00pm"}, {"days": "Sun", "time": "Closed"}], "id": "4835300004", "name": "USPS COLLECTION BOX - PO LOBBY", "address": {"city": "HARTLAND", "state": "MI", "street": "10246 CROUSE RD", "postcode": "48353"}}},
{"geometry": {"type": "Point", "coordinates": [-83.7112926508, 42.6351759716]}, "type": "Feature", "properties": {"collection_times": [{"days": "Mon-Sat", "time": "9:30am"}, {"days": "Sun", "time": "Closed"}], "id": "4835300005", "name": "USPS COLLECTION BOX - BLUE BOX", "address": {"city": "HARTLAND", "state": "MI", "street": "12319 HIGHLAND RD", "postcode": "48353"}}},
{"geometry": {"type": "Point", "coordinates": [-83.7514916267, 42.6332322737]}, "type": "Feature", "properties": {"collection_times": [{"days": "Mon-Sat", "time": "9:30am"}, {"days": "Sun", "time": "Closed"}], "id": "4835300007", "name": "USPS COLLECTION BOX - BLUE BOX", "address": {"city": "HARTLAND", "state": "MI", "street": "10100 HIGHLAND RD", "postcode": "48353"}}},
{"geometry": {"type": "Point", "coordinates": [-83.5747445325, 42.653826274]}, "type": "Feature", "properties": {"collection_times": [{"days": "Mon-Sat", "time": "11:00am"}, {"days": "Sun", "time": "Closed"}], "id": "4835600000", "name": "USPS COLLECTION BOX - BLUE BOX", "address": {"city": "HIGHLAND", "state": "MI", "street": "2886 E HIGHLAND RD", "postcode": "48356"}}},
{"geometry": {"type": "Point", "coordinates": [-83.5747445325, 42.653826274]}, "type": "Feature", "properties": {"collection_times": [{"days": "Mon-Sat", "time": "11:00am"}, {"days": "Sun", "time": "Closed"}], "id": "4835600001", "name": "USPS COLLECTION BOX - BLUE BOX", "address": {"city": "HIGHLAND", "state": "MI", "street": "2886 E HIGHLAND RD", "postcode": "48356"}}},
{"geometry": {"type": "Point", "coordinates": [-83.6122003631, 42.6439385266]}, "type": "Feature", "properties": {"collection_times": [{"days": "Mon-Fri", "time": "4:45pm"}, {"days": "Sat", "time": "2:00pm"}, {"days": "Sun", "time": "Closed"}], "id": "4835600002", "name": "USPS COLLECTION BOX - PO LOBBY", "address": {"city": "HIGHLAND", "state": "MI", "street": "376 BEACH FARM CIR", "postcode": "48356"}}},
{"geometry": {"type": "Point", "coordinates": [-83.6122003631, 42.6439385266]}, "type": "Feature", "properties": {"collection_times": [{"days": "Mon-Fri", "time": "4:30pm"}, {"days": "Sat", "time": "2:00pm"}, {"days": "Sun", "time": "Closed"}], "id": "4835600003", "name": "USPS COLLECTION BOX - BLUE BOX", "address": {"city": "HIGHLAND", "state": "MI", "street": "376 BEACH FARM CIR", "postcode": "48356"}}},
{"geometry": {"type": "Point", "coordinates": [-83.6122003631, 42.6439385266]}, "type": "Feature", "properties": {"collection_times": [{"days": "Mon-Fri", "time": "4:45pm"}, {"days": "Sat", "time": "2:00pm"}, {"days": "Sun", "time": "Closed"}], "id": "4835600004", "name": "USPS COLLECTION BOX - PO LOBBY", "address": {"city": "HIGHLAND", "state": "MI", "street": "376 BEACH FARM CIR", "postcode": "48356"}}},
{"geometry": {"type": "Point", "coordinates": [-83.6122003631, 42.6439385266]}, "type": "Feature", "properties": {"collection_times": [{"days": "Mon-Fri", "time": "4:45pm"}, {"days": "Sat", "time": "2:00pm"}, {"days": "Sun", "time": "Closed"}], "id": "4835600005", "name": "USPS COLLECTION BOX - APC", "address": {"city": "HIGHLAND", "state": "MI", "street": "376 BEACH FARM CIR", "postcode": "48356"}}},
{"geometry": {"type": "Point", "coordinates": [-83.6122003631, 42.6439385266]}, "type": "Feature", "properties": {"collection_times": [{"days": "Mon-Fri", "time": "4:45pm"}, {"days": "Sat", "time": "2:00pm"}, {"days": "Sun", "time": "Closed"}], "id": "4835600006", "name": "USPS COLLECTION BOX - PO LOBBY", "address": {"city": "HIGHLAND", "state": "MI", "street": "376 BEACH FARM CIR", "postcode": "48356"}}},
{"geometry": {"type": "Point", "coordinates": [-83.6193113761, 42.6396627063]}, "type": "Feature", "properties": {"collection_times": [{"days": "Mon-Fri", "time": "11:00am"}, {"days": "Sat", "time": "10:00am"}, {"days": "Sun", "time": "Closed"}], "id": "4835700001", "name": "USPS COLLECTION BOX - BLUE BOX", "address": {"city": "HIGHLAND", "state": "MI", "street": "205 N JOHN ST", "postcode": "48357"}}},
{"geometry": {"type": "Point", "coordinates": [-83.6187480161, 42.6612868569]}, "type": "Feature", "properties": {"collection_times": [{"days": "Mon-Sat", "time": "10:00am"}, {"days": "Sun", "time": "Closed"}], "id": "4835700003", "name": "USPS COLLECTION BOX - BLUE BOX", "address": {"city": "HIGHLAND", "state": "MI", "street": "2377 N MILFORD RD", "postcode": "48357"}}},
{"geometry": {"type": "Point", "coordinates": [-83.2463622216, 42.7912234089]}, "type": "Feature", "properties": {"collection_times": [{"days": "Mon-Fri", "time": "5:00pm"}, {"days": "Sat", "time": "4:00pm"}, {"days": "Sun", "time": "Closed"}], "id": "4836100010", "name": "USPS COLLECTION BOX - BLUE BOX", "address": {"city": "LAKE ORION", "state": "MI", "street": "611 N AXFORD ST", "postcode": "48361"}}},
{"geometry": {"type": "Point", "coordinates": [-83.2463622216, 42.7912234089]}, "type": "Feature", "properties": {"collection_times": [{"days": "Mon-Fri", "time": "5:00pm"}, {"days": "Sat", "time": "1:00pm"}, {"days": "Sun", "time": "Closed"}], "id": "4836100014", "name": "USPS COLLECTION BOX - PO LOBBY", "address": {"city": "LAKE ORION", "state": "MI", "street": "611 N AXFORD ST", "postcode": "48361"}}},
{"geometry": {"type": "Point", "coordinates": [-83.2463622216, 42.7912234089]}, "type": "Feature", "properties": {"collection_times": [{"days": "Mon-Fri", "time": "5:00pm"}, {"days": "Sat", "time": "1:00pm"}, {"days": "Sun", "time": "Closed"}], "id": "4836100017", "name": "USPS COLLECTION BOX - APC", "address": {"city": "LAKE ORION", "state": "MI", "street": "611 N AXFORD ST", "postcode": "48361"}}},
{"geometry": {"type": "Point", "coordinates": [-83.1677075692, 42.7989667146]}, "type": "Feature", "properties": {"collection_times": [{"days": "Mon-Sat", "time": "12:00pm"}, {"days": "Sun", "time": "Closed"}], "id": "4836300000", "name": "USPS COLLECTION BOX - BLUE BOX", "address": {"city": "OAKLAND", "state": "MI", "street": "1441 W ROMEO RD", "postcode": "48363"}}},
{"geometry": {"type": "Point", "coordinates": [-83.1489159587, 42.8178590224]}, "type": "Feature", "properties": {"collection_times": [{"days": "Mon-Fri", "time": "3:45pm"}, {"days": "Sat", "time": "12:00pm"}, {"days": "Sun", "time": "Closed"}], "id": "4836600000", "name": "USPS COLLECTION BOX - BLUE BOX", "address": {"city": "LAKEVILLE", "state": "MI", "street": "1436 ROCHESTER RD", "postcode": "48366"}}},
{"geometry": {"type": "Point", "coordinates": [-83.1489159587, 42.8178590224]}, "type": "Feature", "properties": {"collection_times": [{"days": "Mon-Fri", "time": "3:45pm"}, {"days": "Sat", "time": "12:00pm"}, {"days": "Sun", "time": "Closed"}], "id": "4836600001", "name": "USPS COLLECTION BOX - PO LOBBY", "address": {"city": "LAKEVILLE", "state": "MI", "street": "1436 ROCHESTER RD", "postcode": "48366"}}},
{"geometry": {"type": "Point", "coordinates": [-83.1489159587, 42.8178590224]}, "type": "Feature", "properties": {"collection_times": [{"days": "Mon-Fri", "time": "3:45pm"}, {"days": "Sat", "time": "12:00pm"}, {"days": "Sun", "time": "Closed"}], "id": "4836600002", "name": "USPS COLLECTION BOX - PO LOBBY", "address": {"city": "LAKEVILLE", "state": "MI", "street": "1436 ROCHESTER RD", "postcode": "48366"}}},
{"geometry": {"type": "Point", "coordinates": [-83.1421636471, 42.8653476176]}, "type": "Feature", "properties": {"collection_times": [{"days": "Mon-Fri", "time": "3:00pm"}, {"days": "Sat", "time": "11:00am"}, {"days": "Sun", "time": "Closed"}], "id": "4836700001", "name": "USPS COLLECTION BOX - BLUE BOX", "address": {"city": "LEONARD", "state": "MI", "street": "22 E ELMWOOD", "postcode": "48367"}}},
{"geometry": {"type": "Point", "coordinates": [-83.1421636471, 42.8653476176]}, "type": "Feature", "properties": {"collection_times": [{"days": "Mon-Fri", "time": "3:00pm"}, {"days": "Sat", "time": "11:00am"}, {"days": "Sun", "time": "Closed"}], "id": "4836700002", "name": "USPS COLLECTION BOX - PO LOBBY", "address": {"city": "LEONARD", "state": "MI", "street": "22 E ELMWOOD", "postcode": "48367"}}},
{"geometry": {"type": "Point", "coordinates": [-83.2612166373, 42.8248277242]}, "type": "Feature", "properties": {"collection_times": [{"days": "Mon-Fri", "time": "5:00pm"}, {"days": "Sat", "time": "1:00pm"}, {"days": "Sun", "time": "Closed"}], "id": "4837100002", "name": "USPS COLLECTION BOX - BLUE BOX", "address": {"city": "OXFORD", "state": "MI", "street": "52 E BURDICK ST", "postcode": "48371"}}},
{"geometry": {"type": "Point", "coordinates": [-83.2612166373, 42.8248277242]}, "type": "Feature", "properties": {"collection_times": [{"days": "Mon-Fri", "time": "5:00pm"}, {"days": "Sat", "time": "1:00pm"}, {"days": "Sun", "time": "Closed"}], "id": "4837100004", "name": "USPS COLLECTION BOX - BLUE BOX", "address": {"city": "OXFORD", "state": "MI", "street": "52 E BURDICK ST", "postcode": "48371"}}},
{"geometry": {"type": "Point", "coordinates": [-83.2612166373, 42.8248277242]}, "type": "Feature", "properties": {"collection_times": [{"days": "Mon-Fri", "time": "5:00pm"}, {"days": "Sat", "time": "1:00pm"}, {"days": "Sun", "time": "Closed"}], "id": "4837100005", "name": "USPS COLLECTION BOX - BLUE BOX", "address": {"city": "OXFORD", "state": "MI", "street": "52 E BURDICK ST", "postcode": "48371"}}},
{"geometry": {"type": "Point", "coordinates": [-83.2291888853, 42.8257593385]}, "type": "Feature", "properties": {"collection_times": [{"days": "Mon-Sat", "time": "11:00am"}, {"days": "Sun", "time": "Closed"}], "id": "4837100007", "name": "USPS COLLECTION BOX - BLUE BOX", "address": {"city": "OXFORD", "state": "MI", "street": "1700 E LAKEVILLE RD", "postcode": "48371"}}},
{"geometry": {"type": "Point", "coordinates": [-83.2612166373, 42.8248277242]}, "type": "Feature", "properties": {"collection_times": [{"days": "Mon-Fri", "time": "5:00pm"}, {"days": "Sat", "time": "1:00pm"}, {"days": "Sun", "time": "Closed"}], "id": "4837100010", "name": "USPS COLLECTION BOX - PO LOBBY", "address": {"city": "OXFORD", "state": "MI", "street": "52 E BURDICK ST", "postcode": "48371"}}},
{"geometry": {"type": "Point", "coordinates": [-83.2646720691, 42.8193216728]}, "type": "Feature", "properties": {"collection_times": [{"days": "Mon-Sat", "time": "10:00am"}, {"days": "Sun", "time": "Closed"}], "id": "4837100011", "name": "USPS COLLECTION BOX - BLUE BOX", "address": {"city": "OXFORD", "state": "MI", "street": "75 CRAWFORD ST", "postcode": "48371"}}},
{"geometry": {"type": "Point", "coordinates": [-83.5495995781, 42.4851433107]}, "type": "Feature", "properties": {"collection_times": [{"days": "Mon-Sat", "time": "10:00am"}, {"days": "Sun", "time": "Closed"}], "id": "4837400000", "name": "USPS COLLECTION BOX - BLUE BOX", "address": {"city": "NOVI", "state": "MI", "street": "11 FERHOODLE", "postcode": "48374"}}},
{"geometry": {"type": "Point", "coordinates": [-83.5513038444, 42.483528155]}, "type": "Feature", "properties": {"collection_times": [{"days": "Mon-Sat", "time": "10:00am"}, {"days": "Sun", "time": "Closed"}], "id": "4837400001", "name": "USPS COLLECTION BOX - BLUE BOX", "address": {"city": "NOVI", "state": "MI", "street": "50852 MONTANA AVE", "postcode": "48374"}}},
{"geometry": {"type": "Point", "coordinates": [-83.5185281218, 42.4694300419]}, "type": "Feature", "properties": {"collection_times": [{"days": "Mon-Sat", "time": "10:00am"}, {"days": "Sun", "time": "Closed"}], "id": "4837400003", "name": "USPS COLLECTION BOX - BLUE BOX", "address": {"city": "NOVI", "state": "MI", "street": "47601 GRAND RIVER AVE", "postcode": "48374"}}},
{"geometry": {"type": "Point", "coordinates": [-83.5185281218, 42.4694300419]}, "type": "Feature", "properties": {"collection_times": [{"days": "Mon-Sat", "time": "10:00am"}, {"days": "Sun", "time": "Closed"}], "id": "4837400004", "name": "USPS COLLECTION BOX - BLUE BOX", "address": {"city": "NOVI", "state": "MI", "street": "47601 GRAND RIVER AVE", "postcode": "48374"}}},
{"geometry": {"type": "Point", "coordinates": [-83.5131301148, 42.4654873771]}, "type": "Feature", "properties": {"collection_times": [{"days": "Mon-Sat", "time": "10:00am"}, {"days": "Sun", "time": "Closed"}], "id": "4837400006", "name": "USPS COLLECTION BOX - BLUE BOX", "address": {"city": "NOVI", "state": "MI", "street": "47200 W 10 MILE RD", "postcode": "48374"}}},
{"geometry": {"type": "Point", "coordinates": [-83.4720518648, 42.480021211]}, "type": "Feature", "properties": {"collection_times": [{"days": "Mon-Fri", "time": "1:00pm"}, {"days": "Sat", "time": "10:00am"}, {"days": "Sun", "time": "Closed"}], "id": "4837500005", "name": "USPS COLLECTION BOX - BLUE BOX", "address": {"city": "NOVI", "state": "MI", "street": "43100 GRAND RIVER AVE", "postcode": "48375"}}},
{"geometry": {"type": "Point", "coordinates": [-83.4716886964, 42.4688801035]}, "type": "Feature", "properties": {"collection_times": [{"days": "Mon-Fri", "time": "1:00pm"}, {"days": "Sat", "time": "10:00am"}, {"days": "Sun", "time": "Closed"}], "id": "4837500006", "name": "USPS COLLECTION BOX - BLUE BOX", "address": {"city": "NOVI", "state": "MI", "street": "24300 CATHERINE INDUSTRIAL DR", "postcode": "48375"}}},
{"geometry": {"type": "Point", "coordinates": [-83.4657254002, 42.4786170387]}, "type": "Feature", "properties": {"collection_times": [{"days": "Mon-Fri", "time": "1:00pm"}, {"days": "Sat", "time": "10:00am"}, {"days": "Sun", "time": "Closed"}], "id": "4837500008", "name": "USPS COLLECTION BOX - BLUE BOX", "address": {"city": "NOVI", "state": "MI", "street": "42400 GRAND RIVER AVE", "postcode": "48375"}}},
{"geometry": {"type": "Point", "coordinates": [-83.4386592991, 42.4434938041]}, "type": "Feature", "properties": {"collection_times": [{"days": "Mon-Fri", "time": "1:00pm"}, {"days": "Sat", "time": "10:00am"}, {"days": "Sun", "time": "Closed"}], "id": "4837500010", "name": "USPS COLLECTION BOX - BLUE BOX", "address": {"city": "NOVI", "state": "MI", "street": "39555 ORCHARD HILL PLACE DR", "postcode": "48375"}}},
{"geometry": {"type": "Point", "coordinates": [-83.4366541837, 42.4446743971]}, "type": "Feature", "properties": {"collection_times": [{"days": "Mon-Fri", "time": "1:00pm"}, {"days": "Sat", "time": "10:00am"}, {"days": "Sun", "time": "Closed"}], "id": "4837500011", "name": "USPS COLLECTION BOX - BLUE BOX", "address": {"city": "NOVI", "state": "MI", "street": "39500 ORCHARD HILL PLACE DR", "postcode": "48375"}}},
{"geometry": {"type": "Point", "coordinates": [-83.4611870837, 42.4637207512]}, "type": "Feature", "properties": {"collection_times": [{"days": "Mon-Fri", "time": "1:00pm"}, {"days": "Sat", "time": "10:00am"}, {"days": "Sun", "time": "Closed"}], "id": "4837500012", "name": "USPS COLLECTION BOX - BLUE BOX", "address": {"city": "NOVI", "state": "MI", "street": "41638 W 10 MILE RD", "postcode": "48375"}}},
{"geometry": {"type": "Point", "coordinates": [-83.4420046449, 42.4526060893]}, "type": "Feature", "properties": {"collection_times": [{"days": "Mon-Sat", "time": "10:00am"}, {"days": "Sun", "time": "Closed"}], "id": "4837500014", "name": "USPS COLLECTION BOX - BLUE BOX", "address": {"city": "NOVI", "state": "MI", "street": "22351 PEACHTREE", "postcode": "48375"}}},
{"geometry": {"type": "Point", "coordinates": [-83.4401794014, 42.4600942672]}, "type": "Feature", "properties": {"collection_times": [{"days": "Mon-Sat", "time": "10:00am"}, {"days": "Sun", "time": "Closed"}], "id": "4837500015", "name": "USPS COLLECTION BOX - BLUE BOX", "address": {"city": "NOVI", "state": "MI", "street": "23244 CRANBROOKE DR", "postcode": "48375"}}},
{"geometry": {"type": "Point", "coordinates": [-83.4678180546, 42.4537642538]}, "type": "Feature", "properties": {"collection_times": [{"days": "Mon-Fri", "time": "1:00pm"}, {"days": "Sat", "time": "10:00am"}, {"days": "Sun", "time": "Closed"}], "id": "4837500016", "name": "USPS COLLECTION BOX - BLUE BOX", "address": {"city": "NOVI", "state": "MI", "street": "22500 HESLIP DR", "postcode": "48375"}}},
{"geometry": {"type": "Point", "coordinates": [-83.4870849073, 42.4662361902]}, "type": "Feature", "properties": {"collection_times": [{"days": "Mon-Sat", "time": "10:00am"}, {"days": "Sun", "time": "Closed"}], "id": "4837500017", "name": "USPS COLLECTION BOX - BLUE BOX", "address": {"city": "NOVI", "state": "MI", "street": "45175 W 10 MILE RD", "postcode": "48375"}}},
{"geometry": {"type": "Point", "coordinates": [-83.4362555765, 42.463767718]}, "type": "Feature", "properties": {"collection_times": [{"days": "Mon-Sat", "time": "10:00am"}, {"days": "Sun", "time": "Closed"}], "id": "4837500024", "name": "USPS COLLECTION BOX - BLUE BOX", "address": {"city": "NOVI", "state": "MI", "street": "23571 MEETING HALL LN", "postcode": "48375"}}},
{"geometry": {"type": "Point", "coordinates": [-83.4738949783, 42.4508463515]}, "type": "Feature", "properties": {"collection_times": [{"days": "Mon-Sat", "time": "10:00am"}, {"days": "Sun", "time": "Closed"}], "id": "4837500025", "name": "USPS COLLECTION BOX - BLUE BOX", "address": {"city": "NOVI", "state": "MI", "street": "22264 NOVI RD", "postcode": "48375"}}},
{"geometry": {"type": "Point", "coordinates": [-83.4556365573, 42.4800371526]}, "type": "Feature", "properties": {"collection_times": [{"days": "Mon-Fri", "time": "1:00pm"}, {"days": "Sat", "time": "10:00am"}, {"days": "Sun", "time": "Closed"}], "id": "4837500026", "name": "USPS COLLECTION BOX - BLUE BOX", "address": {"city": "NOVI", "state": "MI", "street": "25484 MEADOWBROOK RD", "postcode": "48375"}}},
{"geometry": {"type": "Point", "coordinates": [-83.441111573, 42.4730772419]}, "type": "Feature", "properties": {"collection_times": [{"days": "Mon-Sat", "time": "10:00am"}, {"days": "Sun", "time": "Closed"}], "id": "4837500032", "name": "USPS COLLECTION BOX - BLUE BOX", "address": {"city": "NOVI", "state": "MI", "street": "40000 GRAND RIVER AVE", "postcode": "48375"}}},
{"geometry": {"type": "Point", "coordinates": [-83.43694693, 42.448970542]}, "type": "Feature", "properties": {"collection_times": [{"days": "Mon-Fri", "time": "1:00pm"}, {"days": "Sat", "time": "10:00am"}, {"days": "Sun", "time": "Closed"}], "id": "4837500034", "name": "USPS COLLECTION BOX - BLUE BOX", "address": {"city": "NOVI", "state": "MI", "street": "40000 HIGH POINTE BLVD", "postcode": "48375"}}},
{"geometry": {"type": "Point", "coordinates": [-83.4752227266, 42.4739224319]}, "type": "Feature", "properties": {"collection_times": [{"days": "Mon-Fri", "time": "5:00pm"}, {"days": "Sat", "time": "2:45pm"}, {"days": "Sun", "time": "Closed"}], "id": "4837600002", "name": "USPS COLLECTION BOX - APC", "address": {"city": "NOVI", "state": "MI", "street": "24875 NOVI RD", "postcode": "48376"}}},
{"geometry": {"type": "Point", "coordinates": [-83.4752227266, 42.4739224319]}, "type": "Feature", "properties": {"collection_times": [{"days": "Mon-Fri", "time": "5:00pm"}, {"days": "Sat", "time": "2:45pm"}, {"days": "Sun", "time": "Closed"}], "id": "4837600003", "name": "USPS COLLECTION BOX - PO LOBBY", "address": {"city": "NOVI", "state": "MI", "street": "24875 NOVI RD", "postcode": "48376"}}},
{"geometry": {"type": "Point", "coordinates": [-83.4752227266, 42.4739224319]}, "type": "Feature", "properties": {"collection_times": [{"days": "Mon-Fri", "time": "5:00pm"}, {"days": "Sat", "time": "2:45pm"}, {"days": "Sun", "time": "Closed"}], "id": "4837600004", "name": "USPS COLLECTION BOX - BLUE BOX", "address": {"city": "NOVI", "state": "MI", "street": "24875 NOVI RD", "postcode": "48376"}}},
{"geometry": {"type": "Point", "coordinates": [-83.4752227266, 42.4739224319]}, "type": "Feature", "properties": {"collection_times": [{"days": "Mon-Fri", "time": "5:00pm"}, {"days": "Sat", "time": "2:45pm"}, {"days": "Sun", "time": "Closed"}], "id": "4837600005", "name": "USPS COLLECTION BOX - PO LOBBY", "address": {"city": "NOVI", "state": "MI", "street": "24875 NOVI RD", "postcode": "48376"}}},
{"geometry": {"type": "Point", "coordinates": [-83.4761058651, 42.492618541]}, "type": "Feature", "properties": {"collection_times": [{"days": "Mon-Fri", "time": "11:00am"}, {"days": "Sat", "time": "10:00am"}, {"days": "Sun", "time": "Closed"}], "id": "4837700004", "name": "USPS COLLECTION BOX - BLUE BOX", "address": {"city": "NOVI", "state": "MI", "street": "27780 NOVI RD", "postcode": "48377"}}},
{"geometry": {"type": "Point", "coordinates": [-83.4760064966, 42.4897415848]}, "type": "Feature", "properties": {"collection_times": [{"days": "Mon-Fri", "time": "11:00am"}, {"days": "Sat", "time": "10:00am"}, {"days": "Sun", "time": "Closed"}], "id": "4837700009", "name": "USPS COLLECTION BOX - BLUE BOX", "address": {"city": "NOVI", "state": "MI", "street": "27550 NOVI RD", "postcode": "48377"}}},
{"geometry": {"type": "Point", "coordinates": [-83.4760064966, 42.4897415848]}, "type": "Feature", "properties": {"collection_times": [{"days": "Mon-Fri", "time": "11:00am"}, {"days": "Sat", "time": "10:00am"}, {"days": "Sun", "time": "Closed"}], "id": "4837700010", "name": "USPS COLLECTION BOX - BLUE BOX", "address": {"city": "NOVI", "state": "MI", "street": "27150 NOVI RD", "postcode": "48377"}}},
{"geometry": {"type": "Point", "coordinates": [-83.4760064966, 42.4897415848]}, "type": "Feature", "properties": {"collection_times": [{"days": "Mon-Fri", "time": "11:00am"}, {"days": "Sat", "time": "10:00am"}, {"days": "Sun", "time": "Closed"}], "id": "4837700011", "name": "USPS COLLECTION BOX - BLUE BOX", "address": {"city": "NOVI", "state": "MI", "street": "27600 NOVI RD", "postcode": "48377"}}},
{"geometry": {"type": "Point", "coordinates": [-83.4562473372, 42.5253407109]}, "type": "Feature", "properties": {"collection_times": [{"days": "Mon-Sat", "time": "10:00am"}, {"days": "Sun", "time": "Closed"}], "id": "4837700013", "name": "USPS COLLECTION BOX - BLUE BOX", "address": {"city": "NOVI", "state": "MI", "street": "31063 COLUMBIA DR", "postcode": "48377"}}},
{"geometry": {"type": "Point", "coordinates": [-83.5173591931, 42.5205931546]}, "type": "Feature", "properties": {"collection_times": [{"days": "Mon-Sat", "time": "10:00am"}, {"days": "Sun", "time": "Closed"}], "id": "4837700015", "name": "USPS COLLECTION BOX - BLUE BOX", "address": {"city": "NOVI", "state": "MI", "street": "30560 BECK RD", "postcode": "48377"}}},
{"geometry": {"type": "Point", "coordinates": [-83.4364842878, 42.4878959621]}, "type": "Feature", "properties": {"collection_times": [{"days": "Mon-Sat", "time": "10:00am"}, {"days": "Sun", "time": "Closed"}], "id": "4837700017", "name": "USPS COLLECTION BOX - BLUE BOX", "address": {"city": "NOVI", "state": "MI", "street": "26892 GORNADA ST", "postcode": "48377"}}},
{"geometry": {"type": "Point", "coordinates": [-83.4672665052, 42.5198520511]}, "type": "Feature", "properties": {"collection_times": [{"days": "Mon-Sat", "time": "10:00am"}, {"days": "Sun", "time": "Closed"}], "id": "4837700018", "name": "USPS COLLECTION BOX - BLUE BOX", "address": {"city": "NOVI", "state": "MI", "street": "41999 ARROWHEAD DR", "postcode": "48377"}}},
{"geometry": {"type": "Point", "coordinates": [-83.4670265706, 42.5254239147]}, "type": "Feature", "properties": {"collection_times": [{"days": "Mon-Sat", "time": "10:00am"}, {"days": "Sun", "time": "Closed"}], "id": "4837700019", "name": "USPS COLLECTION BOX - BLUE BOX", "address": {"city": "NOVI", "state": "MI", "street": "31194 NOVI RD", "postcode": "48377"}}},
{"geometry": {"type": "Point", "coordinates": [-83.4665769757, 42.5121386878]}, "type": "Feature", "properties": {"collection_times": [{"days": "Mon-Sat", "time": "10:00am"}, {"days": "Sun", "time": "Closed"}], "id": "4837700020", "name": "USPS COLLECTION BOX - BLUE BOX", "address": {"city": "NOVI", "state": "MI", "street": "29793 WARWICK CT", "postcode": "48377"}}},
{"geometry": {"type": "Point", "coordinates": [-83.5103651933, 42.5245037779]}, "type": "Feature", "properties": {"collection_times": [{"days": "Mon-Sat", "time": "10:00am"}, {"days": "Sun", "time": "Closed"}], "id": "4837700021", "name": "USPS COLLECTION BOX - BLUE BOX", "address": {"city": "NOVI", "state": "MI", "street": "31200 WELLINGTON DR", "postcode": "48377"}}},
{"geometry": {"type": "Point", "coordinates": [-83.443405749, 42.5063145546]}, "type": "Feature", "properties": {"collection_times": [{"days": "Mon-Fri", "time": "11:00am"}, {"days": "Sat", "time": "10:00am"}, {"days": "Sun", "time": "Closed"}], "id": "4837700022", "name": "USPS COLLECTION BOX - BLUE BOX", "address": {"city": "NOVI", "state": "MI", "street": "28850 CABOT DR", "postcode": "48377"}}},
{"geometry": {"type": "Point", "coordinates": [-83.4364578125, 42.5020348944]}, "type": "Feature", "properties": {"collection_times": [{"days": "Mon-Fri", "time": "11:00am"}, {"days": "Sat", "time": "10:00am"}, {"days": "Sun", "time": "Closed"}], "id": "4837700024", "name": "USPS COLLECTION BOX - BLUE BOX", "address": {"city": "NOVI", "state": "MI", "street": "28455 HAGGERTY RD", "postcode": "48377"}}},
{"geometry": {"type": "Point", "coordinates": [-83.4400278987, 42.5114431184]}, "type": "Feature", "properties": {"collection_times": [{"days": "Mon-Fri", "time": "11:00am"}, {"days": "Sat", "time": "10:00am"}, {"days": "Sun", "time": "Closed"}], "id": "4837700025", "name": "USPS COLLECTION BOX - BLUE BOX", "address": {"city": "NOVI", "state": "MI", "street": "39550 W 13 MILE RD", "postcode": "48377"}}},
{"geometry": {"type": "Point", "coordinates": [-83.5875618929, 42.5879650336]}, "type": "Feature", "properties": {"collection_times": [{"days": "Mon-Fri", "time": "5:00pm"}, {"days": "Sat", "time": "3:00pm"}, {"days": "Sun", "time": "Closed"}], "id": "4838100003", "name": "USPS COLLECTION BOX - BLUE BOX", "address": {"city": "MILFORD", "state": "MI", "street": "1150 ATLANTIC ST", "postcode": "48381"}}},
{"geometry": {"type": "Point", "coordinates": [-83.5904021091, 42.5952946179]}, "type": "Feature", "properties": {"collection_times": [{"days": "Mon-Sat", "time": "12:45pm"}, {"days": "Sun", "time": "Closed"}], "id": "4838100004", "name": "USPS COLLECTION BOX - BLUE BOX", "address": {"city": "MILFORD", "state": "MI", "street": "965 E SUMMIT ST", "postcode": "48381"}}},
{"geometry": {"type": "Point", "coordinates": [-83.6057117238, 42.594271989]}, "type": "Feature", "properties": {"collection_times": [{"days": "Mon-Sat", "time": "12:45pm"}, {"days": "Sun", "time": "Closed"}], "id": "4838100005", "name": "USPS COLLECTION BOX - BLUE BOX", "address": {"city": "MILFORD", "state": "MI", "street": "660 HIGHLAND AVE", "postcode": "48381"}}},
{"geometry": {"type": "Point", "coordinates": [-83.6057117238, 42.594271989]}, "type": "Feature", "properties": {"collection_times": [{"days": "Mon-Sat", "time": "12:45pm"}, {"days": "Sun", "time": "Closed"}], "id": "4838100006", "name": "USPS COLLECTION BOX - BLUE BOX", "address": {"city": "MILFORD", "state": "MI", "street": "660 HIGHLAND AVE", "postcode": "48381"}}},
{"geometry": {"type": "Point", "coordinates": [-83.6002775188, 42.5905308716]}, "type": "Feature", "properties": {"collection_times": [{"days": "Mon-Sat", "time": "12:45pm"}, {"days": "Sun", "time": "Closed"}], "id": "4838100008", "name": "USPS COLLECTION BOX - BLUE BOX", "address": {"city": "MILFORD", "state": "MI", "street": "344 N MAIN ST", "postcode": "48381"}}},
{"geometry": {"type": "Point", "coordinates": [-83.5875618929, 42.5879650336]}, "type": "Feature", "properties": {"collection_times": [{"days": "Mon-Fri", "time": "5:00pm"}, {"days": "Sat", "time": "3:00pm"}, {"days": "Sun", "time": "Closed"}], "id": "4838100012", "name": "USPS COLLECTION BOX - BLUE BOX", "address": {"city": "MILFORD", "state": "MI", "street": "1150 ATLANTIC ST", "postcode": "48381"}}},
{"geometry": {"type": "Point", "coordinates": [-83.5875618929, 42.5879650336]}, "type": "Feature", "properties": {"collection_times": [{"days": "Mon-Fri", "time": "5:00pm"}, {"days": "Sat", "time": "3:00pm"}, {"days": "Sun", "time": "Closed"}], "id": "4838100013", "name": "USPS COLLECTION BOX - BLUE BOX", "address": {"city": "MILFORD", "state": "MI", "street": "1150 ATLANTIC ST", "postcode": "48381"}}},
{"geometry": {"type": "Point", "coordinates": [-83.6183376583, 42.5594004832]}, "type": "Feature", "properties": {"collection_times": [{"days": "Mon-Sat", "time": "11:00am"}, {"days": "Sun", "time": "Closed"}], "id": "4838100026", "name": "USPS COLLECTION BOX - BLUE BOX", "address": {"city": "MILFORD", "state": "MI", "street": "2055 S MILFORD RD", "postcode": "48381"}}},
{"geometry": {"type": "Point", "coordinates": [-83.5875618929, 42.5879650336]}, "type": "Feature", "properties": {"collection_times": [{"days": "Mon-Fri", "time": "5:00pm"}, {"days": "Sat", "time": "3:00pm"}, {"days": "Sun", "time": "Closed"}], "id": "4838100030", "name": "USPS COLLECTION BOX - PO LOBBY", "address": {"city": "MILFORD", "state": "MI", "street": "1150 ATLANTIC ST", "postcode": "48381"}}},
{"geometry": {"type": "Point", "coordinates": [-83.5875618929, 42.5879650336]}, "type": "Feature", "properties": {"collection_times": [{"days": "Mon-Fri", "time": "5:00pm"}, {"days": "Sat", "time": "3:00pm"}, {"days": "Sun", "time": "Closed"}], "id": "4838100031", "name": "USPS COLLECTION BOX - PO LOBBY", "address": {"city": "MILFORD", "state": "MI", "street": "1150 ATLANTIC ST", "postcode": "48381"}}},
{"geometry": {"type": "Point", "coordinates": [-83.5875618929, 42.5879650336]}, "type": "Feature", "properties": {"collection_times": [{"days": "Mon-Fri", "time": "5:00pm"}, {"days": "Sat", "time": "3:00pm"}, {"days": "Sun", "time": "Closed"}], "id": "4838100032", "name": "USPS COLLECTION BOX - PO LOBBY", "address": {"city": "MILFORD", "state": "MI", "street": "1150 ATLANTIC ST", "postcode": "48381"}}},
{"geometry": {"type": "Point", "coordinates": [-83.4813218781, 42.591360418]}, "type": "Feature", "properties": {"collection_times": [{"days": "Mon-Sat", "time": "10:00am"}, {"days": "Sun", "time": "Closed"}], "id": "4838200000", "name": "USPS COLLECTION BOX - BLUE BOX", "address": {"city": "COMMERCE TWP", "state": "MI", "street": "110 W COMMERCE RD", "postcode": "48382"}}},
{"geometry": {"type": "Point", "coordinates": [-83.4460646222, 42.5944287214]}, "type": "Feature", "properties": {"collection_times": [{"days": "Mon-Sat", "time": "10:00am"}, {"days": "Sun", "time": "Closed"}], "id": "4838200001", "name": "USPS COLLECTION BOX - BLUE BOX", "address": {"city": "COMMERCE TWP", "state": "MI", "street": "2801 UNION LAKE RD", "postcode": "48382"}}},
{"geometry": {"type": "Point", "coordinates": [-83.4460646222, 42.5944287214]}, "type": "Feature", "properties": {"collection_times": [{"days": "Mon-Sat", "time": "10:00am"}, {"days": "Sun", "time": "Closed"}], "id": "4838200002", "name": "USPS COLLECTION BOX - BLUE BOX", "address": {"city": "COMMERCE TWP", "state": "MI", "street": "2801 UNION LAKE RD", "postcode": "48382"}}},
{"geometry": {"type": "Point", "coordinates": [-83.445927399, 42.5918404072]}, "type": "Feature", "properties": {"collection_times": [{"days": "Mon-Sat", "time": "10:00am"}, {"days": "Sun", "time": "Closed"}], "id": "4838200007", "name": "USPS COLLECTION BOX - BLUE BOX", "address": {"city": "COMMERCE TWP", "state": "MI", "street": "3010 UNION LAKE RD", "postcode": "48382"}}},
{"geometry": {"type": "Point", "coordinates": [-83.4433379018, 42.6440254586]}, "type": "Feature", "properties": {"collection_times": [{"days": "Mon-Sat", "time": "3:30pm"}, {"days": "Sun", "time": "Closed"}], "id": "4838600001", "name": "USPS COLLECTION BOX - BLUE BOX", "address": {"city": "WHITE LAKE", "state": "MI", "street": "1 N WILLIAMS LAKE RD", "postcode": "48386"}}},
{"geometry": {"type": "Point", "coordinates": [-83.4752786273, 42.656111469]}, "type": "Feature", "properties": {"collection_times": [{"days": "Mon-Sat", "time": "3:30pm"}, {"days": "Sun", "time": "Closed"}], "id": "4838600005", "name": "USPS COLLECTION BOX - BLUE BOX", "address": {"city": "WHITE LAKE", "state": "MI", "street": "9620 HIGHLAND RD", "postcode": "48386"}}},
{"geometry": {"type": "Point", "coordinates": [-83.501333648, 42.6494599724]}, "type": "Feature", "properties": {"collection_times": [{"days": "Mon-Sat", "time": "3:30pm"}, {"days": "Sun", "time": "Closed"}], "id": "4838600006", "name": "USPS COLLECTION BOX - BLUE BOX", "address": {"city": "WHITE LAKE", "state": "MI", "street": "10805 HIGHLAND RD", "postcode": "48386"}}},
{"geometry": {"type": "Point", "coordinates": [-83.4334963551, 42.6152422926]}, "type": "Feature", "properties": {"collection_times": [{"days": "Mon-Fri", "time": "5:15pm"}, {"days": "Sat", "time": "2:15pm"}, {"days": "Sun", "time": "Closed"}], "id": "4838700001", "name": "USPS COLLECTION BOX - BLUE BOX", "address": {"city": "UNION LAKE", "state": "MI", "street": "7650 COOLEY LAKE RD", "postcode": "48387"}}},
{"geometry": {"type": "Point", "coordinates": [-83.4334963551, 42.6152422926]}, "type": "Feature", "properties": {"collection_times": [{"days": "Mon-Fri", "time": "5:15pm"}, {"days": "Sat", "time": "2:15pm"}, {"days": "Sun", "time": "Closed"}], "id": "4838700002", "name": "USPS COLLECTION BOX - BLUE BOX", "address": {"city": "UNION LAKE", "state": "MI", "street": "7650 COOLEY LAKE RD", "postcode": "48387"}}},
{"geometry": {"type": "Point", "coordinates": [-83.4334963551, 42.6152422926]}, "type": "Feature", "properties": {"collection_times": [{"days": "Mon-Fri", "time": "5:30pm"}, {"days": "Sat", "time": "2:00pm"}, {"days": "Sun", "time": "Closed"}], "id": "4838700005", "name": "USPS COLLECTION BOX - PO LOBBY", "address": {"city": "UNION LAKE", "state": "MI", "street": "7650 COOLEY LAKE RD", "postcode": "48387"}}},
{"geometry": {"type": "Point", "coordinates": [-83.4334963551, 42.6152422926]}, "type": "Feature", "properties": {"collection_times": [{"days": "Mon-Fri", "time": "5:30pm"}, {"days": "Sat", "time": "2:00pm"}, {"days": "Sun", "time": "Closed"}], "id": "4838700006", "name": "USPS COLLECTION BOX - PO LOBBY", "address": {"city": "UNION LAKE", "state": "MI", "street": "7650 COOLEY LAKE RD", "postcode": "48387"}}},
{"geometry": {"type": "Point", "coordinates": [-83.4334963551, 42.6152422926]}, "type": "Feature", "properties": {"collection_times": [{"days": "Mon-Fri", "time": "5:30pm"}, {"days": "Sat", "time": "2:00pm"}, {"days": "Sun", "time": "Closed"}], "id": "4838700007", "name": "USPS COLLECTION BOX - APC", "address": {"city": "UNION LAKE", "state": "MI", "street": "7650 COOLEY LAKE RD", "postcode": "48387"}}},
{"geometry": {"type": "Point", "coordinates": [-83.4595764586, 42.5504947776]}, "type": "Feature", "properties": {"collection_times": [{"days": "Mon-Sat", "time": "10:00am"}, {"days": "Sun", "time": "Closed"}], "id": "4839000001", "name": "USPS COLLECTION BOX - BLUE BOX", "address": {"city": "COMMERCE TWP", "state": "MI", "street": "2163 N PONTIAC TRL", "postcode": "48390"}}},
{"geometry": {"type": "Point", "coordinates": [-83.4795237139, 42.5407726071]}, "type": "Feature", "properties": {"collection_times": [{"days": "Mon-Fri", "time": "5:00pm"}, {"days": "Sat", "time": "3:30pm"}, {"days": "Sun", "time": "Closed"}], "id": "4839000006", "name": "USPS COLLECTION BOX - BLUE BOX", "address": {"city": "COMMERCE TWP", "state": "MI", "street": "995 N PONTIAC TRL", "postcode": "48390"}}},
{"geometry": {"type": "Point", "coordinates": [-83.4795237139, 42.5407726071]}, "type": "Feature", "properties": {"collection_times": [{"days": "Mon-Fri", "time": "5:00pm"}, {"days": "Sat", "time": "3:30pm"}, {"days": "Sun", "time": "Closed"}], "id": "4839000007", "name": "USPS COLLECTION BOX - BLUE BOX", "address": {"city": "COMMERCE TWP", "state": "MI", "street": "995 N PONTIAC TRL", "postcode": "48390"}}},
{"geometry": {"type": "Point", "coordinates": [-83.4795237139, 42.5407726071]}, "type": "Feature", "properties": {"collection_times": [{"days": "Mon-Fri", "time": "5:00pm"}, {"days": "Sat", "time": "3:30pm"}, {"days": "Sun", "time": "Closed"}], "id": "4839000008", "name": "USPS COLLECTION BOX - BLUE BOX", "address": {"city": "COMMERCE TWP", "state": "MI", "street": "995 N PONTIAC TRL", "postcode": "48390"}}},
{"geometry": {"type": "Point", "coordinates": [-83.4407056526, 42.5270933053]}, "type": "Feature", "properties": {"collection_times": [{"days": "Mon-Sat", "time": "10:00am"}, {"days": "Sun", "time": "Closed"}], "id": "4839000013", "name": "USPS COLLECTION BOX - BLUE BOX", "address": {"city": "COMMERCE TWP", "state": "MI", "street": "39900 W 14 MILE RD", "postcode": "48390"}}},
{"geometry": {"type": "Point", "coordinates": [-83.4605711103, 42.5408327549]}, "type": "Feature", "properties": {"collection_times": [{"days": "Mon-Fri", "time": "10:00am"}, {"days": "Sat-Sun", "time": "Closed"}], "id": "4839000014", "name": "USPS COLLECTION BOX - BLUE BOX", "address": {"city": "COMMERCE TWP", "state": "MI", "street": "2085 E WEST MAPLE RD", "postcode": "48390"}}},
{"geometry": {"type": "Point", "coordinates": [-83.4685491967, 42.5265784216]}, "type": "Feature", "properties": {"collection_times": [{"days": "Mon-Sat", "time": "10:00am"}, {"days": "Sun", "time": "Closed"}], "id": "4839000015", "name": "USPS COLLECTION BOX - BLUE BOX", "address": {"city": "COMMERCE TWP", "state": "MI", "street": "125 LAKE VILLAGE DR", "postcode": "48390"}}},
{"geometry": {"type": "Point", "coordinates": [-83.4599253524, 42.5309842662]}, "type": "Feature", "properties": {"collection_times": [{"days": "Mon-Sat", "time": "10:00am"}, {"days": "Sun", "time": "Closed"}], "id": "4839000016", "name": "USPS COLLECTION BOX - BLUE BOX", "address": {"city": "COMMERCE TWP", "state": "MI", "street": "2152 OAKBROOK BLVD", "postcode": "48390"}}},
{"geometry": {"type": "Point", "coordinates": [-83.4795237139, 42.5407726071]}, "type": "Feature", "properties": {"collection_times": [{"days": "Mon-Fri", "time": "5:00pm"}, {"days": "Sat", "time": "4:00pm"}, {"days": "Sun", "time": "Closed"}], "id": "4839000020", "name": "USPS COLLECTION BOX - PO LOBBY", "address": {"city": "COMMERCE TWP", "state": "MI", "street": "995 N PONTIAC TRL", "postcode": "48390"}}},
{"geometry": {"type": "Point", "coordinates": [-83.5151648039, 42.5249902132]}, "type": "Feature", "properties": {"collection_times": [{"days": "Mon-Sat", "time": "11:00am"}, {"days": "Sun", "time": "Closed"}], "id": "4839000021", "name": "USPS COLLECTION BOX - BLUE BOX", "address": {"city": "COMMERCE TWP", "state": "MI", "street": "47060 W PONTIAC TRL", "postcode": "48390"}}},
{"geometry": {"type": "Point", "coordinates": [-83.4795237139, 42.5407726071]}, "type": "Feature", "properties": {"collection_times": [{"days": "Mon-Fri", "time": "5:00pm"}, {"days": "Sat", "time": "4:00pm"}, {"days": "Sun", "time": "Closed"}], "id": "4839000022", "name": "USPS COLLECTION BOX - APC", "address": {"city": "COMMERCE TWP", "state": "MI", "street": "995 N PONTIAC TRL", "postcode": "48390"}}},
{"geometry": {"type": "Point", "coordinates": [-83.4386464428, 42.545494155]}, "type": "Feature", "properties": {"collection_times": [{"days": "Mon-Sat", "time": "10:00am"}, {"days": "Sun", "time": "Closed"}], "id": "4839000023", "name": "USPS COLLECTION BOX - BLUE BOX", "address": {"city": "COMMERCE TWP", "state": "MI", "street": "1703 HAGGERTY HWY", "postcode": "48390"}}},
{"geometry": {"type": "Point", "coordinates": [-83.5460701295, 42.4955060603]}, "type": "Feature", "properties": {"collection_times": [{"days": "Mon-Sat", "time": "10:00am"}, {"days": "Sun", "time": "Closed"}], "id": "4839300001", "name": "USPS COLLECTION BOX - BLUE BOX", "address": {"city": "WIXOM", "state": "MI", "street": "50200 HELFER BLVD", "postcode": "48393"}}},
{"geometry": {"type": "Point", "coordinates": [-83.5400081255, 42.556673403]}, "type": "Feature", "properties": {"collection_times": [{"days": "Mon-Sat", "time": "10:00am"}, {"days": "Sun", "time": "Closed"}], "id": "4839300003", "name": "USPS COLLECTION BOX - BLUE BOX", "address": {"city": "WIXOM", "state": "MI", "street": "3333 STRATFORD VILLA WAY", "postcode": "48393"}}},
{"geometry": {"type": "Point", "coordinates": [-83.5469930194, 42.5593783567]}, "type": "Feature", "properties": {"collection_times": [{"days": "Mon-Sat", "time": "10:00am"}, {"days": "Sun", "time": "Closed"}], "id": "4839300007", "name": "USPS COLLECTION BOX - BLUE BOX", "address": {"city": "WIXOM", "state": "MI", "street": "2400 MEADOWS CIR", "postcode": "48393"}}},
{"geometry": {"type": "Point", "coordinates": [-83.5467882619, 42.4977236632]}, "type": "Feature", "properties": {"collection_times": [{"days": "Mon-Sat", "time": "9:30am"}, {"days": "Sun", "time": "Closed"}], "id": "4839300009", "name": "USPS COLLECTION BOX - BLUE BOX", "address": {"city": "WIXOM", "state": "MI", "street": "28023 CENTER OAKS CT", "postcode": "48393"}}},
{"geometry": {"type": "Point", "coordinates": [-83.5331769259, 42.5243589114]}, "type": "Feature", "properties": {"collection_times": [{"days": "Mon-Sat", "time": "9:15am"}, {"days": "Sun", "time": "Closed"}], "id": "4839300010", "name": "USPS COLLECTION BOX - BLUE BOX", "address": {"city": "WIXOM", "state": "MI", "street": "49045 PONTIAC TRL", "postcode": "48393"}}},
{"geometry": {"type": "Point", "coordinates": [-83.5160898782, 42.5020585535]}, "type": "Feature", "properties": {"collection_times": [{"days": "Mon-Sat", "time": "9:30am"}, {"days": "Sun", "time": "Closed"}], "id": "4839300012", "name": "USPS COLLECTION BOX - BLUE BOX", "address": {"city": "WIXOM", "state": "MI", "street": "28700 BECK RD", "postcode": "48393"}}},
{"geometry": {"type": "Point", "coordinates": [-83.537596275, 42.521944623]}, "type": "Feature", "properties": {"collection_times": [{"days": "Mon-Sat", "time": "10:00am"}, {"days": "Sun", "time": "Closed"}], "id": "4839300014", "name": "USPS COLLECTION BOX - BLUE BOX", "address": {"city": "WIXOM", "state": "MI", "street": "31100 S WIXOM RD", "postcode": "48393"}}},
{"geometry": {"type": "Point", "coordinates": [-83.5475682448, 42.4942244065]}, "type": "Feature", "properties": {"collection_times": [{"days": "Mon-Sat", "time": "10:00am"}, {"days": "Sun", "time": "Closed"}], "id": "4839300015", "name": "USPS COLLECTION BOX - BLUE BOX", "address": {"city": "WIXOM", "state": "MI", "street": "27059 MEADOWOOD DR", "postcode": "48393"}}},
{"geometry": {"type": "Point", "coordinates": [-83.5297897259, 42.5245229443]}, "type": "Feature", "properties": {"collection_times": [{"days": "Mon-Fri", "time": "5:00pm"}, {"days": "Sat", "time": "2:00pm"}, {"days": "Sun", "time": "Closed"}], "id": "4839300016", "name": "USPS COLLECTION BOX - BLUE BOX", "address": {"city": "WIXOM", "state": "MI", "street": "48660 PONTIAC TRL", "postcode": "48393"}}},
{"geometry": {"type": "Point", "coordinates": [-83.5313636755, 42.4996710327]}, "type": "Feature", "properties": {"collection_times": [{"days": "Mon-Sat", "time": "10:00am"}, {"days": "Sun", "time": "Closed"}], "id": "4839300018", "name": "USPS COLLECTION BOX - BLUE BOX", "address": {"city": "WIXOM", "state": "MI", "street": "48797 ALPHA DR", "postcode": "48393"}}},
{"geometry": {"type": "Point", "coordinates": [-83.5297897259, 42.5245229443]}, "type": "Feature", "properties": {"collection_times": [{"days": "Mon-Fri", "time": "5:00pm"}, {"days": "Sat", "time": "2:00pm"}, {"days": "Sun", "time": "Closed"}], "id": "4839300019", "name": "USPS COLLECTION BOX - BLUE BOX", "address": {"city": "WIXOM", "state": "MI", "street": "48660 PONTIAC TRL", "postcode": "48393"}}},
{"geometry": {"type": "Point", "coordinates": [-83.5297897259, 42.5245229443]}, "type": "Feature", "properties": {"collection_times": [{"days": "Mon-Fri", "time": "5:00pm"}, {"days": "Sat", "time": "2:00pm"}, {"days": "Sun", "time": "Closed"}], "id": "4839300021", "name": "USPS COLLECTION BOX - PO LOBBY", "address": {"city": "WIXOM", "state": "MI", "street": "48660 PONTIAC TRL", "postcode": "48393"}}},
{"geometry": {"type": "Point", "coordinates": [-83.5297897259, 42.5245229443]}, "type": "Feature", "properties": {"collection_times": [{"days": "Mon-Fri", "time": "5:00pm"}, {"days": "Sat", "time": "2:00pm"}, {"days": "Sun", "time": "Closed"}], "id": "4839300022", "name": "USPS COLLECTION BOX - PO LOBBY", "address": {"city": "WIXOM", "state": "MI", "street": "48660 PONTIAC TRL", "postcode": "48393"}}},
{"geometry": {"type": "Point", "coordinates": [-83.51606334, 42.5003870194]}, "type": "Feature", "properties": {"collection_times": [{"days": "Mon-Sat", "time": "11:00am"}, {"days": "Sun", "time": "Closed"}], "id": "4839300025", "name": "USPS COLLECTION BOX - BLUE BOX", "address": {"city": "WIXOM", "state": "MI", "street": "28345 BECK RD", "postcode": "48393"}}}
]}
