{"type": "FeatureCollection", "features": [
{"geometry": {"type": "Point", "coordinates": [-82.6370449669, 43.3562780169]}, "type": "Feature", "properties": {"collection_times": [{"days": "Mon-Fri", "time": "3:45pm"}, {"days": "Sat", "time": "11:15am"}, {"days": "Sun", "time": "Closed"}], "id": "4840100000", "name": "USPS COLLECTION BOX - BLUE BOX", "address": {"city": "APPLEGATE", "state": "MI", "street": "2469 S SHERMAN RD", "postcode": "48401"}}},
{"geometry": {"type": "Point", "coordinates": [-82.6370449669, 43.3562780169]}, "type": "Feature", "properties": {"collection_times": [{"days": "Mon-Fri", "time": "3:45pm"}, {"days": "Sat", "time": "11:15am"}, {"days": "Sun", "time": "Closed"}], "id": "4840100001", "name": "USPS COLLECTION BOX - PO LOBBY", "address": {"city": "APPLEGATE", "state": "MI", "street": "2469 S SHERMAN RD", "postcode": "48401"}}},
{"geometry": {"type": "Point", "coordinates": [-82.9359758544, 43.5637414021]}, "type": "Feature", "properties": {"collection_times": [{"days": "Mon-Sat", "time": "10:00am"}, {"days": "Sun", "time": "Closed"}], "id": "4841000003", "name": "USPS COLLECTION BOX - BLUE BOX", "address": {"city": "ARGYLE", "state": "MI", "street": "5009 UBLY RD", "postcode": "48410"}}},
{"geometry": {"type": "Point", "coordinates": [-83.535965944, 42.938355475]}, "type": "Feature", "properties": {"collection_times": [{"days": "Mon-Fri", "time": "4:00pm"}, {"days": "Sat", "time": "11:00am"}, {"days": "Sun", "time": "Closed"}], "id": "4841100001", "name": "USPS COLLECTION BOX - BLUE BOX", "address": {"city": "ATLAS", "state": "MI", "street": "8519 PERRY RD", "postcode": "48411"}}},
{"geometry": {"type": "Point", "coordinates": [-83.535965944, 42.938355475]}, "type": "Feature", "properties": {"collection_times": [{"days": "Mon-Fri", "time": "4:00pm"}, {"days": "Sat", "time": "11:00am"}, {"days": "Sun", "time": "Closed"}], "id": "4841100002", "name": "USPS COLLECTION BOX - PO LOBBY", "address": {"city": "ATLAS", "state": "MI", "street": "8519 PERRY RD", "postcode": "48411"}}},
{"geometry": {"type": "Point", "coordinates": [-83.535965944, 42.938355475]}, "type": "Feature", "properties": {"collection_times": [{"days": "Mon-Fri", "time": "4:00pm"}, {"days": "Sat", "time": "11:00am"}, {"days": "Sun", "time": "Closed"}], "id": "4841100003", "name": "USPS COLLECTION BOX - PO LOBBY", "address": {"city": "ATLAS", "state": "MI", "street": "8519 PERRY RD", "postcode": "48411"}}},
{"geometry": {"type": "Point", "coordinates": [-83.1675201472, 43.0465728582]}, "type": "Feature", "properties": {"collection_times": [{"days": "Mon-Fri", "time": "4:15pm"}, {"days": "Sat", "time": "12:00pm"}, {"days": "Sun", "time": "Closed"}], "id": "4841200004", "name": "USPS COLLECTION BOX - BLUE BOX", "address": {"city": "ATTICA", "state": "MI", "street": "485 N LAKE PLEASANT RD", "postcode": "48412"}}},
{"geometry": {"type": "Point", "coordinates": [-83.1675201472, 43.0465728582]}, "type": "Feature", "properties": {"collection_times": [{"days": "Mon-Fri", "time": "4:15pm"}, {"days": "Sat", "time": "12:00pm"}, {"days": "Sun", "time": "Closed"}], "id": "4841200005", "name": "USPS COLLECTION BOX - PO LOBBY", "address": {"city": "ATTICA", "state": "MI", "street": "485 N LAKE PLEASANT RD", "postcode": "48412"}}},
{"geometry": {"type": "Point", "coordinates": [-82.9985890531, 43.8010319911]}, "type": "Feature", "properties": {"collection_times": [{"days": "Mon-Fri", "time": "1:30pm"}, {"days": "Sat", "time": "12:00pm"}, {"days": "Sun", "time": "Closed"}], "id": "4841300003", "name": "USPS COLLECTION BOX - BLUE BOX", "address": {"city": "BAD AXE", "state": "MI", "street": "220 E SOUTH ST S", "postcode": "48413"}}},
{"geometry": {"type": "Point", "coordinates": [-82.9975409733, 43.8025181813]}, "type": "Feature", "properties": {"collection_times": [{"days": "Mon-Fri", "time": "5:00pm"}, {"days": "Sat", "time": "4:00pm"}, {"days": "Sun", "time": "Closed"}], "id": "4841300004", "name": "USPS COLLECTION BOX - BLUE BOX", "address": {"city": "BAD AXE", "state": "MI", "street": "133 N HANSELMAN ST", "postcode": "48413"}}},
{"geometry": {"type": "Point", "coordinates": [-83.0008990652, 43.8151400514]}, "type": "Feature", "properties": {"collection_times": [{"days": "Mon-Sat", "time": "10:00am"}, {"days": "Sun", "time": "Closed"}], "id": "4841300007", "name": "USPS COLLECTION BOX - BLUE BOX", "address": {"city": "BAD AXE", "state": "MI", "street": "721 N VAN DYKE RD", "postcode": "48413"}}},
{"geometry": {"type": "Point", "coordinates": [-82.9975409733, 43.8025181813]}, "type": "Feature", "properties": {"collection_times": [{"days": "Mon-Fri", "time": "5:00pm"}, {"days": "Sat", "time": "4:00pm"}, {"days": "Sun", "time": "Closed"}], "id": "4841300012", "name": "USPS COLLECTION BOX - PO LOBBY", "address": {"city": "BAD AXE", "state": "MI", "street": "133 N HANSELMAN ST", "postcode": "48413"}}},
{"geometry": {"type": "Point", "coordinates": [-82.9975409733, 43.8025181813]}, "type": "Feature", "properties": {"collection_times": [{"days": "Mon-Fri", "time": "5:00pm"}, {"days": "Sat", "time": "4:00pm"}, {"days": "Sun", "time": "Closed"}], "id": "4841300013", "name": "USPS COLLECTION BOX - PO LOBBY", "address": {"city": "BAD AXE", "state": "MI", "street": "133 N HANSELMAN ST", "postcode": "48413"}}},
{"geometry": {"type": "Point", "coordinates": [-82.9975409733, 43.8025181813]}, "type": "Feature", "properties": {"collection_times": [{"days": "Mon-Fri", "time": "5:00pm"}, {"days": "Sat", "time": "4:00pm"}, {"days": "Sun", "time": "Closed"}], "id": "4841300014", "name": "USPS COLLECTION BOX - BLUE BOX", "address": {"city": "BAD AXE", "state": "MI", "street": "133 N HANSELMAN ST", "postcode": "48413"}}},
{"geometry": {"type": "Point", "coordinates": [-83.0009354582, 43.8226668473]}, "type": "Feature", "properties": {"collection_times": [{"days": "Mon-Sat", "time": "10:00am"}, {"days": "Sun", "time": "Closed"}], "id": "4841300015", "name": "USPS COLLECTION BOX - BLUE BOX", "address": {"city": "BAD AXE", "state": "MI", "street": "970 N VAN DYKE RD", "postcode": "48413"}}},
{"geometry": {"type": "Point", "coordinates": [-84.0648999313, 42.8759725659]}, "type": "Feature", "properties": {"collection_times": [{"days": "Mon-Fri", "time": "3:00pm"}, {"days": "Sat", "time": "10:30am"}, {"days": "Sun", "time": "Closed"}], "id": "4841400001", "name": "USPS COLLECTION BOX - BLUE BOX", "address": {"city": "BANCROFT", "state": "MI", "street": "130 N MAIN ST", "postcode": "48414"}}},
{"geometry": {"type": "Point", "coordinates": [-84.0648999313, 42.8759725659]}, "type": "Feature", "properties": {"collection_times": [{"days": "Mon-Fri", "time": "3:00pm"}, {"days": "Sat", "time": "10:30am"}, {"days": "Sun", "time": "Closed"}], "id": "4841400002", "name": "USPS COLLECTION BOX - BLUE BOX", "address": {"city": "BANCROFT", "state": "MI", "street": "130 N MAIN ST", "postcode": "48414"}}},
{"geometry": {"type": "Point", "coordinates": [-84.0648999313, 42.8759725659]}, "type": "Feature", "properties": {"collection_times": [{"days": "Mon-Fri", "time": "3:00pm"}, {"days": "Sat", "time": "10:30am"}, {"days": "Sun", "time": "Closed"}], "id": "4841400003", "name": "USPS COLLECTION BOX - PO LOBBY", "address": {"city": "BANCROFT", "state": "MI", "street": "130 N MAIN ST", "postcode": "48414"}}},
{"geometry": {"type": "Point", "coordinates": [-83.7908161652, 43.2501147679]}, "type": "Feature", "properties": {"collection_times": [{"days": "Mon-Fri", "time": "4:45pm"}, {"days": "Sat", "time": "11:30am"}, {"days": "Sun", "time": "Closed"}], "id": "4841500006", "name": "USPS COLLECTION BOX - BLUE BOX", "address": {"city": "BIRCH RUN", "state": "MI", "street": "8196 MAIN ST", "postcode": "48415"}}},
{"geometry": {"type": "Point", "coordinates": [-83.7908161652, 43.2501147679]}, "type": "Feature", "properties": {"collection_times": [{"days": "Mon-Fri", "time": "4:45pm"}, {"days": "Sat", "time": "11:30am"}, {"days": "Sun", "time": "Closed"}], "id": "4841500007", "name": "USPS COLLECTION BOX - BLUE BOX", "address": {"city": "BIRCH RUN", "state": "MI", "street": "8196 MAIN ST", "postcode": "48415"}}},
{"geometry": {"type": "Point", "coordinates": [-83.7728829789, 43.2502478517]}, "type": "Feature", "properties": {"collection_times": [{"days": "Mon-Sat", "time": "9:30am"}, {"days": "Sun", "time": "Closed"}], "id": "4841500009", "name": "USPS COLLECTION BOX - BLUE BOX", "address": {"city": "BIRCH RUN", "state": "MI", "street": "9515 BIRCH RUN RD", "postcode": "48415"}}},
{"geometry": {"type": "Point", "coordinates": [-83.7747751707, 43.2478906906]}, "type": "Feature", "properties": {"collection_times": [{"days": "Mon-Sat", "time": "10:00am"}, {"days": "Sun", "time": "Closed"}], "id": "4841500010", "name": "USPS COLLECTION BOX - BLUE BOX", "address": {"city": "BIRCH RUN", "state": "MI", "street": "12200 S BEYER RD", "postcode": "48415"}}},
{"geometry": {"type": "Point", "coordinates": [-83.7944257719, 43.2432273565]}, "type": "Feature", "properties": {"collection_times": [{"days": "Mon-Sat", "time": "9:00am"}, {"days": "Sun", "time": "Closed"}], "id": "4841500012", "name": "USPS COLLECTION BOX - BLUE BOX", "address": {"city": "BIRCH RUN", "state": "MI", "street": "12635 CHURCH ST", "postcode": "48415"}}},
{"geometry": {"type": "Point", "coordinates": [-83.7750606784, 43.2483082195]}, "type": "Feature", "properties": {"collection_times": [{"days": "Mon-Sat", "time": "10:00am"}, {"days": "Sun", "time": "Closed"}], "id": "4841500014", "name": "USPS COLLECTION BOX - BLUE BOX", "address": {"city": "BIRCH RUN", "state": "MI", "street": "12150 S BEYER RD", "postcode": "48415"}}},
{"geometry": {"type": "Point", "coordinates": [-83.7908161652, 43.2501147679]}, "type": "Feature", "properties": {"collection_times": [{"days": "Mon-Fri", "time": "4:45pm"}, {"days": "Sat", "time": "11:30am"}, {"days": "Sun", "time": "Closed"}], "id": "4841500015", "name": "USPS COLLECTION BOX - PO LOBBY", "address": {"city": "BIRCH RUN", "state": "MI", "street": "8196 MAIN ST", "postcode": "48415"}}},
{"geometry": {"type": "Point", "coordinates": [-83.7908161652, 43.2501147679]}, "type": "Feature", "properties": {"collection_times": [{"days": "Mon-Fri", "time": "4:45pm"}, {"days": "Sat", "time": "11:30am"}, {"days": "Sun", "time": "Closed"}], "id": "4841500016", "name": "USPS COLLECTION BOX - PO LOBBY", "address": {"city": "BIRCH RUN", "state": "MI", "street": "8196 MAIN ST", "postcode": "48415"}}},
{"geometry": {"type": "Point", "coordinates": [-82.9854557276, 43.2122684822]}, "type": "Feature", "properties": {"collection_times": [{"days": "Mon-Fri", "time": "5:00pm"}, {"days": "Sat", "time": "11:00am"}, {"days": "Sun", "time": "Closed"}], "id": "4841600001", "name": "USPS COLLECTION BOX - BLUE BOX", "address": {"city": "BROWN CITY", "state": "MI", "street": "4160 MAIN ST", "postcode": "48416"}}},
{"geometry": {"type": "Point", "coordinates": [-82.9963086067, 43.2120530383]}, "type": "Feature", "properties": {"collection_times": [{"days": "Mon-Sat", "time": "10:00am"}, {"days": "Sun", "time": "Closed"}], "id": "4841600002", "name": "USPS COLLECTION BOX - BLUE BOX", "address": {"city": "BROWN CITY", "state": "MI", "street": "4436 MAIN ST", "postcode": "48416"}}},
{"geometry": {"type": "Point", "coordinates": [-82.9854557276, 43.2122684822]}, "type": "Feature", "properties": {"collection_times": [{"days": "Mon-Fri", "time": "5:00pm"}, {"days": "Sat", "time": "11:00am"}, {"days": "Sun", "time": "Closed"}], "id": "4841600003", "name": "USPS COLLECTION BOX - PO LOBBY", "address": {"city": "BROWN CITY", "state": "MI", "street": "4160 MAIN ST", "postcode": "48416"}}},
{"geometry": {"type": "Point", "coordinates": [-82.9854557276, 43.2122684822]}, "type": "Feature", "properties": {"collection_times": [{"days": "Mon-Fri", "time": "5:00pm"}, {"days": "Sat", "time": "11:00am"}, {"days": "Sun", "time": "Closed"}], "id": "4841600004", "name": "USPS COLLECTION BOX - PO LOBBY", "address": {"city": "BROWN CITY", "state": "MI", "street": "4160 MAIN ST", "postcode": "48416"}}},
{"geometry": {"type": "Point", "coordinates": [-83.9035749952, 43.2323291125]}, "type": "Feature", "properties": {"collection_times": [{"days": "Mon-Fri", "time": "3:45pm"}, {"days": "Sat", "time": "10:45am"}, {"days": "Sun", "time": "Closed"}], "id": "4841700002", "name": "USPS COLLECTION BOX - BLUE BOX", "address": {"city": "BURT", "state": "MI", "street": "12925 NICHOLS RD", "postcode": "48417"}}},
{"geometry": {"type": "Point", "coordinates": [-83.9035749952, 43.2323291125]}, "type": "Feature", "properties": {"collection_times": [{"days": "Mon-Fri", "time": "4:00pm"}, {"days": "Sat", "time": "11:00am"}, {"days": "Sun", "time": "Closed"}], "id": "4841700004", "name": "USPS COLLECTION BOX - PO LOBBY", "address": {"city": "BURT", "state": "MI", "street": "12925 NICHOLS RD", "postcode": "48417"}}},
{"geometry": {"type": "Point", "coordinates": [-83.9442663499, 42.8226184101]}, "type": "Feature", "properties": {"collection_times": [{"days": "Mon-Fri", "time": "4:30pm"}, {"days": "Sat", "time": "12:00pm"}, {"days": "Sun", "time": "Closed"}], "id": "4841800001", "name": "USPS COLLECTION BOX - BLUE BOX", "address": {"city": "BYRON", "state": "MI", "street": "203 S SAGINAW ST", "postcode": "48418"}}},
{"geometry": {"type": "Point", "coordinates": [-83.9442663499, 42.8226184101]}, "type": "Feature", "properties": {"collection_times": [{"days": "Mon-Fri", "time": "5:00pm"}, {"days": "Sat", "time": "12:00pm"}, {"days": "Sun", "time": "Closed"}], "id": "4841800003", "name": "USPS COLLECTION BOX - PO LOBBY", "address": {"city": "BYRON", "state": "MI", "street": "203 S SAGINAW ST", "postcode": "48418"}}},
{"geometry": {"type": "Point", "coordinates": [-82.6716551445, 43.4252795773]}, "type": "Feature", "properties": {"collection_times": [{"days": "Mon-Sat", "time": "12:45pm"}, {"days": "Sun", "time": "Closed"}], "id": "4841900001", "name": "USPS COLLECTION BOX - BLUE BOX", "address": {"city": "CARSONVILLE", "state": "MI", "street": "77 S MAIN ST", "postcode": "48419"}}},
{"geometry": {"type": "Point", "coordinates": [-82.6716551445, 43.4252795773]}, "type": "Feature", "properties": {"collection_times": [{"days": "Mon-Sat", "time": "12:45pm"}, {"days": "Sun", "time": "Closed"}], "id": "4841900004", "name": "USPS COLLECTION BOX - PO LOBBY", "address": {"city": "CARSONVILLE", "state": "MI", "street": "77 S MAIN ST", "postcode": "48419"}}},
{"geometry": {"type": "Point", "coordinates": [-83.720247564, 43.177503535]}, "type": "Feature", "properties": {"collection_times": [{"days": "Mon-Sat", "time": "10:00am"}, {"days": "Sun", "time": "Closed"}], "id": "4842000004", "name": "USPS COLLECTION BOX - BLUE BOX", "address": {"city": "CLIO", "state": "MI", "street": "2161 W VIENNA RD", "postcode": "48420"}}},
{"geometry": {"type": "Point", "coordinates": [-83.7345981862, 43.1704888776]}, "type": "Feature", "properties": {"collection_times": [{"days": "Mon-Fri", "time": "5:00pm"}, {"days": "Sat", "time": "12:00pm"}, {"days": "Sun", "time": "Closed"}], "id": "4842000005", "name": "USPS COLLECTION BOX - BLUE BOX", "address": {"city": "CLIO", "state": "MI", "street": "800 S MILL ST", "postcode": "48420"}}},
{"geometry": {"type": "Point", "coordinates": [-83.738196388, 43.1773061696]}, "type": "Feature", "properties": {"collection_times": [{"days": "Mon-Sat", "time": "10:00am"}, {"days": "Sun", "time": "Closed"}], "id": "4842000012", "name": "USPS COLLECTION BOX - BLUE BOX", "address": {"city": "CLIO", "state": "MI", "street": "415 W VIENNA ST", "postcode": "48420"}}},
{"geometry": {"type": "Point", "coordinates": [-83.749400027, 43.1774871886]}, "type": "Feature", "properties": {"collection_times": [{"days": "Mon-Sat", "time": "10:00am"}, {"days": "Sun", "time": "Closed"}], "id": "4842000015", "name": "USPS COLLECTION BOX - BLUE BOX", "address": {"city": "CLIO", "state": "MI", "street": "3400 W VIENNA RD", "postcode": "48420"}}},
{"geometry": {"type": "Point", "coordinates": [-83.7345173362, 43.1705723238]}, "type": "Feature", "properties": {"collection_times": [{"days": "Mon-Fri", "time": "5:00pm"}, {"days": "Sat", "time": "12:00pm"}, {"days": "Sun", "time": "Closed"}], "id": "4842000017", "name": "USPS COLLECTION BOX - PO LOBBY", "address": {"city": "CLIO", "state": "MI", "street": "800 S MILL ST", "postcode": "48420"}}},
{"geometry": {"type": "Point", "coordinates": [-83.7345173362, 43.1705723238]}, "type": "Feature", "properties": {"collection_times": [{"days": "Mon-Fri", "time": "5:00pm"}, {"days": "Sat", "time": "12:00pm"}, {"days": "Sun", "time": "Closed"}], "id": "4842000018", "name": "USPS COLLECTION BOX - PO LOBBY", "address": {"city": "CLIO", "state": "MI", "street": "800 S MILL ST", "postcode": "48420"}}},
{"geometry": {"type": "Point", "coordinates": [-83.7742387829, 43.1755889211]}, "type": "Feature", "properties": {"collection_times": [{"days": "Mon-Sat", "time": "9:30am"}, {"days": "Sun", "time": "Closed"}], "id": "4842000019", "name": "USPS COLLECTION BOX - BLUE BOX", "address": {"city": "CLIO", "state": "MI", "street": "11475 N LINDEN RD", "postcode": "48420"}}},
{"geometry": {"type": "Point", "coordinates": [-83.7345570134, 43.1701816422]}, "type": "Feature", "properties": {"collection_times": [{"days": "Mon-Fri", "time": "5:00pm"}, {"days": "Sat", "time": "12:00pm"}, {"days": "Sun", "time": "Closed"}], "id": "4842000021", "name": "USPS COLLECTION BOX - BLUE BOX", "address": {"city": "CLIO", "state": "MI", "street": "800 S MILL ST", "postcode": "48420"}}},
{"geometry": {"type": "Point", "coordinates": [-83.4043263293, 43.1619690292]}, "type": "Feature", "properties": {"collection_times": [{"days": "Mon-Fri", "time": "3:30pm"}, {"days": "Sat", "time": "10:30am"}, {"days": "Sun", "time": "Closed"}], "id": "4842100001", "name": "USPS COLLECTION BOX - BLUE BOX", "address": {"city": "COLUMBIAVILLE", "state": "MI", "street": "4643 PINE ST", "postcode": "48421"}}},
{"geometry": {"type": "Point", "coordinates": [-83.4043263293, 43.1619690292]}, "type": "Feature", "properties": {"collection_times": [{"days": "Mon-Fri", "time": "3:30pm"}, {"days": "Sat", "time": "10:30am"}, {"days": "Sun", "time": "Closed"}], "id": "4842100002", "name": "USPS COLLECTION BOX - PO LOBBY", "address": {"city": "COLUMBIAVILLE", "state": "MI", "street": "4643 PINE ST", "postcode": "48421"}}},
{"geometry": {"type": "Point", "coordinates": [-83.4043263293, 43.1619690292]}, "type": "Feature", "properties": {"collection_times": [{"days": "Mon-Fri", "time": "3:30pm"}, {"days": "Sat", "time": "10:30am"}, {"days": "Sun", "time": "Closed"}], "id": "4842100003", "name": "USPS COLLECTION BOX - PO LOBBY", "address": {"city": "COLUMBIAVILLE", "state": "MI", "street": "4643 PINE ST", "postcode": "48421"}}},
{"geometry": {"type": "Point", "coordinates": [-82.6405285149, 43.2635841237]}, "type": "Feature", "properties": {"collection_times": [{"days": "Mon-Fri", "time": "4:15pm"}, {"days": "Sat", "time": "3:00pm"}, {"days": "Sun", "time": "Closed"}], "id": "4842200013", "name": "USPS COLLECTION BOX - BLUE BOX", "address": {"city": "CROSWELL", "state": "MI", "street": "104 N HOWARD AVE", "postcode": "48422"}}},
{"geometry": {"type": "Point", "coordinates": [-82.6218909798, 43.2806077746]}, "type": "Feature", "properties": {"collection_times": [{"days": "Mon-Fri", "time": "4:30pm"}, {"days": "Sat", "time": "3:00pm"}, {"days": "Sun", "time": "Closed"}], "id": "4842200014", "name": "USPS COLLECTION BOX - PO LOBBY", "address": {"city": "CROSWELL", "state": "MI", "street": "104 N HOWARD AVE", "postcode": "48422"}}},
{"geometry": {"type": "Point", "coordinates": [-83.5055288426, 43.0348356961]}, "type": "Feature", "properties": {"collection_times": [{"days": "Mon-Fri", "time": "5:00pm"}, {"days": "Sat", "time": "3:00pm"}, {"days": "Sun", "time": "Closed"}], "id": "4842300001", "name": "USPS COLLECTION BOX - BLUE BOX", "address": {"city": "DAVISON", "state": "MI", "street": "10290 DAVISON RD", "postcode": "48423"}}},
{"geometry": {"type": "Point", "coordinates": [-83.5410204149, 43.0342944478]}, "type": "Feature", "properties": {"collection_times": [{"days": "Mon-Sat", "time": "10:00am"}, {"days": "Sun", "time": "Closed"}], "id": "4842300005", "name": "USPS COLLECTION BOX - BLUE BOX", "address": {"city": "DAVISON", "state": "MI", "street": "8417 DAVISON RD", "postcode": "48423"}}},
{"geometry": {"type": "Point", "coordinates": [-83.5417949662, 43.0119832196]}, "type": "Feature", "properties": {"collection_times": [{"days": "Mon-Sat", "time": "10:00am"}, {"days": "Sun", "time": "Closed"}], "id": "4842300006", "name": "USPS COLLECTION BOX - BLUE BOX", "address": {"city": "DAVISON", "state": "MI", "street": "1101 CHARTER OAKS DR", "postcode": "48423"}}},
{"geometry": {"type": "Point", "coordinates": [-83.5615474423, 43.0338802325]}, "type": "Feature", "properties": {"collection_times": [{"days": "Mon-Sat", "time": "10:00am"}, {"days": "Sun", "time": "Closed"}], "id": "4842300008", "name": "USPS COLLECTION BOX - BLUE BOX", "address": {"city": "DAVISON", "state": "MI", "street": "7384 DAVISON RD", "postcode": "48423"}}},
{"geometry": {"type": "Point", "coordinates": [-83.5167464204, 43.0311925497]}, "type": "Feature", "properties": {"collection_times": [{"days": "Mon-Sat", "time": "10:00am"}, {"days": "Sun", "time": "Closed"}], "id": "4842300019", "name": "USPS COLLECTION BOX - BLUE BOX", "address": {"city": "DAVISON", "state": "MI", "street": "213 N MAIN ST", "postcode": "48423"}}},
{"geometry": {"type": "Point", "coordinates": [-83.5175804065, 43.0167202297]}, "type": "Feature", "properties": {"collection_times": [{"days": "Mon-Sat", "time": "10:00am"}, {"days": "Sun", "time": "Closed"}], "id": "4842300024", "name": "USPS COLLECTION BOX - BLUE BOX", "address": {"city": "DAVISON", "state": "MI", "street": "1121 S STATE RD", "postcode": "48423"}}},
{"geometry": {"type": "Point", "coordinates": [-83.5392119941, 43.0052360641]}, "type": "Feature", "properties": {"collection_times": [{"days": "Mon-Sat", "time": "10:00am"}, {"days": "Sun", "time": "Closed"}], "id": "4842300027", "name": "USPS COLLECTION BOX - BLUE BOX", "address": {"city": "DAVISON", "state": "MI", "street": "8430 E LIPPINCOTT BLVD", "postcode": "48423"}}},
{"geometry": {"type": "Point", "coordinates": [-83.5176198624, 43.0215280056]}, "type": "Feature", "properties": {"collection_times": [{"days": "Mon-Sat", "time": "10:00am"}, {"days": "Sun", "time": "Closed"}], "id": "4842300031", "name": "USPS COLLECTION BOX - BLUE BOX", "address": {"city": "DAVISON", "state": "MI", "street": "817 S STATE RD", "postcode": "48423"}}},
{"geometry": {"type": "Point", "coordinates": [-83.5055288426, 43.0348356961]}, "type": "Feature", "properties": {"collection_times": [{"days": "Mon-Fri", "time": "5:00pm"}, {"days": "Sat", "time": "12:00pm"}, {"days": "Sun", "time": "Closed"}], "id": "4842300033", "name": "USPS COLLECTION BOX - PO LOBBY", "address": {"city": "DAVISON", "state": "MI", "street": "10290 DAVISON RD", "postcode": "48423"}}},
{"geometry": {"type": "Point", "coordinates": [-83.5055288426, 43.0348356961]}, "type": "Feature", "properties": {"collection_times": [{"days": "Mon-Fri", "time": "5:00pm"}, {"days": "Sat", "time": "12:00pm"}, {"days": "Sun", "time": "Closed"}], "id": "4842300036", "name": "USPS COLLECTION BOX - PO LOBBY", "address": {"city": "DAVISON", "state": "MI", "street": "10290 DAVISON RD", "postcode": "48423"}}},
{"geometry": {"type": "Point", "coordinates": [-83.5521047656, 43.0118844043]}, "type": "Feature", "properties": {"collection_times": [{"days": "Mon-Sat", "time": "10:00am"}, {"days": "Sun", "time": "Closed"}], "id": "4842300037", "name": "USPS COLLECTION BOX - BLUE BOX", "address": {"city": "DAVISON", "state": "MI", "street": "8089 LAPEER RD", "postcode": "48423"}}},
{"geometry": {"type": "Point", "coordinates": [-83.0893683481, 43.4614850954]}, "type": "Feature", "properties": {"collection_times": [{"days": "Mon-Fri", "time": "4:00pm"}, {"days": "Sat", "time": "11:00am"}, {"days": "Sun", "time": "Closed"}], "id": "4842600001", "name": "USPS COLLECTION BOX - BLUE BOX", "address": {"city": "DECKER", "state": "MI", "street": "1624 VAN DYKE RD", "postcode": "48426"}}},
{"geometry": {"type": "Point", "coordinates": [-83.0893683481, 43.4614850954]}, "type": "Feature", "properties": {"collection_times": [{"days": "Mon-Fri", "time": "4:00pm"}, {"days": "Sat", "time": "11:00am"}, {"days": "Sun", "time": "Closed"}], "id": "4842600002", "name": "USPS COLLECTION BOX - PO LOBBY", "address": {"city": "DECKER", "state": "MI", "street": "1624 VAN DYKE RD", "postcode": "48426"}}},
{"geometry": {"type": "Point", "coordinates": [-82.7342700357, 43.5255259462]}, "type": "Feature", "properties": {"collection_times": [{"days": "Mon-Fri", "time": "4:00pm"}, {"days": "Sat", "time": "11:15am"}, {"days": "Sun", "time": "Closed"}], "id": "4842700002", "name": "USPS COLLECTION BOX - PO LOBBY", "address": {"city": "DECKERVILLE", "state": "MI", "street": "2517 MAPLE ST", "postcode": "48427"}}},
{"geometry": {"type": "Point", "coordinates": [-82.7342700357, 43.5255259462]}, "type": "Feature", "properties": {"collection_times": [{"days": "Mon-Fri", "time": "4:00pm"}, {"days": "Sat", "time": "11:15am"}, {"days": "Sun", "time": "Closed"}], "id": "4842700003", "name": "USPS COLLECTION BOX - BLUE BOX", "address": {"city": "DECKERVILLE", "state": "MI", "street": "2517 MAPLE ST", "postcode": "48427"}}},
{"geometry": {"type": "Point", "coordinates": [-82.7342700357, 43.5255259462]}, "type": "Feature", "properties": {"collection_times": [{"days": "Mon-Fri", "time": "4:00pm"}, {"days": "Sat", "time": "11:15am"}, {"days": "Sun", "time": "Closed"}], "id": "4842700005", "name": "USPS COLLECTION BOX - PO LOBBY", "address": {"city": "DECKERVILLE", "state": "MI", "street": "2517 MAPLE ST", "postcode": "48427"}}},
{"geometry": {"type": "Point", "coordinates": [-83.1219085295, 42.9460174854]}, "type": "Feature", "properties": {"collection_times": [{"days": "Mon-Fri", "time": "4:15pm"}, {"days": "Sat", "time": "12:00pm"}, {"days": "Sun", "time": "Closed"}], "id": "4842800001", "name": "USPS COLLECTION BOX - BLUE BOX", "address": {"city": "DRYDEN", "state": "MI", "street": "5580 MAIN ST", "postcode": "48428"}}},
{"geometry": {"type": "Point", "coordinates": [-83.1226501211, 42.9460416643]}, "type": "Feature", "properties": {"collection_times": [{"days": "Mon-Fri", "time": "4:15pm"}, {"days": "Sat", "time": "12:00pm"}, {"days": "Sun", "time": "Closed"}], "id": "4842800002", "name": "USPS COLLECTION BOX - PO LOBBY", "address": {"city": "DRYDEN", "state": "MI", "street": "5580 MAIN ST", "postcode": "48428"}}},
{"geometry": {"type": "Point", "coordinates": [-83.9846969026, 42.9111740001]}, "type": "Feature", "properties": {"collection_times": [{"days": "Mon-Sat", "time": "1:00pm"}, {"days": "Sun", "time": "Closed"}], "id": "4842900003", "name": "USPS COLLECTION BOX - BLUE BOX", "address": {"city": "DURAND", "state": "MI", "street": "129 N SAGINAW ST", "postcode": "48429"}}},
{"geometry": {"type": "Point", "coordinates": [-83.9879326717, 42.9130368308]}, "type": "Feature", "properties": {"collection_times": [{"days": "Mon-Sat", "time": "3:00pm"}, {"days": "Sun", "time": "Closed"}], "id": "4842900018", "name": "USPS COLLECTION BOX - BLUE BOX", "address": {"city": "DURAND", "state": "MI", "street": "211 N OAK ST", "postcode": "48429"}}},
{"geometry": {"type": "Point", "coordinates": [-83.9879326717, 42.9130368308]}, "type": "Feature", "properties": {"collection_times": [{"days": "Mon-Sat", "time": "3:00pm"}, {"days": "Sun", "time": "Closed"}], "id": "4842900019", "name": "USPS COLLECTION BOX - BLUE BOX", "address": {"city": "DURAND", "state": "MI", "street": "211 N OAK ST", "postcode": "48429"}}},
{"geometry": {"type": "Point", "coordinates": [-83.9878316225, 42.9123765966]}, "type": "Feature", "properties": {"collection_times": [{"days": "Mon-Sat", "time": "3:00pm"}, {"days": "Sun", "time": "Closed"}], "id": "4842900021", "name": "USPS COLLECTION BOX - PO LOBBY", "address": {"city": "DURAND", "state": "MI", "street": "211 N OAK ST", "postcode": "48429"}}},
{"geometry": {"type": "Point", "coordinates": [-83.7196960434, 42.8102134491]}, "type": "Feature", "properties": {"collection_times": [{"days": "Mon-Sat", "time": "1:00pm"}, {"days": "Sun", "time": "Closed"}], "id": "4843000003", "name": "USPS COLLECTION BOX - BLUE BOX", "address": {"city": "FENTON", "state": "MI", "street": "2100 GEORGETOWN PKWY", "postcode": "48430"}}},
{"geometry": {"type": "Point", "coordinates": [-83.70749627, 42.8147459776]}, "type": "Feature", "properties": {"collection_times": [{"days": "Mon-Sat", "time": "1:00pm"}, {"days": "Sun", "time": "Closed"}], "id": "4843000005", "name": "USPS COLLECTION BOX - BLUE BOX", "address": {"city": "FENTON", "state": "MI", "street": "1390 N LEROY ST", "postcode": "48430"}}},
{"geometry": {"type": "Point", "coordinates": [-83.7076963883, 42.8191028718]}, "type": "Feature", "properties": {"collection_times": [{"days": "Mon-Sat", "time": "10:00am"}, {"days": "Sun", "time": "Closed"}], "id": "4843000006", "name": "USPS COLLECTION BOX - BLUE BOX", "address": {"city": "FENTON", "state": "MI", "street": "1549 N LEROY ST", "postcode": "48430"}}},
{"geometry": {"type": "Point", "coordinates": [-83.7286806167, 42.7898594572]}, "type": "Feature", "properties": {"collection_times": [{"days": "Mon-Sat", "time": "11:00am"}, {"days": "Sun", "time": "Closed"}], "id": "4843000009", "name": "USPS COLLECTION BOX - BLUE BOX", "address": {"city": "FENTON", "state": "MI", "street": "2590 OWEN RD", "postcode": "48430"}}},
{"geometry": {"type": "Point", "coordinates": [-83.7064031335, 42.7939619589]}, "type": "Feature", "properties": {"collection_times": [{"days": "Mon-Fri", "time": "5:00pm"}, {"days": "Sat", "time": "3:00pm"}, {"days": "Sun", "time": "Closed"}], "id": "4843000014", "name": "USPS COLLECTION BOX - BLUE BOX", "address": {"city": "FENTON", "state": "MI", "street": "113 MILL ST", "postcode": "48430"}}},
{"geometry": {"type": "Point", "coordinates": [-83.7292519859, 42.8625037843]}, "type": "Feature", "properties": {"collection_times": [{"days": "Mon-Sat", "time": "11:00am"}, {"days": "Sun", "time": "Closed"}], "id": "4843000017", "name": "USPS COLLECTION BOX - BLUE BOX", "address": {"city": "FENTON", "state": "MI", "street": "11293 TORREY RD", "postcode": "48430"}}},
{"geometry": {"type": "Point", "coordinates": [-83.7072489491, 42.7964899422]}, "type": "Feature", "properties": {"collection_times": [{"days": "Mon-Sat", "time": "11:00am"}, {"days": "Sun", "time": "Closed"}], "id": "4843000018", "name": "USPS COLLECTION BOX - BLUE BOX", "address": {"city": "FENTON", "state": "MI", "street": "226 W CAROLINE ST", "postcode": "48430"}}},
{"geometry": {"type": "Point", "coordinates": [-83.7398637392, 42.7941249278]}, "type": "Feature", "properties": {"collection_times": [{"days": "Mon-Sat", "time": "1:00pm"}, {"days": "Sun", "time": "Closed"}], "id": "4843000021", "name": "USPS COLLECTION BOX - BLUE BOX", "address": {"city": "FENTON", "state": "MI", "street": "18005 SILVER PKWY", "postcode": "48430"}}},
{"geometry": {"type": "Point", "coordinates": [-83.746676872, 42.7895116915]}, "type": "Feature", "properties": {"collection_times": [{"days": "Mon-Fri", "time": "12:30pm"}, {"days": "Sat", "time": "12:00pm"}, {"days": "Sun", "time": "Closed"}], "id": "4843000022", "name": "USPS COLLECTION BOX - BLUE BOX", "address": {"city": "FENTON", "state": "MI", "street": "4015 OWEN RD", "postcode": "48430"}}},
{"geometry": {"type": "Point", "coordinates": [-83.7048167855, 42.8233703187]}, "type": "Feature", "properties": {"collection_times": [{"days": "Mon-Fri", "time": "10:00am"}, {"days": "Sat-Sun", "time": "Closed"}], "id": "4843000027", "name": "USPS COLLECTION BOX - BLUE BOX", "address": {"city": "FENTON", "state": "MI", "street": "14165 N FENTON RD", "postcode": "48430"}}},
{"geometry": {"type": "Point", "coordinates": [-83.7052138473, 42.7942815394]}, "type": "Feature", "properties": {"collection_times": [{"days": "Mon-Fri", "time": "5:00pm"}, {"days": "Sat", "time": "3:00pm"}, {"days": "Sun", "time": "Closed"}], "id": "4843000028", "name": "USPS COLLECTION BOX - PO LOBBY", "address": {"city": "FENTON", "state": "MI", "street": "210 S LEROY ST", "postcode": "48430"}}},
{"geometry": {"type": "Point", "coordinates": [-83.7050190715, 42.7943748116]}, "type": "Feature", "properties": {"collection_times": [{"days": "Mon-Fri", "time": "5:00pm"}, {"days": "Sat", "time": "3:00pm"}, {"days": "Sun", "time": "Closed"}], "id": "4843000031", "name": "USPS COLLECTION BOX - PO LOBBY", "address": {"city": "FENTON", "state": "MI", "street": "210 S LEROY ST", "postcode": "48430"}}},
{"geometry": {"type": "Point", "coordinates": [-83.7375950609, 42.7956446076]}, "type": "Feature", "properties": {"collection_times": [{"days": "Mon-Sat", "time": "1:00pm"}, {"days": "Sun", "time": "Closed"}], "id": "4843000032", "name": "USPS COLLECTION BOX - BLUE BOX", "address": {"city": "FENTON", "state": "MI", "street": "17195 SILVER PKWY", "postcode": "48430"}}},
{"geometry": {"type": "Point", "coordinates": [-83.7050190715, 42.7943748116]}, "type": "Feature", "properties": {"collection_times": [{"days": "Mon-Fri", "time": "5:00pm"}, {"days": "Sat", "time": "3:00pm"}, {"days": "Sun", "time": "Closed"}], "id": "4843000034", "name": "USPS COLLECTION BOX - APC", "address": {"city": "FENTON", "state": "MI", "street": "210 S LEROY ST", "postcode": "48430"}}},
{"geometry": {"type": "Point", "coordinates": [-83.7379602887, 42.7956875315]}, "type": "Feature", "properties": {"collection_times": [{"days": "Mon-Sat", "time": "1:00pm"}, {"days": "Sun", "time": "Closed"}], "id": "4843000035", "name": "USPS COLLECTION BOX - BLUE BOX", "address": {"city": "FENTON", "state": "MI", "street": "17100 SILVER PKWY", "postcode": "48430"}}},
{"geometry": {"type": "Point", "coordinates": [-83.7634414802, 42.6949324455]}, "type": "Feature", "properties": {"collection_times": [{"days": "Mon-Sat", "time": "10:00am"}, {"days": "Sun", "time": "Closed"}], "id": "4843000038", "name": "USPS COLLECTION BOX - BLUE BOX", "address": {"city": "FENTON", "state": "MI", "street": "9900 TOWNSQUARE BLVD", "postcode": "48430"}}},
{"geometry": {"type": "Point", "coordinates": [-83.8543096758, 43.0621328414]}, "type": "Feature", "properties": {"collection_times": [{"days": "Mon-Fri", "time": "5:00pm"}, {"days": "Sat", "time": "12:00pm"}, {"days": "Sun", "time": "Closed"}], "id": "4843300002", "name": "USPS COLLECTION BOX - BLUE BOX", "address": {"city": "FLUSHING", "state": "MI", "street": "127 S CHERRY ST", "postcode": "48433"}}},
{"geometry": {"type": "Point", "coordinates": [-83.8543096758, 43.0621328414]}, "type": "Feature", "properties": {"collection_times": [{"days": "Mon-Fri", "time": "5:00pm"}, {"days": "Sat", "time": "12:00pm"}, {"days": "Sun", "time": "Closed"}], "id": "4843300003", "name": "USPS COLLECTION BOX - BLUE BOX", "address": {"city": "FLUSHING", "state": "MI", "street": "127 S CHERRY ST", "postcode": "48433"}}},
{"geometry": {"type": "Point", "coordinates": [-83.8542730231, 43.0622296965]}, "type": "Feature", "properties": {"collection_times": [{"days": "Mon-Fri", "time": "5:00pm"}, {"days": "Sat", "time": "12:00pm"}, {"days": "Sun", "time": "Closed"}], "id": "4843300004", "name": "USPS COLLECTION BOX - PO LOBBY", "address": {"city": "FLUSHING", "state": "MI", "street": "127 S CHERRY ST", "postcode": "48433"}}},
{"geometry": {"type": "Point", "coordinates": [-83.8576231439, 43.0580634626]}, "type": "Feature", "properties": {"collection_times": [{"days": "Mon-Sat", "time": "1:00pm"}, {"days": "Sun", "time": "Closed"}], "id": "4843300007", "name": "USPS COLLECTION BOX - BLUE BOX", "address": {"city": "FLUSHING", "state": "MI", "street": "320 TERRACE DR", "postcode": "48433"}}},
{"geometry": {"type": "Point", "coordinates": [-83.8589291306, 43.0629632786]}, "type": "Feature", "properties": {"collection_times": [{"days": "Mon-Sat", "time": "10:00am"}, {"days": "Sun", "time": "Closed"}], "id": "4843300009", "name": "USPS COLLECTION BOX - BLUE BOX", "address": {"city": "FLUSHING", "state": "MI", "street": "226 W MAIN ST", "postcode": "48433"}}},
{"geometry": {"type": "Point", "coordinates": [-83.8262167663, 43.1178904293]}, "type": "Feature", "properties": {"collection_times": [{"days": "Mon-Sat", "time": "9:00am"}, {"days": "Sun", "time": "Closed"}], "id": "4843300010", "name": "USPS COLLECTION BOX - BLUE BOX", "address": {"city": "FLUSHING", "state": "MI", "street": "7280 W MOUNT MORRIS RD", "postcode": "48433"}}},
{"geometry": {"type": "Point", "coordinates": [-83.7832280375, 43.0603820622]}, "type": "Feature", "properties": {"collection_times": [{"days": "Mon-Fri", "time": "3:00pm"}, {"days": "Sat-Sun", "time": "Closed"}], "id": "4843300011", "name": "USPS COLLECTION BOX - BLUE BOX", "address": {"city": "FLUSHING", "state": "MI", "street": "5279 W PIERSON RD", "postcode": "48433"}}},
{"geometry": {"type": "Point", "coordinates": [-83.8107207664, 43.0601786122]}, "type": "Feature", "properties": {"collection_times": [{"days": "Mon-Fri", "time": "3:00pm"}, {"days": "Sat", "time": "10:00am"}, {"days": "Sun", "time": "Closed"}], "id": "4843300012", "name": "USPS COLLECTION BOX - BLUE BOX", "address": {"city": "FLUSHING", "state": "MI", "street": "6481 W PIERSON RD", "postcode": "48433"}}},
{"geometry": {"type": "Point", "coordinates": [-82.6092880652, 43.6621495312]}, "type": "Feature", "properties": {"collection_times": [{"days": "Mon-Fri", "time": "12:30pm"}, {"days": "Sat", "time": "11:30am"}, {"days": "Sun", "time": "Closed"}], "id": "4843400001", "name": "USPS COLLECTION BOX - BLUE BOX", "address": {"city": "FORESTVILLE", "state": "MI", "street": "8007 3RD ST", "postcode": "48434"}}},
{"geometry": {"type": "Point", "coordinates": [-82.6092880652, 43.6621495312]}, "type": "Feature", "properties": {"collection_times": [{"days": "Mon-Fri", "time": "12:30pm"}, {"days": "Sat", "time": "11:30am"}, {"days": "Sun", "time": "Closed"}], "id": "4843400002", "name": "USPS COLLECTION BOX - PO LOBBY", "address": {"city": "FORESTVILLE", "state": "MI", "street": "8007 3RD ST", "postcode": "48434"}}},
{"geometry": {"type": "Point", "coordinates": [-83.3731058048, 43.2784791152]}, "type": "Feature", "properties": {"collection_times": [{"days": "Mon-Fri", "time": "12:00pm"}, {"days": "Sat", "time": "10:30am"}, {"days": "Sun", "time": "Closed"}], "id": "4843500001", "name": "USPS COLLECTION BOX - BLUE BOX", "address": {"city": "FOSTORIA", "state": "MI", "street": "9301 FOSTER ST", "postcode": "48435"}}},
{"geometry": {"type": "Point", "coordinates": [-83.3731058048, 43.2784791152]}, "type": "Feature", "properties": {"collection_times": [{"days": "Mon-Fri", "time": "12:00pm"}, {"days": "Sat", "time": "10:30am"}, {"days": "Sun", "time": "Closed"}], "id": "4843500002", "name": "USPS COLLECTION BOX - PO LOBBY", "address": {"city": "FOSTORIA", "state": "MI", "street": "9301 FOSTER ST", "postcode": "48435"}}},
{"geometry": {"type": "Point", "coordinates": [-83.9138775745, 42.8724477373]}, "type": "Feature", "properties": {"collection_times": [{"days": "Mon-Fri", "time": "3:00pm"}, {"days": "Sat", "time": "10:00am"}, {"days": "Sun", "time": "Closed"}], "id": "4843600001", "name": "USPS COLLECTION BOX - BLUE BOX", "address": {"city": "GAINES", "state": "MI", "street": "125 GENESEE ST", "postcode": "48436"}}},
{"geometry": {"type": "Point", "coordinates": [-83.9138775745, 42.8724477373]}, "type": "Feature", "properties": {"collection_times": [{"days": "Mon-Fri", "time": "3:00pm"}, {"days": "Sat", "time": "10:00am"}, {"days": "Sun", "time": "Closed"}], "id": "4843600002", "name": "USPS COLLECTION BOX - PO LOBBY", "address": {"city": "GAINES", "state": "MI", "street": "125 GENESEE ST", "postcode": "48436"}}},
{"geometry": {"type": "Point", "coordinates": [-83.9138775745, 42.8724477373]}, "type": "Feature", "properties": {"collection_times": [{"days": "Mon-Fri", "time": "3:00pm"}, {"days": "Sat", "time": "10:00am"}, {"days": "Sun", "time": "Closed"}], "id": "4843600003", "name": "USPS COLLECTION BOX - PO LOBBY", "address": {"city": "GAINES", "state": "MI", "street": "125 GENESEE ST", "postcode": "48436"}}},
{"geometry": {"type": "Point", "coordinates": [-83.6181913028, 43.1121320142]}, "type": "Feature", "properties": {"collection_times": [{"days": "Mon-Fri", "time": "4:00pm"}, {"days": "Sat", "time": "11:00am"}, {"days": "Sun", "time": "Closed"}], "id": "4843700001", "name": "USPS COLLECTION BOX - BLUE BOX", "address": {"city": "GENESEE", "state": "MI", "street": "7198 N GENESEE RD", "postcode": "48437"}}},
{"geometry": {"type": "Point", "coordinates": [-83.6181913028, 43.1121320142]}, "type": "Feature", "properties": {"collection_times": [{"days": "Mon-Fri", "time": "4:00pm"}, {"days": "Sat", "time": "11:00am"}, {"days": "Sun", "time": "Closed"}], "id": "4843700004", "name": "USPS COLLECTION BOX - PO LOBBY", "address": {"city": "GENESEE", "state": "MI", "street": "7198 N GENESEE RD", "postcode": "48437"}}},
{"geometry": {"type": "Point", "coordinates": [-83.6181913028, 43.1121320142]}, "type": "Feature", "properties": {"collection_times": [{"days": "Mon-Fri", "time": "4:00pm"}, {"days": "Sat", "time": "11:00am"}, {"days": "Sun", "time": "Closed"}], "id": "4843700005", "name": "USPS COLLECTION BOX - PO LOBBY", "address": {"city": "GENESEE", "state": "MI", "street": "7198 N GENESEE RD", "postcode": "48437"}}},
{"geometry": {"type": "Point", "coordinates": [-83.5014412973, 42.91056859]}, "type": "Feature", "properties": {"collection_times": [{"days": "Mon-Fri", "time": "5:00pm"}, {"days": "Sat", "time": "11:00am"}, {"days": "Sun", "time": "Closed"}], "id": "4843800001", "name": "USPS COLLECTION BOX - BLUE BOX", "address": {"city": "GOODRICH", "state": "MI", "street": "8283 S STATE RD", "postcode": "48438"}}},
{"geometry": {"type": "Point", "coordinates": [-83.5018482352, 42.9221982596]}, "type": "Feature", "properties": {"collection_times": [{"days": "Mon-Fri", "time": "11:00am"}, {"days": "Sat", "time": "9:30am"}, {"days": "Sun", "time": "Closed"}], "id": "4843800002", "name": "USPS COLLECTION BOX - BLUE BOX", "address": {"city": "GOODRICH", "state": "MI", "street": "7301 S STATE RD", "postcode": "48438"}}},
{"geometry": {"type": "Point", "coordinates": [-83.5014412973, 42.91056859]}, "type": "Feature", "properties": {"collection_times": [{"days": "Mon-Fri", "time": "5:00pm"}, {"days": "Sat", "time": "11:00am"}, {"days": "Sun", "time": "Closed"}], "id": "4843800003", "name": "USPS COLLECTION BOX - PO LOBBY", "address": {"city": "GOODRICH", "state": "MI", "street": "8283 S STATE RD", "postcode": "48438"}}},
{"geometry": {"type": "Point", "coordinates": [-83.5014412973, 42.91056859]}, "type": "Feature", "properties": {"collection_times": [{"days": "Mon-Fri", "time": "5:00pm"}, {"days": "Sat", "time": "11:00am"}, {"days": "Sun", "time": "Closed"}], "id": "4843800004", "name": "USPS COLLECTION BOX - PO LOBBY", "address": {"city": "GOODRICH", "state": "MI", "street": "8283 S STATE RD", "postcode": "48438"}}},
{"geometry": {"type": "Point", "coordinates": [-83.6047088831, 42.9080749125]}, "type": "Feature", "properties": {"collection_times": [{"days": "Mon-Fri", "time": "3:00pm"}, {"days": "Sat", "time": "10:00am"}, {"days": "Sun", "time": "Closed"}], "id": "4843900005", "name": "USPS COLLECTION BOX - BLUE BOX", "address": {"city": "GRAND BLANC", "state": "MI", "street": "8308 OFFICE PARK DR", "postcode": "48439"}}},
{"geometry": {"type": "Point", "coordinates": [-83.6288673155, 42.9038548949]}, "type": "Feature", "properties": {"collection_times": [{"days": "Mon-Fri", "time": "3:00pm"}, {"days": "Sat", "time": "10:00am"}, {"days": "Sun", "time": "Closed"}], "id": "4843900010", "name": "USPS COLLECTION BOX - BLUE BOX", "address": {"city": "GRAND BLANC", "state": "MI", "street": "8483 HOLLY RD", "postcode": "48439"}}},
{"geometry": {"type": "Point", "coordinates": [-83.6391626658, 42.9352547285]}, "type": "Feature", "properties": {"collection_times": [{"days": "Mon-Fri", "time": "3:00pm"}, {"days": "Sat", "time": "10:00am"}, {"days": "Sun", "time": "Closed"}], "id": "4843900043", "name": "USPS COLLECTION BOX - BLUE BOX", "address": {"city": "GRAND BLANC", "state": "MI", "street": "10761 S SAGINAW ST", "postcode": "48439"}}},
{"geometry": {"type": "Point", "coordinates": [-83.6290821296, 42.9268594618]}, "type": "Feature", "properties": {"collection_times": [{"days": "Mon-Fri", "time": "11:30am"}, {"days": "Sat", "time": "10:00am"}, {"days": "Sun", "time": "Closed"}], "id": "4843900047", "name": "USPS COLLECTION BOX - BLUE BOX", "address": {"city": "GRAND BLANC", "state": "MI", "street": "11609 S SAGINAW ST", "postcode": "48439"}}},
{"geometry": {"type": "Point", "coordinates": [-83.5924984818, 42.9274107178]}, "type": "Feature", "properties": {"collection_times": [{"days": "Mon-Sat", "time": "10:00am"}, {"days": "Sun", "time": "Closed"}], "id": "4843900048", "name": "USPS COLLECTION BOX - BLUE BOX", "address": {"city": "GRAND BLANC", "state": "MI", "street": "12083 JUNIPER WAY", "postcode": "48439"}}},
{"geometry": {"type": "Point", "coordinates": [-83.6040338414, 42.9086780225]}, "type": "Feature", "properties": {"collection_times": [{"days": "Mon-Sat", "time": "10:00am"}, {"days": "Sun", "time": "Closed"}], "id": "4843900052", "name": "USPS COLLECTION BOX - BLUE BOX", "address": {"city": "GRAND BLANC", "state": "MI", "street": "8305 S SAGINAW ST", "postcode": "48439"}}},
{"geometry": {"type": "Point", "coordinates": [-83.6665400065, 42.9442492765]}, "type": "Feature", "properties": {"collection_times": [{"days": "Mon-Sat", "time": "10:00am"}, {"days": "Sun", "time": "Closed"}], "id": "4843900054", "name": "USPS COLLECTION BOX - BLUE BOX", "address": {"city": "GRAND BLANC", "state": "MI", "street": "2174 E HILL RD", "postcode": "48439"}}},
{"geometry": {"type": "Point", "coordinates": [-83.6594349307, 42.9444639132]}, "type": "Feature", "properties": {"collection_times": [{"days": "Mon-Sat", "time": "10:00am"}, {"days": "Sun", "time": "Closed"}], "id": "4843900055", "name": "USPS COLLECTION BOX - BLUE BOX", "address": {"city": "GRAND BLANC", "state": "MI", "street": "2343 E HILL RD", "postcode": "48439"}}},
{"geometry": {"type": "Point", "coordinates": [-83.664529935, 42.9386248277]}, "type": "Feature", "properties": {"collection_times": [{"days": "Mon-Sat", "time": "10:00am"}, {"days": "Sun", "time": "Closed"}], "id": "4843900056", "name": "USPS COLLECTION BOX - BLUE BOX", "address": {"city": "GRAND BLANC", "state": "MI", "street": "2168 FOX HILL DR", "postcode": "48439"}}},
{"geometry": {"type": "Point", "coordinates": [-83.6031036078, 42.9017448991]}, "type": "Feature", "properties": {"collection_times": [{"days": "Mon-Sat", "time": "11:00am"}, {"days": "Sun", "time": "Closed"}], "id": "4843900057", "name": "USPS COLLECTION BOX - BLUE BOX", "address": {"city": "GRAND BLANC", "state": "MI", "street": "8210 S SAGINAW ST", "postcode": "48439"}}},
{"geometry": {"type": "Point", "coordinates": [-83.6912207023, 42.9220360795]}, "type": "Feature", "properties": {"collection_times": [{"days": "Mon-Sat", "time": "11:00am"}, {"days": "Sun", "time": "Closed"}], "id": "4843900063", "name": "USPS COLLECTION BOX - BLUE BOX", "address": {"city": "GRAND BLANC", "state": "MI", "street": "1001 THORNRIDGE DR", "postcode": "48439"}}},
{"geometry": {"type": "Point", "coordinates": [-83.6288045668, 42.9170497073]}, "type": "Feature", "properties": {"collection_times": [{"days": "Mon-Sat", "time": "10:00am"}, {"days": "Sun", "time": "Closed"}], "id": "4843900064", "name": "USPS COLLECTION BOX - BLUE BOX", "address": {"city": "GRAND BLANC", "state": "MI", "street": "1275 HEATHERWOOD DR", "postcode": "48439"}}},
{"geometry": {"type": "Point", "coordinates": [-83.6259603228, 42.9096191128]}, "type": "Feature", "properties": {"collection_times": [{"days": "Mon-Fri", "time": "3:00pm"}, {"days": "Sat", "time": "10:00am"}, {"days": "Sun", "time": "Closed"}], "id": "4843900067", "name": "USPS COLLECTION BOX - BLUE BOX", "address": {"city": "GRAND BLANC", "state": "MI", "street": "8275 HOLLY RD", "postcode": "48439"}}},
{"geometry": {"type": "Point", "coordinates": [-83.6636656344, 42.9443179478]}, "type": "Feature", "properties": {"collection_times": [{"days": "Mon-Fri", "time": "3:00pm"}, {"days": "Sat", "time": "10:00am"}, {"days": "Sun", "time": "Closed"}], "id": "4843900069", "name": "USPS COLLECTION BOX - BLUE BOX", "address": {"city": "GRAND BLANC", "state": "MI", "street": "2240 E HILL RD", "postcode": "48439"}}},
{"geometry": {"type": "Point", "coordinates": [-83.6410814888, 42.8930567287]}, "type": "Feature", "properties": {"collection_times": [{"days": "Mon-Fri", "time": "3:00pm"}, {"days": "Sat", "time": "9:30am"}, {"days": "Sun", "time": "Closed"}], "id": "4843900073", "name": "USPS COLLECTION BOX - BLUE BOX", "address": {"city": "GRAND BLANC", "state": "MI", "street": "1 GENESYS PKWY", "postcode": "48439"}}},
{"geometry": {"type": "Point", "coordinates": [-83.6636656344, 42.9443179478]}, "type": "Feature", "properties": {"collection_times": [{"days": "Mon-Fri", "time": "3:00pm"}, {"days": "Sat", "time": "10:00am"}, {"days": "Sun", "time": "Closed"}], "id": "4843900077", "name": "USPS COLLECTION BOX - BLUE BOX", "address": {"city": "GRAND BLANC", "state": "MI", "street": "2240 E HILL RD", "postcode": "48439"}}},
{"geometry": {"type": "Point", "coordinates": [-83.6092893002, 42.9417111677]}, "type": "Feature", "properties": {"collection_times": [{"days": "Mon-Sat", "time": "10:00am"}, {"days": "Sun", "time": "Closed"}], "id": "4843900079", "name": "USPS COLLECTION BOX - BLUE BOX", "address": {"city": "GRAND BLANC", "state": "MI", "street": "6033 FOUNTAIN POINTE", "postcode": "48439"}}},
{"geometry": {"type": "Point", "coordinates": [-83.6055815321, 42.910104848]}, "type": "Feature", "properties": {"collection_times": [{"days": "Mon-Sat", "time": "11:00am"}, {"days": "Sun", "time": "Closed"}], "id": "4843900081", "name": "USPS COLLECTION BOX - BLUE BOX", "address": {"city": "GRAND BLANC", "state": "MI", "street": "8263 S SAGINAW ST", "postcode": "48439"}}},
{"geometry": {"type": "Point", "coordinates": [-83.6306059941, 42.8877962818]}, "type": "Feature", "properties": {"collection_times": [{"days": "Mon-Sat", "time": "10:00am"}, {"days": "Sun", "time": "Closed"}], "id": "4843900082", "name": "USPS COLLECTION BOX - BLUE BOX", "address": {"city": "GRAND BLANC", "state": "MI", "street": "9463 HOLLY RD", "postcode": "48439"}}},
{"geometry": {"type": "Point", "coordinates": [-83.6288045668, 42.9170497073]}, "type": "Feature", "properties": {"collection_times": [{"days": "Mon-Sat", "time": "10:00am"}, {"days": "Sun", "time": "Closed"}], "id": "4843900083", "name": "USPS COLLECTION BOX - BLUE BOX", "address": {"city": "GRAND BLANC", "state": "MI", "street": "600 HEALTH PARK BLVD", "postcode": "48439"}}},
{"geometry": {"type": "Point", "coordinates": [-83.4035902514, 42.9529842018]}, "type": "Feature", "properties": {"collection_times": [{"days": "Mon-Fri", "time": "3:00pm"}, {"days": "Sat", "time": "12:00pm"}, {"days": "Sun", "time": "Closed"}], "id": "4844000001", "name": "USPS COLLECTION BOX - BLUE BOX", "address": {"city": "HADLEY", "state": "MI", "street": "3481 HADLEY RD", "postcode": "48440"}}},
{"geometry": {"type": "Point", "coordinates": [-83.4035902514, 42.9529842018]}, "type": "Feature", "properties": {"collection_times": [{"days": "Mon-Fri", "time": "3:00pm"}, {"days": "Sat", "time": "12:00pm"}, {"days": "Sun", "time": "Closed"}], "id": "4844000002", "name": "USPS COLLECTION BOX - PO LOBBY", "address": {"city": "HADLEY", "state": "MI", "street": "3481 HADLEY RD", "postcode": "48440"}}},
{"geometry": {"type": "Point", "coordinates": [-82.6519833623, 43.8471572062]}, "type": "Feature", "properties": {"collection_times": [{"days": "Mon-Fri", "time": "3:30pm"}, {"days": "Sat", "time": "12:00pm"}, {"days": "Sun", "time": "Closed"}], "id": "4844100010", "name": "USPS COLLECTION BOX - BLUE BOX", "address": {"city": "HARBOR BEACH", "state": "MI", "street": "110 SCHOOL ST", "postcode": "48441"}}},
{"geometry": {"type": "Point", "coordinates": [-82.6519833623, 43.8471572062]}, "type": "Feature", "properties": {"collection_times": [{"days": "Mon-Fri", "time": "3:30pm"}, {"days": "Sat", "time": "12:00pm"}, {"days": "Sun", "time": "Closed"}], "id": "4844100012", "name": "USPS COLLECTION BOX - PO LOBBY", "address": {"city": "HARBOR BEACH", "state": "MI", "street": "110 SCHOOL ST", "postcode": "48441"}}},
{"geometry": {"type": "Point", "coordinates": [-83.6280914386, 42.8077774638]}, "type": "Feature", "properties": {"collection_times": [{"days": "Mon-Sat", "time": "10:00am"}, {"days": "Sun", "time": "Closed"}], "id": "4844200007", "name": "USPS COLLECTION BOX - BLUE BOX", "address": {"city": "HOLLY", "state": "MI", "street": "15227 N HOLLY RD", "postcode": "48442"}}},
{"geometry": {"type": "Point", "coordinates": [-83.6277687845, 42.7919504578]}, "type": "Feature", "properties": {"collection_times": [{"days": "Mon-Fri", "time": "4:45pm"}, {"days": "Sat", "time": "3:30pm"}, {"days": "Sun", "time": "Closed"}], "id": "4844200010", "name": "USPS COLLECTION BOX - BLUE BOX", "address": {"city": "HOLLY", "state": "MI", "street": "108 W MAPLE ST", "postcode": "48442"}}},
{"geometry": {"type": "Point", "coordinates": [-83.6277687845, 42.7919504578]}, "type": "Feature", "properties": {"collection_times": [{"days": "Mon-Fri", "time": "4:45pm"}, {"days": "Sat", "time": "3:30pm"}, {"days": "Sun", "time": "Closed"}], "id": "4844200011", "name": "USPS COLLECTION BOX - BLUE BOX", "address": {"city": "HOLLY", "state": "MI", "street": "108 W MAPLE ST", "postcode": "48442"}}},
{"geometry": {"type": "Point", "coordinates": [-83.6277687845, 42.7919504578]}, "type": "Feature", "properties": {"collection_times": [{"days": "Mon-Fri", "time": "5:00pm"}, {"days": "Sat", "time": "3:30pm"}, {"days": "Sun", "time": "Closed"}], "id": "4844200013", "name": "USPS COLLECTION BOX - PO LOBBY", "address": {"city": "HOLLY", "state": "MI", "street": "108 W MAPLE ST", "postcode": "48442"}}},
{"geometry": {"type": "Point", "coordinates": [-83.0727059565, 43.0306898116]}, "type": "Feature", "properties": {"collection_times": [{"days": "Mon-Sat", "time": "10:00am"}, {"days": "Sun", "time": "Closed"}], "id": "4844400003", "name": "USPS COLLECTION BOX - BLUE BOX", "address": {"city": "IMLAY CITY", "state": "MI", "street": "433 E CAPAC RD", "postcode": "48444"}}},
{"geometry": {"type": "Point", "coordinates": [-83.077059106, 43.006582273]}, "type": "Feature", "properties": {"collection_times": [{"days": "Mon-Sat", "time": "10:00am"}, {"days": "Sun", "time": "Closed"}], "id": "4844400006", "name": "USPS COLLECTION BOX - BLUE BOX", "address": {"city": "IMLAY CITY", "state": "MI", "street": "6730 NEWARK RD", "postcode": "48444"}}},
{"geometry": {"type": "Point", "coordinates": [-83.0715452248, 43.0070949941]}, "type": "Feature", "properties": {"collection_times": [{"days": "Mon-Sat", "time": "10:00am"}, {"days": "Sun", "time": "Closed"}], "id": "4844400008", "name": "USPS COLLECTION BOX - BLUE BOX", "address": {"city": "IMLAY CITY", "state": "MI", "street": "1821 S CEDAR ST", "postcode": "48444"}}},
{"geometry": {"type": "Point", "coordinates": [-83.0746632416, 43.024140396]}, "type": "Feature", "properties": {"collection_times": [{"days": "Mon-Fri", "time": "5:00pm"}, {"days": "Sat", "time": "2:00pm"}, {"days": "Sun", "time": "Closed"}], "id": "4844400011", "name": "USPS COLLECTION BOX - BLUE BOX", "address": {"city": "IMLAY CITY", "state": "MI", "street": "310 E 3RD ST", "postcode": "48444"}}},
{"geometry": {"type": "Point", "coordinates": [-83.0746632416, 43.024140396]}, "type": "Feature", "properties": {"collection_times": [{"days": "Mon-Fri", "time": "5:00pm"}, {"days": "Sat", "time": "12:00pm"}, {"days": "Sun", "time": "Closed"}], "id": "4844400014", "name": "USPS COLLECTION BOX - PO LOBBY", "address": {"city": "IMLAY CITY", "state": "MI", "street": "310 E 3RD ST", "postcode": "48444"}}},
{"geometry": {"type": "Point", "coordinates": [-83.0773460829, 43.025007767]}, "type": "Feature", "properties": {"collection_times": [{"days": "Mon-Sat", "time": "10:00am"}, {"days": "Sun", "time": "Closed"}], "id": "4844400016", "name": "USPS COLLECTION BOX - BLUE BOX", "address": {"city": "IMLAY CITY", "state": "MI", "street": "148 N ALMONT AVE", "postcode": "48444"}}},
{"geometry": {"type": "Point", "coordinates": [-83.0010176423, 43.9389194138]}, "type": "Feature", "properties": {"collection_times": [{"days": "Mon-Fri", "time": "3:00pm"}, {"days": "Sat", "time": "11:30am"}, {"days": "Sun", "time": "Closed"}], "id": "4844500001", "name": "USPS COLLECTION BOX - BLUE BOX", "address": {"city": "KINDE", "state": "MI", "street": "220 MAIN ST", "postcode": "48445"}}},
{"geometry": {"type": "Point", "coordinates": [-82.9968414087, 43.939097593]}, "type": "Feature", "properties": {"collection_times": [{"days": "Mon-Fri", "time": "3:00pm"}, {"days": "Sat", "time": "11:30am"}, {"days": "Sun", "time": "Closed"}], "id": "4844500002", "name": "USPS COLLECTION BOX - PO LOBBY", "address": {"city": "KINDE", "state": "MI", "street": "220 MAIN ST", "postcode": "48445"}}},
{"geometry": {"type": "Point", "coordinates": [-83.0010176423, 43.9389194138]}, "type": "Feature", "properties": {"collection_times": [{"days": "Mon-Fri", "time": "3:00pm"}, {"days": "Sat", "time": "11:30am"}, {"days": "Sun", "time": "Closed"}], "id": "4844500003", "name": "USPS COLLECTION BOX - PO LOBBY", "address": {"city": "KINDE", "state": "MI", "street": "220 MAIN ST", "postcode": "48445"}}},
{"geometry": {"type": "Point", "coordinates": [-83.3143854264, 43.0529514047]}, "type": "Feature", "properties": {"collection_times": [{"days": "Mon-Fri", "time": "5:15pm"}, {"days": "Sat", "time": "4:15pm"}, {"days": "Sun", "time": "Closed"}], "id": "4844600002", "name": "USPS COLLECTION BOX - BLUE BOX", "address": {"city": "LAPEER", "state": "MI", "street": "567 W NEPESSING ST", "postcode": "48446"}}},
{"geometry": {"type": "Point", "coordinates": [-83.3196249265, 43.044907521]}, "type": "Feature", "properties": {"collection_times": [{"days": "Mon-Sat", "time": "11:00am"}, {"days": "Sun", "time": "Closed"}], "id": "4844600005", "name": "USPS COLLECTION BOX - BLUE BOX", "address": {"city": "LAPEER", "state": "MI", "street": "540 S MAIN ST", "postcode": "48446"}}},
{"geometry": {"type": "Point", "coordinates": [-83.3200897825, 43.0434502869]}, "type": "Feature", "properties": {"collection_times": [{"days": "Mon-Sat", "time": "12:00pm"}, {"days": "Sun", "time": "Closed"}], "id": "4844600006", "name": "USPS COLLECTION BOX - BLUE BOX", "address": {"city": "LAPEER", "state": "MI", "street": "700 S MAIN ST", "postcode": "48446"}}},
{"geometry": {"type": "Point", "coordinates": [-83.3005476734, 43.0510164766]}, "type": "Feature", "properties": {"collection_times": [{"days": "Mon-Sat", "time": "1:00pm"}, {"days": "Sun", "time": "Closed"}], "id": "4844600016", "name": "USPS COLLECTION BOX - BLUE BOX", "address": {"city": "LAPEER", "state": "MI", "street": "555 E GENESEE ST", "postcode": "48446"}}},
{"geometry": {"type": "Point", "coordinates": [-83.3104254239, 43.0543697738]}, "type": "Feature", "properties": {"collection_times": [{"days": "Mon-Sat", "time": "11:00am"}, {"days": "Sun", "time": "Closed"}], "id": "4844600019", "name": "USPS COLLECTION BOX - BLUE BOX", "address": {"city": "LAPEER", "state": "MI", "street": "350 N COURT ST", "postcode": "48446"}}},
{"geometry": {"type": "Point", "coordinates": [-83.3095113683, 43.0551028436]}, "type": "Feature", "properties": {"collection_times": [{"days": "Mon-Sat", "time": "11:00am"}, {"days": "Sun", "time": "Closed"}], "id": "4844600024", "name": "USPS COLLECTION BOX - BLUE BOX", "address": {"city": "LAPEER", "state": "MI", "street": "92 W NEPESSING ST", "postcode": "48446"}}},
{"geometry": {"type": "Point", "coordinates": [-83.325061747, 43.0432808442]}, "type": "Feature", "properties": {"collection_times": [{"days": "Mon-Sat", "time": "12:00pm"}, {"days": "Sun", "time": "Closed"}], "id": "4844600031", "name": "USPS COLLECTION BOX - BLUE BOX", "address": {"city": "LAPEER", "state": "MI", "street": "1555 DEMILLE RD", "postcode": "48446"}}},
{"geometry": {"type": "Point", "coordinates": [-83.3146790382, 43.0528535789]}, "type": "Feature", "properties": {"collection_times": [{"days": "Mon-Fri", "time": "5:15pm"}, {"days": "Sat", "time": "3:30pm"}, {"days": "Sun", "time": "Closed"}], "id": "4844600036", "name": "USPS COLLECTION BOX - PO LOBBY", "address": {"city": "LAPEER", "state": "MI", "street": "567 W NEPESSING ST", "postcode": "48446"}}},
{"geometry": {"type": "Point", "coordinates": [-83.3105303208, 43.0535935375]}, "type": "Feature", "properties": {"collection_times": [{"days": "Mon-Sat", "time": "10:00am"}, {"days": "Sun", "time": "Closed"}], "id": "4844600037", "name": "USPS COLLECTION BOX - BLUE BOX", "address": {"city": "LAPEER", "state": "MI", "street": "255 CLAY ST", "postcode": "48446"}}},
{"geometry": {"type": "Point", "coordinates": [-83.3146790382, 43.0528535789]}, "type": "Feature", "properties": {"collection_times": [{"days": "Mon-Fri", "time": "5:15pm"}, {"days": "Sat", "time": "3:30pm"}, {"days": "Sun", "time": "Closed"}], "id": "4844600038", "name": "USPS COLLECTION BOX - PO LOBBY", "address": {"city": "LAPEER", "state": "MI", "street": "567 W NEPESSING ST", "postcode": "48446"}}},
{"geometry": {"type": "Point", "coordinates": [-83.3146790382, 43.0528535789]}, "type": "Feature", "properties": {"collection_times": [{"days": "Mon-Fri", "time": "5:15pm"}, {"days": "Sat", "time": "3:30pm"}, {"days": "Sun", "time": "Closed"}], "id": "4844600039", "name": "USPS COLLECTION BOX - PO LOBBY", "address": {"city": "LAPEER", "state": "MI", "street": "567 W NEPESSING ST", "postcode": "48446"}}},
{"geometry": {"type": "Point", "coordinates": [-83.9286095772, 42.9819926807]}, "type": "Feature", "properties": {"collection_times": [{"days": "Mon-Fri", "time": "4:30pm"}, {"days": "Sat", "time": "12:00pm"}, {"days": "Sun", "time": "Closed"}], "id": "4844900002", "name": "USPS COLLECTION BOX - BLUE BOX", "address": {"city": "LENNON", "state": "MI", "street": "3195 S SHERIDAN RD", "postcode": "48449"}}},
{"geometry": {"type": "Point", "coordinates": [-83.9286228554, 42.9823396933]}, "type": "Feature", "properties": {"collection_times": [{"days": "Mon-Fri", "time": "4:30pm"}, {"days": "Sat", "time": "12:00pm"}, {"days": "Sun", "time": "Closed"}], "id": "4844900005", "name": "USPS COLLECTION BOX - PO LOBBY", "address": {"city": "LENNON", "state": "MI", "street": "3195 S SHERIDAN RD", "postcode": "48449"}}},
{"geometry": {"type": "Point", "coordinates": [-83.9286095772, 42.9819926807]}, "type": "Feature", "properties": {"collection_times": [{"days": "Mon-Fri", "time": "4:30pm"}, {"days": "Sat", "time": "12:00pm"}, {"days": "Sun", "time": "Closed"}], "id": "4844900006", "name": "USPS COLLECTION BOX - PO LOBBY", "address": {"city": "LENNON", "state": "MI", "street": "3195 S SHERIDAN RD", "postcode": "48449"}}},
{"geometry": {"type": "Point", "coordinates": [-82.5315016516, 43.2754445098]}, "type": "Feature", "properties": {"collection_times": [{"days": "Mon-Fri", "time": "4:00pm"}, {"days": "Sat", "time": "11:00am"}, {"days": "Sun", "time": "Closed"}], "id": "4845000001", "name": "USPS COLLECTION BOX - BLUE BOX", "address": {"city": "LEXINGTON", "state": "MI", "street": "5204 MAIN ST", "postcode": "48450"}}},
{"geometry": {"type": "Point", "coordinates": [-82.5315016516, 43.2754445098]}, "type": "Feature", "properties": {"collection_times": [{"days": "Mon-Fri", "time": "4:00pm"}, {"days": "Sat", "time": "11:00am"}, {"days": "Sun", "time": "Closed"}], "id": "4845000004", "name": "USPS COLLECTION BOX - PO LOBBY", "address": {"city": "LEXINGTON", "state": "MI", "street": "5204 MAIN ST", "postcode": "48450"}}},
{"geometry": {"type": "Point", "coordinates": [-82.5315016516, 43.2754445098]}, "type": "Feature", "properties": {"collection_times": [{"days": "Mon-Fri", "time": "4:00pm"}, {"days": "Sat", "time": "11:00am"}, {"days": "Sun", "time": "Closed"}], "id": "4845000005", "name": "USPS COLLECTION BOX - PO LOBBY", "address": {"city": "LEXINGTON", "state": "MI", "street": "5204 MAIN ST", "postcode": "48450"}}},
{"geometry": {"type": "Point", "coordinates": [-83.7809709518, 42.8131672977]}, "type": "Feature", "properties": {"collection_times": [{"days": "Mon-Fri", "time": "4:30pm"}, {"days": "Sat", "time": "12:00pm"}, {"days": "Sun", "time": "Closed"}], "id": "4845100002", "name": "USPS COLLECTION BOX - BLUE BOX", "address": {"city": "LINDEN", "state": "MI", "street": "215 S MAIN ST", "postcode": "48451"}}},
{"geometry": {"type": "Point", "coordinates": [-83.7808830417, 42.8132100732]}, "type": "Feature", "properties": {"collection_times": [{"days": "Mon-Fri", "time": "5:00pm"}, {"days": "Sat", "time": "12:00pm"}, {"days": "Sun", "time": "Closed"}], "id": "4845100004", "name": "USPS COLLECTION BOX - PO LOBBY", "address": {"city": "LINDEN", "state": "MI", "street": "215 S MAIN ST", "postcode": "48451"}}},
{"geometry": {"type": "Point", "coordinates": [-83.7808830417, 42.8132100732]}, "type": "Feature", "properties": {"collection_times": [{"days": "Mon-Fri", "time": "5:00pm"}, {"days": "Sat", "time": "12:00pm"}, {"days": "Sun", "time": "Closed"}], "id": "4845100007", "name": "USPS COLLECTION BOX - PO LOBBY", "address": {"city": "LINDEN", "state": "MI", "street": "215 S MAIN ST", "postcode": "48451"}}},
{"geometry": {"type": "Point", "coordinates": [-83.7809709518, 42.8131672977]}, "type": "Feature", "properties": {"collection_times": [{"days": "Mon-Fri", "time": "4:30pm"}, {"days": "Sat", "time": "12:00pm"}, {"days": "Sun", "time": "Closed"}], "id": "4845100008", "name": "USPS COLLECTION BOX - BLUE BOX", "address": {"city": "LINDEN", "state": "MI", "street": "215 S MAIN ST", "postcode": "48451"}}},
{"geometry": {"type": "Point", "coordinates": [-83.0812976948, 43.328014753]}, "type": "Feature", "properties": {"collection_times": [{"days": "Mon-Fri", "time": "5:00pm"}, {"days": "Sat", "time": "12:00pm"}, {"days": "Sun", "time": "Closed"}], "id": "4845300013", "name": "USPS COLLECTION BOX - BLUE BOX", "address": {"city": "MARLETTE", "state": "MI", "street": "2984 FENNER ST", "postcode": "48453"}}},
{"geometry": {"type": "Point", "coordinates": [-83.0812976948, 43.328014753]}, "type": "Feature", "properties": {"collection_times": [{"days": "Mon-Fri", "time": "5:00pm"}, {"days": "Sat", "time": "12:00pm"}, {"days": "Sun", "time": "Closed"}], "id": "4845300014", "name": "USPS COLLECTION BOX - BLUE BOX", "address": {"city": "MARLETTE", "state": "MI", "street": "2984 FENNER ST", "postcode": "48453"}}},
{"geometry": {"type": "Point", "coordinates": [-83.0812853324, 43.328120052]}, "type": "Feature", "properties": {"collection_times": [{"days": "Mon-Fri", "time": "5:00pm"}, {"days": "Sat", "time": "3:00pm"}, {"days": "Sun", "time": "Closed"}], "id": "4845300018", "name": "USPS COLLECTION BOX - PO LOBBY", "address": {"city": "MARLETTE", "state": "MI", "street": "2984 FENNER ST", "postcode": "48453"}}},
{"geometry": {"type": "Point", "coordinates": [-83.0812976948, 43.328014753]}, "type": "Feature", "properties": {"collection_times": [{"days": "Mon-Fri", "time": "5:00pm"}, {"days": "Sat", "time": "3:00pm"}, {"days": "Sun", "time": "Closed"}], "id": "4845300019", "name": "USPS COLLECTION BOX - PO LOBBY", "address": {"city": "MARLETTE", "state": "MI", "street": "2984 FENNER ST", "postcode": "48453"}}},
{"geometry": {"type": "Point", "coordinates": [-83.0812853324, 43.328120052]}, "type": "Feature", "properties": {"collection_times": [{"days": "Mon-Fri", "time": "5:00pm"}, {"days": "Sat", "time": "3:00pm"}, {"days": "Sun", "time": "Closed"}], "id": "4845300020", "name": "USPS COLLECTION BOX - PO LOBBY", "address": {"city": "MARLETTE", "state": "MI", "street": "2984 FENNER ST", "postcode": "48453"}}},
{"geometry": {"type": "Point", "coordinates": [-82.8582188835, 43.1866520755]}, "type": "Feature", "properties": {"collection_times": [{"days": "Mon-Fri", "time": "11:45am"}, {"days": "Sat", "time": "9:30am"}, {"days": "Sun", "time": "Closed"}], "id": "4845400001", "name": "USPS COLLECTION BOX - BLUE BOX", "address": {"city": "MELVIN", "state": "MI", "street": "1296 MAIN ST", "postcode": "48454"}}},
{"geometry": {"type": "Point", "coordinates": [-82.8582188835, 43.1866520755]}, "type": "Feature", "properties": {"collection_times": [{"days": "Mon-Fri", "time": "11:45am"}, {"days": "Sat", "time": "9:30am"}, {"days": "Sun", "time": "Closed"}], "id": "4845400002", "name": "USPS COLLECTION BOX - PO LOBBY", "address": {"city": "MELVIN", "state": "MI", "street": "1296 MAIN ST", "postcode": "48454"}}},
{"geometry": {"type": "Point", "coordinates": [-83.2873764077, 42.9473890934]}, "type": "Feature", "properties": {"collection_times": [{"days": "Mon-Fri", "time": "4:30pm"}, {"days": "Sat", "time": "12:00pm"}, {"days": "Sun", "time": "Closed"}], "id": "4845500001", "name": "USPS COLLECTION BOX - BLUE BOX", "address": {"city": "METAMORA", "state": "MI", "street": "3795 N OAK ST", "postcode": "48455"}}},
{"geometry": {"type": "Point", "coordinates": [-83.3133495097, 42.9414606587]}, "type": "Feature", "properties": {"collection_times": [{"days": "Mon-Sat", "time": "10:00am"}, {"days": "Sun", "time": "Closed"}], "id": "4845500003", "name": "USPS COLLECTION BOX - BLUE BOX", "address": {"city": "METAMORA", "state": "MI", "street": "3889 S LAPEER RD", "postcode": "48455"}}},
{"geometry": {"type": "Point", "coordinates": [-83.2873764077, 42.9473890934]}, "type": "Feature", "properties": {"collection_times": [{"days": "Mon-Fri", "time": "5:00pm"}, {"days": "Sat", "time": "12:00pm"}, {"days": "Sun", "time": "Closed"}], "id": "4845500005", "name": "USPS COLLECTION BOX - PO LOBBY", "address": {"city": "METAMORA", "state": "MI", "street": "3795 N OAK ST", "postcode": "48455"}}},
{"geometry": {"type": "Point", "coordinates": [-83.2873860908, 42.9475891781]}, "type": "Feature", "properties": {"collection_times": [{"days": "Mon-Fri", "time": "5:00pm"}, {"days": "Sat", "time": "12:00pm"}, {"days": "Sun", "time": "Closed"}], "id": "4845500007", "name": "USPS COLLECTION BOX - PO LOBBY", "address": {"city": "METAMORA", "state": "MI", "street": "3795 N OAK ST", "postcode": "48455"}}},
{"geometry": {"type": "Point", "coordinates": [-82.7742314037, 43.6714684085]}, "type": "Feature", "properties": {"collection_times": [{"days": "Mon-Fri", "time": "3:00pm"}, {"days": "Sat", "time": "11:00am"}, {"days": "Sun", "time": "Closed"}], "id": "4845600001", "name": "USPS COLLECTION BOX - BLUE BOX", "address": {"city": "MINDEN CITY", "state": "MI", "street": "1608 MAIN ST", "postcode": "48456"}}},
{"geometry": {"type": "Point", "coordinates": [-82.7742314037, 43.6714684085]}, "type": "Feature", "properties": {"collection_times": [{"days": "Mon-Fri", "time": "3:00pm"}, {"days": "Sat", "time": "11:00am"}, {"days": "Sun", "time": "Closed"}], "id": "4845600002", "name": "USPS COLLECTION BOX - PO LOBBY", "address": {"city": "MINDEN CITY", "state": "MI", "street": "1608 MAIN ST", "postcode": "48456"}}},
{"geometry": {"type": "Point", "coordinates": [-83.8939553626, 43.1753136234]}, "type": "Feature", "properties": {"collection_times": [{"days": "Mon-Fri", "time": "4:00pm"}, {"days": "Sat", "time": "11:00am"}, {"days": "Sun", "time": "Closed"}], "id": "4845700002", "name": "USPS COLLECTION BOX - BLUE BOX", "address": {"city": "MONTROSE", "state": "MI", "street": "125 W MAPLE ST", "postcode": "48457"}}},
{"geometry": {"type": "Point", "coordinates": [-83.8820476976, 43.1762055744]}, "type": "Feature", "properties": {"collection_times": [{"days": "Mon-Sat", "time": "9:45am"}, {"days": "Sun", "time": "Closed"}], "id": "4845700003", "name": "USPS COLLECTION BOX - BLUE BOX", "address": {"city": "MONTROSE", "state": "MI", "street": "10236 VIENNA RD", "postcode": "48457"}}},
{"geometry": {"type": "Point", "coordinates": [-83.8939553626, 43.1753136234]}, "type": "Feature", "properties": {"collection_times": [{"days": "Mon-Fri", "time": "4:00pm"}, {"days": "Sat", "time": "11:00am"}, {"days": "Sun", "time": "Closed"}], "id": "4845700004", "name": "USPS COLLECTION BOX - PO LOBBY", "address": {"city": "MONTROSE", "state": "MI", "street": "125 W MAPLE ST", "postcode": "48457"}}},
{"geometry": {"type": "Point", "coordinates": [-83.8939553626, 43.1753136234]}, "type": "Feature", "properties": {"collection_times": [{"days": "Mon-Fri", "time": "4:00pm"}, {"days": "Sat", "time": "11:00am"}, {"days": "Sun", "time": "Closed"}], "id": "4845700005", "name": "USPS COLLECTION BOX - PO LOBBY", "address": {"city": "MONTROSE", "state": "MI", "street": "125 W MAPLE ST", "postcode": "48457"}}},
{"geometry": {"type": "Point", "coordinates": [-83.888399846, 43.177550517]}, "type": "Feature", "properties": {"collection_times": [{"days": "Mon-Sat", "time": "11:00am"}, {"days": "Sun", "time": "Closed"}], "id": "4845700006", "name": "USPS COLLECTION BOX - BLUE BOX", "address": {"city": "MONTROSE", "state": "MI", "street": "141 PARKWAY ST", "postcode": "48457"}}},
{"geometry": {"type": "Point", "coordinates": [-83.692867717, 43.1185457886]}, "type": "Feature", "properties": {"collection_times": [{"days": "Mon-Fri", "time": "4:30pm"}, {"days": "Sat", "time": "3:00pm"}, {"days": "Sun", "time": "Closed"}], "id": "4845800024", "name": "USPS COLLECTION BOX - BLUE BOX", "address": {"city": "MOUNT MORRIS", "state": "MI", "street": "760 ALBERT ST", "postcode": "48458"}}},
{"geometry": {"type": "Point", "coordinates": [-83.7577417359, 43.1088902061]}, "type": "Feature", "properties": {"collection_times": [{"days": "Mon-Sat", "time": "10:00am"}, {"days": "Sun", "time": "Closed"}], "id": "4845800046", "name": "USPS COLLECTION BOX - BLUE BOX", "address": {"city": "MOUNT MORRIS", "state": "MI", "street": "7171 WHITE OAK BLVD", "postcode": "48458"}}},
{"geometry": {"type": "Point", "coordinates": [-83.6945236416, 43.1370443943]}, "type": "Feature", "properties": {"collection_times": [{"days": "Mon-Fri", "time": "10:00am"}, {"days": "Sat", "time": "9:00am"}, {"days": "Sun", "time": "Closed"}], "id": "4845800047", "name": "USPS COLLECTION BOX - BLUE BOX", "address": {"city": "MOUNT MORRIS", "state": "MI", "street": "9098 N SAGINAW RD", "postcode": "48458"}}},
{"geometry": {"type": "Point", "coordinates": [-83.6961496717, 43.1397662635]}, "type": "Feature", "properties": {"collection_times": [{"days": "Mon-Sat", "time": "10:00am"}, {"days": "Sun", "time": "Closed"}], "id": "4845800048", "name": "USPS COLLECTION BOX - BLUE BOX", "address": {"city": "MOUNT MORRIS", "state": "MI", "street": "180 SOUTHCREEK DR", "postcode": "48458"}}},
{"geometry": {"type": "Point", "coordinates": [-83.6141417979, 43.1306391781]}, "type": "Feature", "properties": {"collection_times": [{"days": "Mon-Sat", "time": "9:00am"}, {"days": "Sun", "time": "Closed"}], "id": "4845800049", "name": "USPS COLLECTION BOX - BLUE BOX", "address": {"city": "MOUNT MORRIS", "state": "MI", "street": "8300 COVENTRY BLVD", "postcode": "48458"}}},
{"geometry": {"type": "Point", "coordinates": [-83.6680291276, 43.1197843466]}, "type": "Feature", "properties": {"collection_times": [{"days": "Mon-Sat", "time": "9:00am"}, {"days": "Sun", "time": "Closed"}], "id": "4845800050", "name": "USPS COLLECTION BOX - BLUE BOX", "address": {"city": "MOUNT MORRIS", "state": "MI", "street": "2198 E MOUNT MORRIS RD", "postcode": "48458"}}},
{"geometry": {"type": "Point", "coordinates": [-83.6674956131, 43.1197938103]}, "type": "Feature", "properties": {"collection_times": [{"days": "Mon-Sat", "time": "10:00am"}, {"days": "Sun", "time": "Closed"}], "id": "4845800051", "name": "USPS COLLECTION BOX - BLUE BOX", "address": {"city": "MOUNT MORRIS", "state": "MI", "street": "2197 E MOUNT MORRIS RD", "postcode": "48458"}}},
{"geometry": {"type": "Point", "coordinates": [-83.692867717, 43.1185457886]}, "type": "Feature", "properties": {"collection_times": [{"days": "Mon-Fri", "time": "4:30pm"}, {"days": "Sat", "time": "3:00pm"}, {"days": "Sun", "time": "Closed"}], "id": "4845800052", "name": "USPS COLLECTION BOX - PO LOBBY", "address": {"city": "MOUNT MORRIS", "state": "MI", "street": "760 ALBERT ST", "postcode": "48458"}}},
{"geometry": {"type": "Point", "coordinates": [-83.6942718893, 43.1076034181]}, "type": "Feature", "properties": {"collection_times": [{"days": "Mon-Sat", "time": "10:00am"}, {"days": "Sun", "time": "Closed"}], "id": "4845800055", "name": "USPS COLLECTION BOX - BLUE BOX", "address": {"city": "MOUNT MORRIS", "state": "MI", "street": "7110 N SAGINAW RD", "postcode": "48458"}}},
{"geometry": {"type": "Point", "coordinates": [-83.9730238349, 43.1567503467]}, "type": "Feature", "properties": {"collection_times": [{"days": "Mon-Fri", "time": "4:30pm"}, {"days": "Sat", "time": "12:00pm"}, {"days": "Sun", "time": "Closed"}], "id": "4846000001", "name": "USPS COLLECTION BOX - BLUE BOX", "address": {"city": "NEW LOTHROP", "state": "MI", "street": "7505 S SAGINAW ST", "postcode": "48460"}}},
{"geometry": {"type": "Point", "coordinates": [-83.9682489308, 43.1157612613]}, "type": "Feature", "properties": {"collection_times": [{"days": "Mon-Fri", "time": "4:30pm"}, {"days": "Sat", "time": "12:00pm"}, {"days": "Sun", "time": "Closed"}], "id": "4846000002", "name": "USPS COLLECTION BOX - PO LOBBY", "address": {"city": "NEW LOTHROP", "state": "MI", "street": "7505 S SAGINAW ST", "postcode": "48460"}}},
{"geometry": {"type": "Point", "coordinates": [-83.1932939677, 43.2296685032]}, "type": "Feature", "properties": {"collection_times": [{"days": "Mon-Fri", "time": "4:30pm"}, {"days": "Sat", "time": "11:30am"}, {"days": "Sun", "time": "Closed"}], "id": "4846100001", "name": "USPS COLLECTION BOX - BLUE BOX", "address": {"city": "NORTH BRANCH", "state": "MI", "street": "6720 LINCOLN ST", "postcode": "48461"}}},
{"geometry": {"type": "Point", "coordinates": [-83.2068015816, 43.2075746682]}, "type": "Feature", "properties": {"collection_times": [{"days": "Mon-Sat", "time": "9:00am"}, {"days": "Sun", "time": "Closed"}], "id": "4846100002", "name": "USPS COLLECTION BOX - BLUE BOX", "address": {"city": "NORTH BRANCH", "state": "MI", "street": "6002 N LAPEER RD", "postcode": "48461"}}},
{"geometry": {"type": "Point", "coordinates": [-83.1932939677, 43.2296685032]}, "type": "Feature", "properties": {"collection_times": [{"days": "Mon-Fri", "time": "4:30pm"}, {"days": "Sat", "time": "11:30am"}, {"days": "Sun", "time": "Closed"}], "id": "4846100003", "name": "USPS COLLECTION BOX - PO LOBBY", "address": {"city": "NORTH BRANCH", "state": "MI", "street": "6720 LINCOLN ST", "postcode": "48461"}}},
{"geometry": {"type": "Point", "coordinates": [-83.4440571409, 42.8511946966]}, "type": "Feature", "properties": {"collection_times": [{"days": "Mon-Fri", "time": "4:45pm"}, {"days": "Sat", "time": "12:00pm"}, {"days": "Sun", "time": "Closed"}], "id": "4846200003", "name": "USPS COLLECTION BOX - BLUE BOX", "address": {"city": "ORTONVILLE", "state": "MI", "street": "55 POND ST", "postcode": "48462"}}},
{"geometry": {"type": "Point", "coordinates": [-83.4556690511, 42.8566489461]}, "type": "Feature", "properties": {"collection_times": [{"days": "Mon-Sat", "time": "9:15am"}, {"days": "Sun", "time": "Closed"}], "id": "4846200004", "name": "USPS COLLECTION BOX - BLUE BOX", "address": {"city": "ORTONVILLE", "state": "MI", "street": "260 N ORTONVILLE RD", "postcode": "48462"}}},
{"geometry": {"type": "Point", "coordinates": [-83.4476687146, 42.8399991729]}, "type": "Feature", "properties": {"collection_times": [{"days": "Mon-Sat", "time": "9:30am"}, {"days": "Sun", "time": "Closed"}], "id": "4846200006", "name": "USPS COLLECTION BOX - BLUE BOX", "address": {"city": "ORTONVILLE", "state": "MI", "street": "761 S ORTONVILLE RD", "postcode": "48462"}}},
{"geometry": {"type": "Point", "coordinates": [-83.4440134537, 42.8511904343]}, "type": "Feature", "properties": {"collection_times": [{"days": "Mon-Fri", "time": "5:00pm"}, {"days": "Sat", "time": "12:00pm"}, {"days": "Sun", "time": "Closed"}], "id": "4846200008", "name": "USPS COLLECTION BOX - PO LOBBY", "address": {"city": "ORTONVILLE", "state": "MI", "street": "55 POND ST", "postcode": "48462"}}},
{"geometry": {"type": "Point", "coordinates": [-83.4440571409, 42.8511946966]}, "type": "Feature", "properties": {"collection_times": [{"days": "Mon-Fri", "time": "4:45pm"}, {"days": "Sat", "time": "12:00pm"}, {"days": "Sun", "time": "Closed"}], "id": "4846200009", "name": "USPS COLLECTION BOX - BLUE BOX", "address": {"city": "ORTONVILLE", "state": "MI", "street": "55 POND ST", "postcode": "48462"}}},
{"geometry": {"type": "Point", "coordinates": [-83.5245405974, 43.1642341527]}, "type": "Feature", "properties": {"collection_times": [{"days": "Mon-Fri", "time": "3:00pm"}, {"days": "Sat", "time": "10:00am"}, {"days": "Sun", "time": "Closed"}], "id": "4846300001", "name": "USPS COLLECTION BOX - BLUE BOX", "address": {"city": "OTISVILLE", "state": "MI", "street": "199 N STATE ST", "postcode": "48463"}}},
{"geometry": {"type": "Point", "coordinates": [-83.5245405974, 43.1642341527]}, "type": "Feature", "properties": {"collection_times": [{"days": "Mon-Fri", "time": "3:00pm"}, {"days": "Sat", "time": "10:15am"}, {"days": "Sun", "time": "Closed"}], "id": "4846300002", "name": "USPS COLLECTION BOX - PO LOBBY", "address": {"city": "OTISVILLE", "state": "MI", "street": "199 N STATE ST", "postcode": "48463"}}},
{"geometry": {"type": "Point", "coordinates": [-83.4580984336, 43.2126184715]}, "type": "Feature", "properties": {"collection_times": [{"days": "Mon-Fri", "time": "2:45pm"}, {"days": "Sat", "time": "11:00am"}, {"days": "Sun", "time": "Closed"}], "id": "4846400001", "name": "USPS COLLECTION BOX - BLUE BOX", "address": {"city": "OTTER LAKE", "state": "MI", "street": "6384 DETROIT ST", "postcode": "48464"}}},
{"geometry": {"type": "Point", "coordinates": [-83.4580984336, 43.2126184715]}, "type": "Feature", "properties": {"collection_times": [{"days": "Mon-Fri", "time": "2:45pm"}, {"days": "Sat", "time": "11:00am"}, {"days": "Sun", "time": "Closed"}], "id": "4846400002", "name": "USPS COLLECTION BOX - PO LOBBY", "address": {"city": "OTTER LAKE", "state": "MI", "street": "6384 DETROIT ST", "postcode": "48464"}}},
{"geometry": {"type": "Point", "coordinates": [-82.8155766596, 43.2585784979]}, "type": "Feature", "properties": {"collection_times": [{"days": "Mon-Fri", "time": "4:00pm"}, {"days": "Sat", "time": "11:00am"}, {"days": "Sun", "time": "Closed"}], "id": "4846600003", "name": "USPS COLLECTION BOX - BLUE BOX", "address": {"city": "PECK", "state": "MI", "street": "46 E LAPEER ST", "postcode": "48466"}}},
{"geometry": {"type": "Point", "coordinates": [-82.8155766596, 43.2585784979]}, "type": "Feature", "properties": {"collection_times": [{"days": "Mon-Fri", "time": "4:00pm"}, {"days": "Sat", "time": "11:00am"}, {"days": "Sun", "time": "Closed"}], "id": "4846600004", "name": "USPS COLLECTION BOX - BLUE BOX", "address": {"city": "PECK", "state": "MI", "street": "46 E LAPEER ST", "postcode": "48466"}}},
{"geometry": {"type": "Point", "coordinates": [-82.9688257752, 44.02448911]}, "type": "Feature", "properties": {"collection_times": [{"days": "Mon-Fri", "time": "3:00pm"}, {"days": "Sat", "time": "11:00am"}, {"days": "Sun", "time": "Closed"}], "id": "4846700001", "name": "USPS COLLECTION BOX - BLUE BOX", "address": {"city": "PORT AUSTIN", "state": "MI", "street": "8710 NORTH ST", "postcode": "48467"}}},
{"geometry": {"type": "Point", "coordinates": [-82.9688257752, 44.02448911]}, "type": "Feature", "properties": {"collection_times": [{"days": "Mon-Fri", "time": "3:00pm"}, {"days": "Sat", "time": "11:00am"}, {"days": "Sun", "time": "Closed"}], "id": "4846700002", "name": "USPS COLLECTION BOX - PO LOBBY", "address": {"city": "PORT AUSTIN", "state": "MI", "street": "8710 NORTH ST", "postcode": "48467"}}},
{"geometry": {"type": "Point", "coordinates": [-82.9688257752, 44.02448911]}, "type": "Feature", "properties": {"collection_times": [{"days": "Mon-Fri", "time": "3:00pm"}, {"days": "Sat", "time": "11:00am"}, {"days": "Sun", "time": "Closed"}], "id": "4846700003", "name": "USPS COLLECTION BOX - PO LOBBY", "address": {"city": "PORT AUSTIN", "state": "MI", "street": "8710 NORTH ST", "postcode": "48467"}}},
{"geometry": {"type": "Point", "coordinates": [-82.7118064631, 43.9364138942]}, "type": "Feature", "properties": {"collection_times": [{"days": "Mon-Fri", "time": "4:00pm"}, {"days": "Sat", "time": "11:00am"}, {"days": "Sun", "time": "Closed"}], "id": "4846800001", "name": "USPS COLLECTION BOX - BLUE BOX", "address": {"city": "PORT HOPE", "state": "MI", "street": "4456 MAIN ST", "postcode": "48468"}}},
{"geometry": {"type": "Point", "coordinates": [-82.7118064631, 43.9364138942]}, "type": "Feature", "properties": {"collection_times": [{"days": "Mon-Fri", "time": "4:00pm"}, {"days": "Sat", "time": "11:00am"}, {"days": "Sun", "time": "Closed"}], "id": "4846800002", "name": "USPS COLLECTION BOX - PO LOBBY", "address": {"city": "PORT HOPE", "state": "MI", "street": "4456 MAIN ST", "postcode": "48468"}}},
{"geometry": {"type": "Point", "coordinates": [-82.5423655741, 43.4318937901]}, "type": "Feature", "properties": {"collection_times": [{"days": "Mon-Fri", "time": "4:00pm"}, {"days": "Sat", "time": "11:00am"}, {"days": "Sun", "time": "Closed"}], "id": "4846900001", "name": "USPS COLLECTION BOX - BLUE BOX", "address": {"city": "PORT SANILAC", "state": "MI", "street": "34 N RIDGE ST", "postcode": "48469"}}},
{"geometry": {"type": "Point", "coordinates": [-82.5422888867, 43.4316065084]}, "type": "Feature", "properties": {"collection_times": [{"days": "Mon-Fri", "time": "4:00pm"}, {"days": "Sat", "time": "11:00am"}, {"days": "Sun", "time": "Closed"}], "id": "4846900002", "name": "USPS COLLECTION BOX - PO LOBBY", "address": {"city": "PORT SANILAC", "state": "MI", "street": "34 N RIDGE ST", "postcode": "48469"}}},
{"geometry": {"type": "Point", "coordinates": [-82.5423655741, 43.4318937901]}, "type": "Feature", "properties": {"collection_times": [{"days": "Mon-Fri", "time": "4:00pm"}, {"days": "Sat", "time": "11:00am"}, {"days": "Sun", "time": "Closed"}], "id": "4846900003", "name": "USPS COLLECTION BOX - BLUE BOX", "address": {"city": "PORT SANILAC", "state": "MI", "street": "34 N RIDGE ST", "postcode": "48469"}}},
{"geometry": {"type": "Point", "coordinates": [-82.7391726913, 43.715525953]}, "type": "Feature", "properties": {"collection_times": [{"days": "Mon-Fri", "time": "12:00pm"}, {"days": "Sat", "time": "11:00am"}, {"days": "Sun", "time": "Closed"}], "id": "4847000001", "name": "USPS COLLECTION BOX - BLUE BOX", "address": {"city": "RUTH", "state": "MI", "street": "7031 E ATWATER RD", "postcode": "48470"}}},
{"geometry": {"type": "Point", "coordinates": [-82.7391726913, 43.715525953]}, "type": "Feature", "properties": {"collection_times": [{"days": "Mon-Fri", "time": "12:00pm"}, {"days": "Sat", "time": "11:00am"}, {"days": "Sun", "time": "Closed"}], "id": "4847000002", "name": "USPS COLLECTION BOX - PO LOBBY", "address": {"city": "RUTH", "state": "MI", "street": "7031 E ATWATER RD", "postcode": "48470"}}},
{"geometry": {"type": "Point", "coordinates": [-82.8283169085, 43.4200156617]}, "type": "Feature", "properties": {"collection_times": [{"days": "Mon-Fri", "time": "5:00pm"}, {"days": "Sat", "time": "12:30pm"}, {"days": "Sun", "time": "Closed"}], "id": "4847100001", "name": "USPS COLLECTION BOX - BLUE BOX", "address": {"city": "SANDUSKY", "state": "MI", "street": "55 S MORSE ST", "postcode": "48471"}}},
{"geometry": {"type": "Point", "coordinates": [-82.8283169085, 43.4200156617]}, "type": "Feature", "properties": {"collection_times": [{"days": "Mon-Fri", "time": "5:00pm"}, {"days": "Sat", "time": "12:00pm"}, {"days": "Sun", "time": "Closed"}], "id": "4847100008", "name": "USPS COLLECTION BOX - PO LOBBY", "address": {"city": "SANDUSKY", "state": "MI", "street": "55 S MORSE ST", "postcode": "48471"}}},
{"geometry": {"type": "Point", "coordinates": [-82.8560507411, 43.4206838761]}, "type": "Feature", "properties": {"collection_times": [{"days": "Mon-Sat", "time": "8:30am"}, {"days": "Sun", "time": "Closed"}], "id": "4847100011", "name": "USPS COLLECTION BOX - BLUE BOX", "address": {"city": "SANDUSKY", "state": "MI", "street": "655 W SANILAC RD", "postcode": "48471"}}},
{"geometry": {"type": "Point", "coordinates": [-82.9707423442, 43.4609240442]}, "type": "Feature", "properties": {"collection_times": [{"days": "Mon-Fri", "time": "3:45pm"}, {"days": "Sat", "time": "11:00am"}, {"days": "Sun", "time": "Closed"}], "id": "4847200001", "name": "USPS COLLECTION BOX - BLUE BOX", "address": {"city": "SNOVER", "state": "MI", "street": "1493 MAIN ST", "postcode": "48472"}}},
{"geometry": {"type": "Point", "coordinates": [-82.9701502561, 43.452323926]}, "type": "Feature", "properties": {"collection_times": [{"days": "Mon-Fri", "time": "3:45pm"}, {"days": "Sat", "time": "11:00am"}, {"days": "Sun", "time": "Closed"}], "id": "4847200002", "name": "USPS COLLECTION BOX - PO LOBBY", "address": {"city": "SNOVER", "state": "MI", "street": "1493 MAIN ST", "postcode": "48472"}}},
{"geometry": {"type": "Point", "coordinates": [-83.833573029, 42.9572607693]}, "type": "Feature", "properties": {"collection_times": [{"days": "Mon-Fri", "time": "4:45pm"}, {"days": "Sat", "time": "2:45pm"}, {"days": "Sun", "time": "Closed"}], "id": "4847300001", "name": "USPS COLLECTION BOX - BLUE BOX", "address": {"city": "SWARTZ CREEK", "state": "MI", "street": "8055 PAUL FORTINO DR", "postcode": "48473"}}},
{"geometry": {"type": "Point", "coordinates": [-83.8252394611, 42.9415710358]}, "type": "Feature", "properties": {"collection_times": [{"days": "Mon-Sat", "time": "11:00am"}, {"days": "Sun", "time": "Closed"}], "id": "4847300004", "name": "USPS COLLECTION BOX - BLUE BOX", "address": {"city": "SWARTZ CREEK", "state": "MI", "street": "7350 CRYSTAL LAKE DR", "postcode": "48473"}}},
{"geometry": {"type": "Point", "coordinates": [-83.8541062944, 42.9569836103]}, "type": "Feature", "properties": {"collection_times": [{"days": "Mon-Sat", "time": "9:00am"}, {"days": "Sun", "time": "Closed"}], "id": "4847300007", "name": "USPS COLLECTION BOX - BLUE BOX", "address": {"city": "SWARTZ CREEK", "state": "MI", "street": "9090 MILLER RD", "postcode": "48473"}}},
{"geometry": {"type": "Point", "coordinates": [-83.7711240014, 42.9425865573]}, "type": "Feature", "properties": {"collection_times": [{"days": "Mon-Sat", "time": "10:00am"}, {"days": "Sun", "time": "Closed"}], "id": "4847300010", "name": "USPS COLLECTION BOX - BLUE BOX", "address": {"city": "SWARTZ CREEK", "state": "MI", "street": "6012 LINDEN RD", "postcode": "48473"}}},
{"geometry": {"type": "Point", "coordinates": [-83.833573029, 42.9572607693]}, "type": "Feature", "properties": {"collection_times": [{"days": "Mon-Fri", "time": "5:00pm"}, {"days": "Sat", "time": "3:00pm"}, {"days": "Sun", "time": "Closed"}], "id": "4847300015", "name": "USPS COLLECTION BOX - PO LOBBY", "address": {"city": "SWARTZ CREEK", "state": "MI", "street": "8055 PAUL FORTINO DR", "postcode": "48473"}}},
{"geometry": {"type": "Point", "coordinates": [-83.833573029, 42.9572607693]}, "type": "Feature", "properties": {"collection_times": [{"days": "Mon-Fri", "time": "5:00pm"}, {"days": "Sat", "time": "3:00pm"}, {"days": "Sun", "time": "Closed"}], "id": "4847300017", "name": "USPS COLLECTION BOX - PO LOBBY", "address": {"city": "SWARTZ CREEK", "state": "MI", "street": "8055 PAUL FORTINO DR", "postcode": "48473"}}},
{"geometry": {"type": "Point", "coordinates": [-83.8130846085, 42.9635206567]}, "type": "Feature", "properties": {"collection_times": [{"days": "Mon-Sat", "time": "10:00am"}, {"days": "Sun", "time": "Closed"}], "id": "4847300018", "name": "USPS COLLECTION BOX - BLUE BOX", "address": {"city": "SWARTZ CREEK", "state": "MI", "street": "7070 MILLER RD STE A", "postcode": "48473"}}},
{"geometry": {"type": "Point", "coordinates": [-82.9303203779, 43.7112323462]}, "type": "Feature", "properties": {"collection_times": [{"days": "Mon-Fri", "time": "4:30pm"}, {"days": "Sat", "time": "11:00am"}, {"days": "Sun", "time": "Closed"}], "id": "4847500001", "name": "USPS COLLECTION BOX - BLUE BOX", "address": {"city": "UBLY", "state": "MI", "street": "4482 GARFIELD ST", "postcode": "48475"}}},
{"geometry": {"type": "Point", "coordinates": [-82.9302789769, 43.7105979321]}, "type": "Feature", "properties": {"collection_times": [{"days": "Mon-Fri", "time": "4:30pm"}, {"days": "Sat", "time": "11:00am"}, {"days": "Sun", "time": "Closed"}], "id": "4847500002", "name": "USPS COLLECTION BOX - PO LOBBY", "address": {"city": "UBLY", "state": "MI", "street": "4482 GARFIELD ST", "postcode": "48475"}}},
{"geometry": {"type": "Point", "coordinates": [-82.9303203779, 43.7112323462]}, "type": "Feature", "properties": {"collection_times": [{"days": "Mon-Fri", "time": "4:30pm"}, {"days": "Sat", "time": "11:00am"}, {"days": "Sun", "time": "Closed"}], "id": "4847500003", "name": "USPS COLLECTION BOX - PO LOBBY", "address": {"city": "UBLY", "state": "MI", "street": "4482 GARFIELD ST", "postcode": "48475"}}},
{"geometry": {"type": "Point", "coordinates": [-84.0320530355, 42.9392892984]}, "type": "Feature", "properties": {"collection_times": [{"days": "Mon-Fri", "time": "3:00pm"}, {"days": "Sat", "time": "10:00am"}, {"days": "Sun", "time": "Closed"}], "id": "4847600002", "name": "USPS COLLECTION BOX - BLUE BOX", "address": {"city": "VERNON", "state": "MI", "street": "137 E MAIN ST", "postcode": "48476"}}},
{"geometry": {"type": "Point", "coordinates": [-84.0320530355, 42.9392892984]}, "type": "Feature", "properties": {"collection_times": [{"days": "Mon-Fri", "time": "3:00pm"}, {"days": "Sat", "time": "10:00am"}, {"days": "Sun", "time": "Closed"}], "id": "4847600004", "name": "USPS COLLECTION BOX - PO LOBBY", "address": {"city": "VERNON", "state": "MI", "street": "137 E MAIN ST", "postcode": "48476"}}},
{"geometry": {"type": "Point", "coordinates": [-83.6328615022, 42.9259533184]}, "type": "Feature", "properties": {"collection_times": [{"days": "Mon-Fri", "time": "4:45pm"}, {"days": "Sat", "time": "2:30pm"}, {"days": "Sun", "time": "Closed"}], "id": "4848000001", "name": "USPS COLLECTION BOX - BLUE BOX", "address": {"city": "GRAND BLANC", "state": "MI", "street": "11426 DAVIS ST", "postcode": "48480"}}},
{"geometry": {"type": "Point", "coordinates": [-83.6328615022, 42.9259533184]}, "type": "Feature", "properties": {"collection_times": [{"days": "Mon-Fri", "time": "5:00pm"}, {"days": "Sat", "time": "2:30pm"}, {"days": "Sun", "time": "Closed"}], "id": "4848000003", "name": "USPS COLLECTION BOX - PO LOBBY", "address": {"city": "GRAND BLANC", "state": "MI", "street": "11426 DAVIS ST", "postcode": "48480"}}},
{"geometry": {"type": "Point", "coordinates": [-83.6328615022, 42.9259533184]}, "type": "Feature", "properties": {"collection_times": [{"days": "Mon-Fri", "time": "5:00pm"}, {"days": "Sat", "time": "2:30pm"}, {"days": "Sun", "time": "Closed"}], "id": "4848000004", "name": "USPS COLLECTION BOX - APC", "address": {"city": "GRAND BLANC", "state": "MI", "street": "11426 DAVIS ST", "postcode": "48480"}}}
]}
