{"type": "FeatureCollection", "features": [
{"geometry": {"type": "Point", "coordinates": [-83.69341661, 43.0149114855]}, "type": "Feature", "properties": {"collection_times": [{"days": "Mon-Fri", "time": "10:00am"}, {"days": "Sat-Sun", "time": "Closed"}], "id": "4850200003", "name": "USPS COLLECTION BOX - BLUE BOX", "address": {"city": "FLINT", "state": "MI", "street": "444 CHURCH ST", "postcode": "48502"}}},
{"geometry": {"type": "Point", "coordinates": [-83.685055456, 43.0138184314]}, "type": "Feature", "properties": {"collection_times": [{"days": "Mon-Fri", "time": "11:00am"}, {"days": "Sat-Sun", "time": "Closed"}], "id": "4850200008", "name": "USPS COLLECTION BOX - BLUE BOX", "address": {"city": "FLINT", "state": "MI", "street": "302 E COURT ST", "postcode": "48502"}}},
{"geometry": {"type": "Point", "coordinates": [-83.6925342413, 43.0137584136]}, "type": "Feature", "properties": {"collection_times": [{"days": "Mon-Sat", "time": "12:00pm"}, {"days": "Sun", "time": "Closed"}], "id": "4850200014", "name": "USPS COLLECTION BOX - BLUE BOX", "address": {"city": "FLINT", "state": "MI", "street": "600 CHURCH ST", "postcode": "48502"}}},
{"geometry": {"type": "Point", "coordinates": [-83.6897416836, 43.0146672868]}, "type": "Feature", "properties": {"collection_times": [{"days": "Mon-Fri", "time": "3:00pm"}, {"days": "Sat-Sun", "time": "Closed"}], "id": "4850200020", "name": "USPS COLLECTION BOX - BLUE BOX", "address": {"city": "FLINT", "state": "MI", "street": "630 S SAGINAW ST", "postcode": "48502"}}},
{"geometry": {"type": "Point", "coordinates": [-83.6869868246, 43.0115236694]}, "type": "Feature", "properties": {"collection_times": [{"days": "Mon-Fri", "time": "9:30am"}, {"days": "Sat-Sun", "time": "Closed"}], "id": "4850200022", "name": "USPS COLLECTION BOX - BLUE BOX", "address": {"city": "FLINT", "state": "MI", "street": "1002 S SAGINAW ST", "postcode": "48502"}}},
{"geometry": {"type": "Point", "coordinates": [-83.6894496262, 43.0145312955]}, "type": "Feature", "properties": {"collection_times": [{"days": "Mon-Fri", "time": "10:00am"}, {"days": "Sat-Sun", "time": "Closed"}], "id": "4850200026", "name": "USPS COLLECTION BOX - BLUE BOX", "address": {"city": "FLINT", "state": "MI", "street": "653 S SAGINAW ST", "postcode": "48502"}}},
{"geometry": {"type": "Point", "coordinates": [-83.690836124, 43.015999678]}, "type": "Feature", "properties": {"collection_times": [{"days": "Mon-Fri", "time": "12:00pm"}, {"days": "Sat-Sun", "time": "Closed"}], "id": "4850200028", "name": "USPS COLLECTION BOX - BLUE BOX", "address": {"city": "FLINT", "state": "MI", "street": "460 S SAGINAW ST", "postcode": "48502"}}},
{"geometry": {"type": "Point", "coordinates": [-83.6916114146, 43.0169899444]}, "type": "Feature", "properties": {"collection_times": [{"days": "Mon-Fri", "time": "3:00pm"}, {"days": "Sat-Sun", "time": "Closed"}], "id": "4850200030", "name": "USPS COLLECTION BOX - BLUE BOX", "address": {"city": "FLINT", "state": "MI", "street": "352 S SAGINAW ST", "postcode": "48502"}}},
{"geometry": {"type": "Point", "coordinates": [-83.6874793389, 43.0120936772]}, "type": "Feature", "properties": {"collection_times": [{"days": "Mon-Fri", "time": "3:00pm"}, {"days": "Sat-Sun", "time": "Closed"}], "id": "4850200034", "name": "USPS COLLECTION BOX - BLUE BOX", "address": {"city": "FLINT", "state": "MI", "street": "900 S SAGINAW ST", "postcode": "48502"}}},
{"geometry": {"type": "Point", "coordinates": [-83.6868618343, 43.0130081045]}, "type": "Feature", "properties": {"collection_times": [{"days": "Mon-Fri", "time": "11:30am"}, {"days": "Sat-Sun", "time": "Closed"}], "id": "4850200036", "name": "USPS COLLECTION BOX - BLUE BOX", "address": {"city": "FLINT", "state": "MI", "street": "111 E COURT ST", "postcode": "48502"}}},
{"geometry": {"type": "Point", "coordinates": [-83.6935195274, 43.0198314118]}, "type": "Feature", "properties": {"collection_times": [{"days": "Mon-Fri", "time": "11:00am"}, {"days": "Sat-Sun", "time": "Closed"}], "id": "4850200038", "name": "USPS COLLECTION BOX - BLUE BOX", "address": {"city": "FLINT", "state": "MI", "street": "432 N SAGINAW ST", "postcode": "48502"}}},
{"geometry": {"type": "Point", "coordinates": [-83.6920538412, 43.0140171685]}, "type": "Feature", "properties": {"collection_times": [{"days": "Mon-Fri", "time": "10:30am"}, {"days": "Sat-Sun", "time": "Closed"}], "id": "4850200053", "name": "USPS COLLECTION BOX - BLUE BOX", "address": {"city": "FLINT", "state": "MI", "street": "226 W 2ND ST", "postcode": "48502"}}},
{"geometry": {"type": "Point", "coordinates": [-83.686871298, 43.0096603306]}, "type": "Feature", "properties": {"collection_times": [{"days": "Mon-Fri", "time": "3:00pm"}, {"days": "Sat-Sun", "time": "Closed"}], "id": "4850200054", "name": "USPS COLLECTION BOX - BLUE BOX", "address": {"city": "FLINT", "state": "MI", "street": "1101 BEACH ST", "postcode": "48502"}}},
{"geometry": {"type": "Point", "coordinates": [-83.6865235081, 43.0233329704]}, "type": "Feature", "properties": {"collection_times": [{"days": "Mon-Sat", "time": "5:30pm"}, {"days": "Sun", "time": "Closed"}], "id": "4850200057", "name": "USPS COLLECTION BOX - BLUE BOX", "address": {"city": "FLINT", "state": "MI", "street": "250 E BOULEVARD DR", "postcode": "48502"}}},
{"geometry": {"type": "Point", "coordinates": [-83.6864336032, 43.0111130042]}, "type": "Feature", "properties": {"collection_times": [{"days": "Mon-Fri", "time": "3:00pm"}, {"days": "Sat-Sun", "time": "Closed"}], "id": "4850200067", "name": "USPS COLLECTION BOX - BLUE BOX", "address": {"city": "FLINT", "state": "MI", "street": "1101 S SAGINAW ST", "postcode": "48502"}}},
{"geometry": {"type": "Point", "coordinates": [-83.6914422515, 43.0182805526]}, "type": "Feature", "properties": {"collection_times": [{"days": "Mon-Fri", "time": "10:30am"}, {"days": "Sat-Sun", "time": "Closed"}], "id": "4850200074", "name": "USPS COLLECTION BOX - BLUE BOX", "address": {"city": "FLINT", "state": "MI", "street": "125 E UNION ST", "postcode": "48502"}}},
{"geometry": {"type": "Point", "coordinates": [-83.6889222557, 43.0117583478]}, "type": "Feature", "properties": {"collection_times": [{"days": "Mon-Fri", "time": "10:00am"}, {"days": "Sat-Sun", "time": "Closed"}], "id": "4850200076", "name": "USPS COLLECTION BOX - BLUE BOX", "address": {"city": "FLINT", "state": "MI", "street": "919 BEACH ST", "postcode": "48502"}}},
{"geometry": {"type": "Point", "coordinates": [-83.6865235081, 43.0233329704]}, "type": "Feature", "properties": {"collection_times": [{"days": "Mon-Sat", "time": "5:30pm"}, {"days": "Sun", "time": "Closed"}], "id": "4850200079", "name": "USPS COLLECTION BOX - PO LOBBY", "address": {"city": "FLINT", "state": "MI", "street": "250 E BOULEVARD DR", "postcode": "48502"}}},
{"geometry": {"type": "Point", "coordinates": [-83.6865235081, 43.0233329704]}, "type": "Feature", "properties": {"collection_times": [{"days": "Mon-Sat", "time": "5:30pm"}, {"days": "Sun", "time": "Closed"}], "id": "4850200080", "name": "USPS COLLECTION BOX - PO LOBBY", "address": {"city": "FLINT", "state": "MI", "street": "250 E BOULEVARD DR", "postcode": "48502"}}},
{"geometry": {"type": "Point", "coordinates": [-83.6856047731, 43.0123358634]}, "type": "Feature", "properties": {"collection_times": [{"days": "Mon-Fri", "time": "9:30am"}, {"days": "Sat-Sun", "time": "Closed"}], "id": "4850200083", "name": "USPS COLLECTION BOX - BLUE BOX", "address": {"city": "FLINT", "state": "MI", "street": "210 E 5TH ST", "postcode": "48502"}}},
{"geometry": {"type": "Point", "coordinates": [-83.6822908809, 43.0210581403]}, "type": "Feature", "properties": {"collection_times": [{"days": "Mon-Sat", "time": "9:00am"}, {"days": "Sun", "time": "Closed"}], "id": "4850300005", "name": "USPS COLLECTION BOX - BLUE BOX", "address": {"city": "FLINT", "state": "MI", "street": "814 KEARSLEY ST", "postcode": "48503"}}},
{"geometry": {"type": "Point", "coordinates": [-83.7240990166, 42.9962940773]}, "type": "Feature", "properties": {"collection_times": [{"days": "Mon-Sat", "time": "10:00am"}, {"days": "Sun", "time": "Closed"}], "id": "4850300011", "name": "USPS COLLECTION BOX - BLUE BOX", "address": {"city": "FLINT", "state": "MI", "street": "2849 MILLER RD", "postcode": "48503"}}},
{"geometry": {"type": "Point", "coordinates": [-83.7330851408, 42.9940335193]}, "type": "Feature", "properties": {"collection_times": [{"days": "Mon-Sat", "time": "11:00am"}, {"days": "Sun", "time": "Closed"}], "id": "4850300025", "name": "USPS COLLECTION BOX - BLUE BOX", "address": {"city": "FLINT", "state": "MI", "street": "2284 S BALLENGER HWY", "postcode": "48503"}}},
{"geometry": {"type": "Point", "coordinates": [-83.7306265842, 43.0102612738]}, "type": "Feature", "properties": {"collection_times": [{"days": "Mon-Sat", "time": "10:00am"}, {"days": "Sun", "time": "Closed"}], "id": "4850300026", "name": "USPS COLLECTION BOX - BLUE BOX", "address": {"city": "FLINT", "state": "MI", "street": "3509 BEECHER RD", "postcode": "48503"}}},
{"geometry": {"type": "Point", "coordinates": [-83.7168794181, 43.004460043]}, "type": "Feature", "properties": {"collection_times": [{"days": "Mon-Sat", "time": "9:00am"}, {"days": "Sun", "time": "Closed"}], "id": "4850300028", "name": "USPS COLLECTION BOX - BLUE BOX", "address": {"city": "FLINT", "state": "MI", "street": "2321 CORUNNA RD", "postcode": "48503"}}},
{"geometry": {"type": "Point", "coordinates": [-83.6774634445, 43.0171028836]}, "type": "Feature", "properties": {"collection_times": [{"days": "Mon-Sat", "time": "10:00am"}, {"days": "Sun", "time": "Closed"}], "id": "4850300030", "name": "USPS COLLECTION BOX - BLUE BOX", "address": {"city": "FLINT", "state": "MI", "street": "902 E COURT ST", "postcode": "48503"}}},
{"geometry": {"type": "Point", "coordinates": [-83.6640709469, 43.0183467983]}, "type": "Feature", "properties": {"collection_times": [{"days": "Mon-Sat", "time": "11:00am"}, {"days": "Sun", "time": "Closed"}], "id": "4850300032", "name": "USPS COLLECTION BOX - BLUE BOX", "address": {"city": "FLINT", "state": "MI", "street": "1909 E COURT ST", "postcode": "48503"}}},
{"geometry": {"type": "Point", "coordinates": [-83.701992134, 43.0067544406]}, "type": "Feature", "properties": {"collection_times": [{"days": "Mon-Sat", "time": "9:00am"}, {"days": "Sun", "time": "Closed"}], "id": "4850300034", "name": "USPS COLLECTION BOX - BLUE BOX", "address": {"city": "FLINT", "state": "MI", "street": "1277 W COURT ST", "postcode": "48503"}}},
{"geometry": {"type": "Point", "coordinates": [-83.6545825845, 43.0171708678]}, "type": "Feature", "properties": {"collection_times": [{"days": "Mon-Sat", "time": "12:00pm"}, {"days": "Sun", "time": "Closed"}], "id": "4850300037", "name": "USPS COLLECTION BOX - BLUE BOX", "address": {"city": "FLINT", "state": "MI", "street": "915 S DORT HWY", "postcode": "48503"}}},
{"geometry": {"type": "Point", "coordinates": [-83.6784793871, 43.0228053707]}, "type": "Feature", "properties": {"collection_times": [{"days": "Mon-Fri", "time": "9:45am"}, {"days": "Sat-Sun", "time": "Closed"}], "id": "4850300038", "name": "USPS COLLECTION BOX - BLUE BOX", "address": {"city": "FLINT", "state": "MI", "street": "1025 E KEARSLEY ST", "postcode": "48503"}}},
{"geometry": {"type": "Point", "coordinates": [-83.6935112467, 43.022448117]}, "type": "Feature", "properties": {"collection_times": [{"days": "Mon-Sat", "time": "10:00am"}, {"days": "Sun", "time": "Closed"}], "id": "4850300043", "name": "USPS COLLECTION BOX - BLUE BOX", "address": {"city": "FLINT", "state": "MI", "street": "711 N SAGINAW ST", "postcode": "48503"}}},
{"geometry": {"type": "Point", "coordinates": [-83.6549668947, 43.0233211408]}, "type": "Feature", "properties": {"collection_times": [{"days": "Mon-Fri", "time": "10:00am"}, {"days": "Sat-Sun", "time": "Closed"}], "id": "4850300049", "name": "USPS COLLECTION BOX - BLUE BOX", "address": {"city": "FLINT", "state": "MI", "street": "400 S DORT HWY", "postcode": "48503"}}},
{"geometry": {"type": "Point", "coordinates": [-83.6931445294, 43.0101536245]}, "type": "Feature", "properties": {"collection_times": [{"days": "Mon-Fri", "time": "3:00pm"}, {"days": "Sat-Sun", "time": "Closed"}], "id": "4850300050", "name": "USPS COLLECTION BOX - BLUE BOX", "address": {"city": "FLINT", "state": "MI", "street": "415 W COURT ST", "postcode": "48503"}}},
{"geometry": {"type": "Point", "coordinates": [-83.6373268862, 43.0100808769]}, "type": "Feature", "properties": {"collection_times": [{"days": "Mon-Sat", "time": "10:00am"}, {"days": "Sun", "time": "Closed"}], "id": "4850300054", "name": "USPS COLLECTION BOX - BLUE BOX", "address": {"city": "FLINT", "state": "MI", "street": "3753 LAPEER RD", "postcode": "48503"}}},
{"geometry": {"type": "Point", "coordinates": [-83.6890242833, 43.0077971703]}, "type": "Feature", "properties": {"collection_times": [{"days": "Mon-Fri", "time": "3:00pm"}, {"days": "Sat-Sun", "time": "Closed"}], "id": "4850300064", "name": "USPS COLLECTION BOX - BLUE BOX", "address": {"city": "FLINT", "state": "MI", "street": "1121 S GRAND TRAVERSE ST", "postcode": "48503"}}},
{"geometry": {"type": "Point", "coordinates": [-83.7437795673, 43.0280357331]}, "type": "Feature", "properties": {"collection_times": [{"days": "Mon-Sat", "time": "1:00pm"}, {"days": "Sun", "time": "Closed"}], "id": "4850400009", "name": "USPS COLLECTION BOX - BLUE BOX", "address": {"city": "FLINT", "state": "MI", "street": "G3348 FLUSHING RD", "postcode": "48504"}}},
{"geometry": {"type": "Point", "coordinates": [-83.7316289165, 43.0440222593]}, "type": "Feature", "properties": {"collection_times": [{"days": "Mon-Fri", "time": "5:00pm"}, {"days": "Sat", "time": "3:00pm"}, {"days": "Sun", "time": "Closed"}], "id": "4850400023", "name": "USPS COLLECTION BOX - BLUE BOX", "address": {"city": "FLINT", "state": "MI", "street": "3274 W PASADENA AVE", "postcode": "48504"}}},
{"geometry": {"type": "Point", "coordinates": [-83.7278915831, 43.0462244093]}, "type": "Feature", "properties": {"collection_times": [{"days": "Mon-Sat", "time": "10:00am"}, {"days": "Sun", "time": "Closed"}], "id": "4850400026", "name": "USPS COLLECTION BOX - BLUE BOX", "address": {"city": "FLINT", "state": "MI", "street": "2002 W PASADENA AVE", "postcode": "48504"}}},
{"geometry": {"type": "Point", "coordinates": [-83.7134476541, 43.0129832624]}, "type": "Feature", "properties": {"collection_times": [{"days": "Mon-Sat", "time": "1:00pm"}, {"days": "Sun", "time": "Closed"}], "id": "4850400068", "name": "USPS COLLECTION BOX - BLUE BOX", "address": {"city": "FLINT", "state": "MI", "street": "1700 W 3RD AVE", "postcode": "48504"}}},
{"geometry": {"type": "Point", "coordinates": [-83.7332343632, 43.0578054944]}, "type": "Feature", "properties": {"collection_times": [{"days": "Mon-Sat", "time": "11:00am"}, {"days": "Sun", "time": "Closed"}], "id": "4850400091", "name": "USPS COLLECTION BOX - BLUE BOX", "address": {"city": "FLINT", "state": "MI", "street": "4935 CLIO RD", "postcode": "48504"}}},
{"geometry": {"type": "Point", "coordinates": [-83.7272776274, 43.0232040278]}, "type": "Feature", "properties": {"collection_times": [{"days": "Mon-Fri", "time": "5:00pm"}, {"days": "Sat", "time": "3:00pm"}, {"days": "Sun", "time": "Closed"}], "id": "4850400093", "name": "USPS COLLECTION BOX - BLUE BOX", "address": {"city": "FLINT", "state": "MI", "street": "2712 FLUSHING RD", "postcode": "48504"}}},
{"geometry": {"type": "Point", "coordinates": [-83.7429986944, 43.0462013841]}, "type": "Feature", "properties": {"collection_times": [{"days": "Mon-Fri", "time": "5:00pm"}, {"days": "Sat", "time": "3:00pm"}, {"days": "Sun", "time": "Closed"}], "id": "4850400099", "name": "USPS COLLECTION BOX - BLUE BOX", "address": {"city": "FLINT", "state": "MI", "street": "3274 W PASADENA AVE", "postcode": "48504"}}},
{"geometry": {"type": "Point", "coordinates": [-83.7179665574, 43.0263187588]}, "type": "Feature", "properties": {"collection_times": [{"days": "Mon-Sat", "time": "1:00pm"}, {"days": "Sun", "time": "Closed"}], "id": "4850400103", "name": "USPS COLLECTION BOX - BLUE BOX", "address": {"city": "FLINT", "state": "MI", "street": "1402 N CHEVROLET AVE", "postcode": "48504"}}},
{"geometry": {"type": "Point", "coordinates": [-83.7429986944, 43.0462013841]}, "type": "Feature", "properties": {"collection_times": [{"days": "Mon-Fri", "time": "5:00pm"}, {"days": "Sat", "time": "3:00pm"}, {"days": "Sun", "time": "Closed"}], "id": "4850400123", "name": "USPS COLLECTION BOX - PO LOBBY", "address": {"city": "FLINT", "state": "MI", "street": "3274 W PASADENA AVE", "postcode": "48504"}}},
{"geometry": {"type": "Point", "coordinates": [-83.7272776274, 43.0232040278]}, "type": "Feature", "properties": {"collection_times": [{"days": "Mon-Fri", "time": "5:00pm"}, {"days": "Sat-Sun", "time": "Closed"}], "id": "4850400125", "name": "USPS COLLECTION BOX - PO LOBBY", "address": {"city": "FLINT", "state": "MI", "street": "2712 FLUSHING RD", "postcode": "48504"}}},
{"geometry": {"type": "Point", "coordinates": [-83.7429986944, 43.0462013841]}, "type": "Feature", "properties": {"collection_times": [{"days": "Mon-Fri", "time": "5:00pm"}, {"days": "Sat", "time": "3:00pm"}, {"days": "Sun", "time": "Closed"}], "id": "4850400135", "name": "USPS COLLECTION BOX - PO LOBBY", "address": {"city": "FLINT", "state": "MI", "street": "3274 W PASADENA AVE", "postcode": "48504"}}},
{"geometry": {"type": "Point", "coordinates": [-83.7272776274, 43.0232040278]}, "type": "Feature", "properties": {"collection_times": [{"days": "Mon-Fri", "time": "5:00pm"}, {"days": "Sat", "time": "11:30am"}, {"days": "Sun", "time": "Closed"}], "id": "4850400136", "name": "USPS COLLECTION BOX - PO LOBBY", "address": {"city": "FLINT", "state": "MI", "street": "2712 FLUSHING RD", "postcode": "48504"}}},
{"geometry": {"type": "Point", "coordinates": [-83.7272776274, 43.0232040278]}, "type": "Feature", "properties": {"collection_times": [{"days": "Mon-Fri", "time": "5:00pm"}, {"days": "Sat-Sun", "time": "Closed"}], "id": "4850400137", "name": "USPS COLLECTION BOX - PO LOBBY", "address": {"city": "FLINT", "state": "MI", "street": "2712 FLUSHING RD", "postcode": "48504"}}},
{"geometry": {"type": "Point", "coordinates": [-83.759027063, 43.0658816384]}, "type": "Feature", "properties": {"collection_times": [{"days": "Mon-Sat", "time": "10:00am"}, {"days": "Sun", "time": "Closed"}], "id": "4850400138", "name": "USPS COLLECTION BOX - BLUE BOX", "address": {"city": "FLINT", "state": "MI", "street": "4135 DOLAN DR", "postcode": "48504"}}},
{"geometry": {"type": "Point", "coordinates": [-83.6592554555, 43.0750109879]}, "type": "Feature", "properties": {"collection_times": [{"days": "Mon-Sat", "time": "11:00am"}, {"days": "Sun", "time": "Closed"}], "id": "4850500015", "name": "USPS COLLECTION BOX - BLUE BOX", "address": {"city": "FLINT", "state": "MI", "street": "1069 RIDGECREST DR", "postcode": "48505"}}},
{"geometry": {"type": "Point", "coordinates": [-83.6938087835, 43.0615700168]}, "type": "Feature", "properties": {"collection_times": [{"days": "Mon-Sat", "time": "9:00am"}, {"days": "Sun", "time": "Closed"}], "id": "4850500017", "name": "USPS COLLECTION BOX - BLUE BOX", "address": {"city": "FLINT", "state": "MI", "street": "5272 N SAGINAW ST", "postcode": "48505"}}},
{"geometry": {"type": "Point", "coordinates": [-83.6940518589, 43.0753737011]}, "type": "Feature", "properties": {"collection_times": [{"days": "Mon-Sat", "time": "9:00am"}, {"days": "Sun", "time": "Closed"}], "id": "4850500020", "name": "USPS COLLECTION BOX - BLUE BOX", "address": {"city": "FLINT", "state": "MI", "street": "7021 N SAGINAW ST", "postcode": "48505"}}},
{"geometry": {"type": "Point", "coordinates": [-83.6683956354, 43.0686752083]}, "type": "Feature", "properties": {"collection_times": [{"days": "Mon-Sat", "time": "9:00am"}, {"days": "Sun", "time": "Closed"}], "id": "4850500025", "name": "USPS COLLECTION BOX - BLUE BOX", "address": {"city": "FLINT", "state": "MI", "street": "1806 E WEBSTER RD", "postcode": "48505"}}},
{"geometry": {"type": "Point", "coordinates": [-83.707530464, 43.0610362123]}, "type": "Feature", "properties": {"collection_times": [{"days": "Mon-Sat", "time": "9:00am"}, {"days": "Sun", "time": "Closed"}], "id": "4850500028", "name": "USPS COLLECTION BOX - BLUE BOX", "address": {"city": "FLINT", "state": "MI", "street": "238 W PIERSON RD", "postcode": "48505"}}},
{"geometry": {"type": "Point", "coordinates": [-83.707168486, 43.0901579015]}, "type": "Feature", "properties": {"collection_times": [{"days": "Mon-Sat", "time": "10:00am"}, {"days": "Sun", "time": "Closed"}], "id": "4850500029", "name": "USPS COLLECTION BOX - BLUE BOX", "address": {"city": "FLINT", "state": "MI", "street": "1357 W COLDWATER RD", "postcode": "48505"}}},
{"geometry": {"type": "Point", "coordinates": [-83.6938640245, 43.0455429019]}, "type": "Feature", "properties": {"collection_times": [{"days": "Mon-Fri", "time": "5:00pm"}, {"days": "Sat", "time": "3:45pm"}, {"days": "Sun", "time": "Closed"}], "id": "4850500034", "name": "USPS COLLECTION BOX - BLUE BOX", "address": {"city": "FLINT", "state": "MI", "street": "3311 N SAGINAW ST", "postcode": "48505"}}},
{"geometry": {"type": "Point", "coordinates": [-83.6939213193, 43.0461501685]}, "type": "Feature", "properties": {"collection_times": [{"days": "Mon-Fri", "time": "4:00pm"}, {"days": "Sat", "time": "12:00pm"}, {"days": "Sun", "time": "Closed"}], "id": "4850500040", "name": "USPS COLLECTION BOX - PO LOBBY", "address": {"city": "FLINT", "state": "MI", "street": "3311 N SAGINAW ST", "postcode": "48505"}}},
{"geometry": {"type": "Point", "coordinates": [-83.7286912633, 42.9942238991]}, "type": "Feature", "properties": {"collection_times": [{"days": "Mon-Fri", "time": "3:00pm"}, {"days": "Sat", "time": "11:00am"}, {"days": "Sun", "time": "Closed"}], "id": "4850700005", "name": "USPS COLLECTION BOX - BLUE BOX", "address": {"city": "FLINT", "state": "MI", "street": "G3308 MILLER RD", "postcode": "48507"}}},
{"geometry": {"type": "Point", "coordinates": [-83.7506955463, 42.9842439538]}, "type": "Feature", "properties": {"collection_times": [{"days": "Mon-Sat", "time": "11:00am"}, {"days": "Sun", "time": "Closed"}], "id": "4850700007", "name": "USPS COLLECTION BOX - BLUE BOX", "address": {"city": "FLINT", "state": "MI", "street": "G3543 MILLER RD", "postcode": "48507"}}},
{"geometry": {"type": "Point", "coordinates": [-83.7184703652, 42.9558560521]}, "type": "Feature", "properties": {"collection_times": [{"days": "Mon-Sat", "time": "10:00am"}, {"days": "Sun", "time": "Closed"}], "id": "4850700012", "name": "USPS COLLECTION BOX - BLUE BOX", "address": {"city": "FLINT", "state": "MI", "street": "5227 RIDGEBEND DR", "postcode": "48507"}}},
{"geometry": {"type": "Point", "coordinates": [-83.6750982752, 42.984409833]}, "type": "Feature", "properties": {"collection_times": [{"days": "Mon-Fri", "time": "10:00am"}, {"days": "Sat-Sun", "time": "Closed"}], "id": "4850700013", "name": "USPS COLLECTION BOX - BLUE BOX", "address": {"city": "FLINT", "state": "MI", "street": "4400 S SAGINAW ST", "postcode": "48507"}}},
{"geometry": {"type": "Point", "coordinates": [-83.7320383292, 42.9479529928]}, "type": "Feature", "properties": {"collection_times": [{"days": "Mon-Sat", "time": "10:00am"}, {"days": "Sun", "time": "Closed"}], "id": "4850700015", "name": "USPS COLLECTION BOX - BLUE BOX", "address": {"city": "FLINT", "state": "MI", "street": "5406 TORREY RD", "postcode": "48507"}}},
{"geometry": {"type": "Point", "coordinates": [-83.7187615699, 42.9646758417]}, "type": "Feature", "properties": {"collection_times": [{"days": "Mon-Sat", "time": "10:00am"}, {"days": "Sun", "time": "Closed"}], "id": "4850700019", "name": "USPS COLLECTION BOX - BLUE BOX", "address": {"city": "FLINT", "state": "MI", "street": "5011 FENTON RD", "postcode": "48507"}}},
{"geometry": {"type": "Point", "coordinates": [-83.6922132194, 42.9456974749]}, "type": "Feature", "properties": {"collection_times": [{"days": "Mon-Sat", "time": "11:00am"}, {"days": "Sun", "time": "Closed"}], "id": "4850700020", "name": "USPS COLLECTION BOX - BLUE BOX", "address": {"city": "FLINT", "state": "MI", "street": "5512 FENTON RD", "postcode": "48507"}}},
{"geometry": {"type": "Point", "coordinates": [-83.7293478056, 42.9439481431]}, "type": "Feature", "properties": {"collection_times": [{"days": "Mon-Fri", "time": "5:00pm"}, {"days": "Sat", "time": "11:00am"}, {"days": "Sun", "time": "Closed"}], "id": "4850700026", "name": "USPS COLLECTION BOX - BLUE BOX", "address": {"city": "FLINT", "state": "MI", "street": "2474 W HILL RD", "postcode": "48507"}}},
{"geometry": {"type": "Point", "coordinates": [-83.7325831983, 42.9624046689]}, "type": "Feature", "properties": {"collection_times": [{"days": "Mon-Fri", "time": "10:00am"}, {"days": "Sat-Sun", "time": "Closed"}], "id": "4850700031", "name": "USPS COLLECTION BOX - BLUE BOX", "address": {"city": "FLINT", "state": "MI", "street": "3008 AIRPARK DR S", "postcode": "48507"}}},
{"geometry": {"type": "Point", "coordinates": [-83.6544960771, 42.9891466392]}, "type": "Feature", "properties": {"collection_times": [{"days": "Mon-Sat", "time": "11:00am"}, {"days": "Sun", "time": "Closed"}], "id": "4850700032", "name": "USPS COLLECTION BOX - BLUE BOX", "address": {"city": "FLINT", "state": "MI", "street": "1320 E ATHERTON RD", "postcode": "48507"}}},
{"geometry": {"type": "Point", "coordinates": [-83.7394692025, 42.9756088568]}, "type": "Feature", "properties": {"collection_times": [{"days": "Mon-Sat", "time": "12:00pm"}, {"days": "Sun", "time": "Closed"}], "id": "4850700035", "name": "USPS COLLECTION BOX - BLUE BOX", "address": {"city": "FLINT", "state": "MI", "street": "3425 W BRISTOL RD", "postcode": "48507"}}},
{"geometry": {"type": "Point", "coordinates": [-83.7686400473, 42.9728471953]}, "type": "Feature", "properties": {"collection_times": [{"days": "Mon-Fri", "time": "3:00pm"}, {"days": "Sat", "time": "1:00pm"}, {"days": "Sun", "time": "Closed"}], "id": "4850700036", "name": "USPS COLLECTION BOX - BLUE BOX", "address": {"city": "FLINT", "state": "MI", "street": "4488 W BRISTOL RD", "postcode": "48507"}}},
{"geometry": {"type": "Point", "coordinates": [-83.7756819423, 42.9703162984]}, "type": "Feature", "properties": {"collection_times": [{"days": "Mon-Sat", "time": "1:00pm"}, {"days": "Sun", "time": "Closed"}], "id": "4850700045", "name": "USPS COLLECTION BOX - BLUE BOX", "address": {"city": "FLINT", "state": "MI", "street": "5095 EXCHANGE DR", "postcode": "48507"}}},
{"geometry": {"type": "Point", "coordinates": [-83.6800006723, 42.9598104398]}, "type": "Feature", "properties": {"collection_times": [{"days": "Mon-Sat", "time": "10:00am"}, {"days": "Sun", "time": "Closed"}], "id": "4850700046", "name": "USPS COLLECTION BOX - BLUE BOX", "address": {"city": "FLINT", "state": "MI", "street": "1332 E MAPLE AVE", "postcode": "48507"}}},
{"geometry": {"type": "Point", "coordinates": [-83.7590762535, 42.9808302808]}, "type": "Feature", "properties": {"collection_times": [{"days": "Mon-Fri", "time": "3:00pm"}, {"days": "Sat", "time": "1:00pm"}, {"days": "Sun", "time": "Closed"}], "id": "4850700047", "name": "USPS COLLECTION BOX - BLUE BOX", "address": {"city": "FLINT", "state": "MI", "street": "4205 MILLER RD", "postcode": "48507"}}},
{"geometry": {"type": "Point", "coordinates": [-83.720889649, 42.9467813298]}, "type": "Feature", "properties": {"collection_times": [{"days": "Mon-Fri", "time": "3:00pm"}, {"days": "Sat", "time": "11:00am"}, {"days": "Sun", "time": "Closed"}], "id": "4850700048", "name": "USPS COLLECTION BOX - BLUE BOX", "address": {"city": "FLINT", "state": "MI", "street": "5353 GATEWAY CTR", "postcode": "48507"}}},
{"geometry": {"type": "Point", "coordinates": [-83.694509286, 42.974049988]}, "type": "Feature", "properties": {"collection_times": [{"days": "Mon-Fri", "time": "3:00pm"}, {"days": "Sat-Sun", "time": "Closed"}], "id": "4850700049", "name": "USPS COLLECTION BOX - BLUE BOX", "address": {"city": "FLINT", "state": "MI", "street": "1050 W BRISTOL RD", "postcode": "48507"}}},
{"geometry": {"type": "Point", "coordinates": [-83.6521744823, 42.9459100363]}, "type": "Feature", "properties": {"collection_times": [{"days": "Mon-Fri", "time": "10:00am"}, {"days": "Sat", "time": "1:00pm"}, {"days": "Sun", "time": "Closed"}], "id": "4850700051", "name": "USPS COLLECTION BOX - BLUE BOX", "address": {"city": "FLINT", "state": "MI", "street": "5668 S SAGINAW RD", "postcode": "48507"}}},
{"geometry": {"type": "Point", "coordinates": [-83.7129929021, 42.9794405524]}, "type": "Feature", "properties": {"collection_times": [{"days": "Mon-Sat", "time": "1:00pm"}, {"days": "Sun", "time": "Closed"}], "id": "4850700058", "name": "USPS COLLECTION BOX - BLUE BOX", "address": {"city": "FLINT", "state": "MI", "street": "G3311 VAN SLYKE RD", "postcode": "48507"}}},
{"geometry": {"type": "Point", "coordinates": [-83.7721354313, 42.9810977864]}, "type": "Feature", "properties": {"collection_times": [{"days": "Mon-Sat", "time": "11:00am"}, {"days": "Sun", "time": "Closed"}], "id": "4850700063", "name": "USPS COLLECTION BOX - BLUE BOX", "address": {"city": "FLINT", "state": "MI", "street": "3341 S LINDEN RD", "postcode": "48507"}}},
{"geometry": {"type": "Point", "coordinates": [-83.7721354313, 42.9810977864]}, "type": "Feature", "properties": {"collection_times": [{"days": "Mon-Sat", "time": "11:00am"}, {"days": "Sun", "time": "Closed"}], "id": "4850700064", "name": "USPS COLLECTION BOX - BLUE BOX", "address": {"city": "FLINT", "state": "MI", "street": "4370 MILLER RD", "postcode": "48507"}}},
{"geometry": {"type": "Point", "coordinates": [-83.7751086466, 42.9735484826]}, "type": "Feature", "properties": {"collection_times": [{"days": "Mon-Sat", "time": "12:00pm"}, {"days": "Sun", "time": "Closed"}], "id": "4850700065", "name": "USPS COLLECTION BOX - BLUE BOX", "address": {"city": "FLINT", "state": "MI", "street": "5080 W BRISTOL RD", "postcode": "48507"}}},
{"geometry": {"type": "Point", "coordinates": [-83.7009023743, 42.9883422271]}, "type": "Feature", "properties": {"collection_times": [{"days": "Mon-Fri", "time": "5:00pm"}, {"days": "Sat", "time": "3:00pm"}, {"days": "Sun", "time": "Closed"}], "id": "4850700069", "name": "USPS COLLECTION BOX - BLUE BOX", "address": {"city": "FLINT", "state": "MI", "street": "1601 W ATHERTON RD", "postcode": "48507"}}},
{"geometry": {"type": "Point", "coordinates": [-83.7721768349, 42.9827385505]}, "type": "Feature", "properties": {"collection_times": [{"days": "Mon-Sat", "time": "10:00am"}, {"days": "Sun", "time": "Closed"}], "id": "4850700074", "name": "USPS COLLECTION BOX - BLUE BOX", "address": {"city": "FLINT", "state": "MI", "street": "3192 S LINDEN RD", "postcode": "48507"}}},
{"geometry": {"type": "Point", "coordinates": [-83.65865, 42.952152]}, "type": "Feature", "properties": {"collection_times": [{"days": "Mon-Sat", "time": "11:00am"}, {"days": "Sun", "time": "Closed"}], "id": "4850700095", "name": "USPS COLLECTION BOX - BLUE BOX", "address": {"city": "FLINT", "state": "MI", "street": "5375 S SAGINAW RD", "postcode": "48507"}}},
{"geometry": {"type": "Point", "coordinates": [-83.7072134604, 42.973874639]}, "type": "Feature", "properties": {"collection_times": [{"days": "Mon-Sat", "time": "10:00am"}, {"days": "Sun", "time": "Closed"}], "id": "4850700098", "name": "USPS COLLECTION BOX - BLUE BOX", "address": {"city": "FLINT", "state": "MI", "street": "1388 W BRISTOL RD", "postcode": "48507"}}},
{"geometry": {"type": "Point", "coordinates": [-83.7009023743, 42.9883422271]}, "type": "Feature", "properties": {"collection_times": [{"days": "Mon-Fri", "time": "5:00pm"}, {"days": "Sat", "time": "3:00pm"}, {"days": "Sun", "time": "Closed"}], "id": "4850700105", "name": "USPS COLLECTION BOX - PO LOBBY", "address": {"city": "FLINT", "state": "MI", "street": "1601 W ATHERTON RD", "postcode": "48507"}}},
{"geometry": {"type": "Point", "coordinates": [-83.5954155575, 43.0233944842]}, "type": "Feature", "properties": {"collection_times": [{"days": "Mon-Sat", "time": "1:00pm"}, {"days": "Sun", "time": "Closed"}], "id": "4850900001", "name": "USPS COLLECTION BOX - BLUE BOX", "address": {"city": "FLINT", "state": "MI", "street": "1135 N BELSAY RD", "postcode": "48509"}}},
{"geometry": {"type": "Point", "coordinates": [-83.6295462895, 43.0331266876]}, "type": "Feature", "properties": {"collection_times": [{"days": "Mon-Sat", "time": "1:00pm"}, {"days": "Sun", "time": "Closed"}], "id": "4850900002", "name": "USPS COLLECTION BOX - BLUE BOX", "address": {"city": "FLINT", "state": "MI", "street": "4154 DAVISON RD", "postcode": "48509"}}},
{"geometry": {"type": "Point", "coordinates": [-83.6345454741, 43.0044848852]}, "type": "Feature", "properties": {"collection_times": [{"days": "Mon-Sat", "time": "1:00pm"}, {"days": "Sun", "time": "Closed"}], "id": "4850900008", "name": "USPS COLLECTION BOX - BLUE BOX", "address": {"city": "FLINT", "state": "MI", "street": "1513 S CENTER RD", "postcode": "48509"}}},
{"geometry": {"type": "Point", "coordinates": [-83.664242476, 43.0326345767]}, "type": "Feature", "properties": {"collection_times": [{"days": "Mon-Sat", "time": "1:00pm"}, {"days": "Sun", "time": "Closed"}], "id": "4850900014", "name": "USPS COLLECTION BOX - BLUE BOX", "address": {"city": "FLINT", "state": "MI", "street": "1810 MAPLEWOOD AVE", "postcode": "48509"}}},
{"geometry": {"type": "Point", "coordinates": [-83.6529475838, 43.0328983765]}, "type": "Feature", "properties": {"collection_times": [{"days": "Mon-Sat", "time": "1:00pm"}, {"days": "Sun", "time": "Closed"}], "id": "4850900017", "name": "USPS COLLECTION BOX - BLUE BOX", "address": {"city": "FLINT", "state": "MI", "street": "2845 DAVISON RD", "postcode": "48509"}}},
{"geometry": {"type": "Point", "coordinates": [-83.5978181471, 43.0549995989]}, "type": "Feature", "properties": {"collection_times": [{"days": "Mon-Sat", "time": "1:00pm"}, {"days": "Sun", "time": "Closed"}], "id": "4850900027", "name": "USPS COLLECTION BOX - BLUE BOX", "address": {"city": "FLINT", "state": "MI", "street": "5510 RICHFIELD RD", "postcode": "48509"}}},
{"geometry": {"type": "Point", "coordinates": [-83.6371669991, 43.0509635949]}, "type": "Feature", "properties": {"collection_times": [{"days": "Mon-Sat", "time": "1:00pm"}, {"days": "Sun", "time": "Closed"}], "id": "4850900028", "name": "USPS COLLECTION BOX - BLUE BOX", "address": {"city": "FLINT", "state": "MI", "street": "3848 RICHFIELD RD", "postcode": "48509"}}},
{"geometry": {"type": "Point", "coordinates": [-83.6566419646, 43.0564794806]}, "type": "Feature", "properties": {"collection_times": [{"days": "Mon-Sat", "time": "1:00pm"}, {"days": "Sun", "time": "Closed"}], "id": "4850900029", "name": "USPS COLLECTION BOX - BLUE BOX", "address": {"city": "FLINT", "state": "MI", "street": "4602 WESTERN RD", "postcode": "48509"}}},
{"geometry": {"type": "Point", "coordinates": [-83.619050986, 43.033098288]}, "type": "Feature", "properties": {"collection_times": [{"days": "Mon-Fri", "time": "5:00pm"}, {"days": "Sat", "time": "3:00pm"}, {"days": "Sun", "time": "Closed"}], "id": "4850900032", "name": "USPS COLLECTION BOX - BLUE BOX", "address": {"city": "FLINT", "state": "MI", "street": "4465 DAVISON RD", "postcode": "48509"}}},
{"geometry": {"type": "Point", "coordinates": [-83.6346235494, 43.0117269599]}, "type": "Feature", "properties": {"collection_times": [{"days": "Mon-Sat", "time": "1:00pm"}, {"days": "Sun", "time": "Closed"}], "id": "4850900035", "name": "USPS COLLECTION BOX - BLUE BOX", "address": {"city": "FLINT", "state": "MI", "street": "1235 S CENTER RD", "postcode": "48509"}}},
{"geometry": {"type": "Point", "coordinates": [-83.6313396553, 43.0187123326]}, "type": "Feature", "properties": {"collection_times": [{"days": "Mon-Sat", "time": "1:00pm"}, {"days": "Sun", "time": "Closed"}], "id": "4850900068", "name": "USPS COLLECTION BOX - BLUE BOX", "address": {"city": "FLINT", "state": "MI", "street": "4190 E COURT ST", "postcode": "48509"}}},
{"geometry": {"type": "Point", "coordinates": [-83.5941623964, 43.0108680536]}, "type": "Feature", "properties": {"collection_times": [{"days": "Mon-Sat", "time": "1:00pm"}, {"days": "Sun", "time": "Closed"}], "id": "4850900070", "name": "USPS COLLECTION BOX - BLUE BOX", "address": {"city": "FLINT", "state": "MI", "street": "6024 LAPEER RD", "postcode": "48509"}}},
{"geometry": {"type": "Point", "coordinates": [-83.619050986, 43.033098288]}, "type": "Feature", "properties": {"collection_times": [{"days": "Mon-Fri", "time": "5:00pm"}, {"days": "Sat", "time": "3:00pm"}, {"days": "Sun", "time": "Closed"}], "id": "4850900071", "name": "USPS COLLECTION BOX - BLUE BOX", "address": {"city": "FLINT", "state": "MI", "street": "4465 DAVISON RD", "postcode": "48509"}}},
{"geometry": {"type": "Point", "coordinates": [-83.6096716902, 43.0197852085]}, "type": "Feature", "properties": {"collection_times": [{"days": "Mon-Sat", "time": "1:00pm"}, {"days": "Sun", "time": "Closed"}], "id": "4850900073", "name": "USPS COLLECTION BOX - BLUE BOX", "address": {"city": "FLINT", "state": "MI", "street": "5161 E COURT ST N", "postcode": "48509"}}},
{"geometry": {"type": "Point", "coordinates": [-83.619050986, 43.033098288]}, "type": "Feature", "properties": {"collection_times": [{"days": "Mon-Fri", "time": "5:00pm"}, {"days": "Sat", "time": "3:00pm"}, {"days": "Sun", "time": "Closed"}], "id": "4850900077", "name": "USPS COLLECTION BOX - PO LOBBY", "address": {"city": "FLINT", "state": "MI", "street": "4465 DAVISON RD", "postcode": "48509"}}},
{"geometry": {"type": "Point", "coordinates": [-83.619050986, 43.033098288]}, "type": "Feature", "properties": {"collection_times": [{"days": "Mon-Fri", "time": "5:00pm"}, {"days": "Sat", "time": "3:00pm"}, {"days": "Sun", "time": "Closed"}], "id": "4850900080", "name": "USPS COLLECTION BOX - PO LOBBY", "address": {"city": "FLINT", "state": "MI", "street": "4465 DAVISON RD", "postcode": "48509"}}},
{"geometry": {"type": "Point", "coordinates": [-83.5952475773, 43.0158661334]}, "type": "Feature", "properties": {"collection_times": [{"days": "Mon-Sat", "time": "1:00pm"}, {"days": "Sun", "time": "Closed"}], "id": "4850900081", "name": "USPS COLLECTION BOX - BLUE BOX", "address": {"city": "FLINT", "state": "MI", "street": "1096 S BELSAY RD", "postcode": "48509"}}},
{"geometry": {"type": "Point", "coordinates": [-83.6338901148, 42.9931497724]}, "type": "Feature", "properties": {"collection_times": [{"days": "Mon-Fri", "time": "4:00pm"}, {"days": "Sat", "time": "12:00pm"}, {"days": "Sun", "time": "Closed"}], "id": "4851900001", "name": "USPS COLLECTION BOX - BLUE BOX", "address": {"city": "FLINT", "state": "MI", "street": "2333 S CENTER RD", "postcode": "48519"}}},
{"geometry": {"type": "Point", "coordinates": [-83.6293612165, 42.9661661373]}, "type": "Feature", "properties": {"collection_times": [{"days": "Mon-Fri", "time": "5:00pm"}, {"days": "Sat", "time": "3:00pm"}, {"days": "Sun", "time": "Closed"}], "id": "4851900008", "name": "USPS COLLECTION BOX - BLUE BOX", "address": {"city": "FLINT", "state": "MI", "street": "4065 MANOR DR", "postcode": "48519"}}},
{"geometry": {"type": "Point", "coordinates": [-83.6756079307, 42.9871670807]}, "type": "Feature", "properties": {"collection_times": [{"days": "Mon-Fri", "time": "3:00pm"}, {"days": "Sat", "time": "10:00am"}, {"days": "Sun", "time": "Closed"}], "id": "4851900018", "name": "USPS COLLECTION BOX - BLUE BOX", "address": {"city": "FLINT", "state": "MI", "street": "4007 S SAGINAW ST", "postcode": "48519"}}},
{"geometry": {"type": "Point", "coordinates": [-83.6293612165, 42.9661661373]}, "type": "Feature", "properties": {"collection_times": [{"days": "Mon-Fri", "time": "5:00pm"}, {"days": "Sat", "time": "3:00pm"}, {"days": "Sun", "time": "Closed"}], "id": "4851900021", "name": "USPS COLLECTION BOX - PO LOBBY", "address": {"city": "FLINT", "state": "MI", "street": "4065 MANOR DR", "postcode": "48519"}}},
{"geometry": {"type": "Point", "coordinates": [-83.6293612165, 42.9661661373]}, "type": "Feature", "properties": {"collection_times": [{"days": "Mon-Fri", "time": "5:00pm"}, {"days": "Sat", "time": "3:00pm"}, {"days": "Sun", "time": "Closed"}], "id": "4851900023", "name": "USPS COLLECTION BOX - PO LOBBY", "address": {"city": "FLINT", "state": "MI", "street": "4065 MANOR DR", "postcode": "48519"}}},
{"geometry": {"type": "Point", "coordinates": [-83.7723849792, 42.9872853011]}, "type": "Feature", "properties": {"collection_times": [{"days": "Mon-Fri", "time": "5:00pm"}, {"days": "Sat", "time": "3:00pm"}, {"days": "Sun", "time": "Closed"}], "id": "4853200000", "name": "USPS COLLECTION BOX - BLUE BOX", "address": {"city": "FLINT", "state": "MI", "street": "2500 S LINDEN RD", "postcode": "48532"}}},
{"geometry": {"type": "Point", "coordinates": [-83.7723780497, 42.9883684318]}, "type": "Feature", "properties": {"collection_times": [{"days": "Mon-Fri", "time": "5:00pm"}, {"days": "Sat", "time": "3:00pm"}, {"days": "Sun", "time": "Closed"}], "id": "4853200001", "name": "USPS COLLECTION BOX - BLUE BOX", "address": {"city": "FLINT", "state": "MI", "street": "2500 S LINDEN RD", "postcode": "48532"}}},
{"geometry": {"type": "Point", "coordinates": [-83.7723849792, 42.9872853011]}, "type": "Feature", "properties": {"collection_times": [{"days": "Mon-Fri", "time": "5:00pm"}, {"days": "Sat", "time": "3:00pm"}, {"days": "Sun", "time": "Closed"}], "id": "4853200002", "name": "USPS COLLECTION BOX - PO LOBBY", "address": {"city": "FLINT", "state": "MI", "street": "2500 S LINDEN RD", "postcode": "48532"}}},
{"geometry": {"type": "Point", "coordinates": [-83.7723849792, 42.9872853011]}, "type": "Feature", "properties": {"collection_times": [{"days": "Mon-Fri", "time": "5:00pm"}, {"days": "Sat", "time": "3:00pm"}, {"days": "Sun", "time": "Closed"}], "id": "4853200003", "name": "USPS COLLECTION BOX - PO LOBBY", "address": {"city": "FLINT", "state": "MI", "street": "2500 S LINDEN RD", "postcode": "48532"}}},
{"geometry": {"type": "Point", "coordinates": [-83.7599418026, 43.0310382686]}, "type": "Feature", "properties": {"collection_times": [{"days": "Mon-Sat", "time": "11:00am"}, {"days": "Sun", "time": "Closed"}], "id": "4853200005", "name": "USPS COLLECTION BOX - BLUE BOX", "address": {"city": "FLINT", "state": "MI", "street": "4490 LENNINGTON CT", "postcode": "48532"}}},
{"geometry": {"type": "Point", "coordinates": [-83.7459636472, 43.0151161374]}, "type": "Feature", "properties": {"collection_times": [{"days": "Mon-Fri", "time": "3:00pm"}, {"days": "Sat-Sun", "time": "Closed"}], "id": "4853200008", "name": "USPS COLLECTION BOX - BLUE BOX", "address": {"city": "FLINT", "state": "MI", "street": "1012 PROFESSIONAL DR", "postcode": "48532"}}},
{"geometry": {"type": "Point", "coordinates": [-83.7433579696, 43.0071487159]}, "type": "Feature", "properties": {"collection_times": [{"days": "Mon-Sat", "time": "11:00am"}, {"days": "Sun", "time": "Closed"}], "id": "4853200009", "name": "USPS COLLECTION BOX - BLUE BOX", "address": {"city": "FLINT", "state": "MI", "street": "1460 RYAN ST", "postcode": "48532"}}},
{"geometry": {"type": "Point", "coordinates": [-83.7486986483, 43.0205624805]}, "type": "Feature", "properties": {"collection_times": [{"days": "Mon-Sat", "time": "11:00am"}, {"days": "Sun", "time": "Closed"}], "id": "4853200012", "name": "USPS COLLECTION BOX - BLUE BOX", "address": {"city": "FLINT", "state": "MI", "street": "3500 RUE FORET", "postcode": "48532"}}},
{"geometry": {"type": "Point", "coordinates": [-83.7725864266, 42.996519283]}, "type": "Feature", "properties": {"collection_times": [{"days": "Mon-Fri", "time": "3:00pm"}, {"days": "Sat-Sun", "time": "Closed"}], "id": "4853200013", "name": "USPS COLLECTION BOX - BLUE BOX", "address": {"city": "FLINT", "state": "MI", "street": "2300 STONEBRIDGE DR", "postcode": "48532"}}},
{"geometry": {"type": "Point", "coordinates": [-83.772687759, 43.0073999908]}, "type": "Feature", "properties": {"collection_times": [{"days": "Mon-Fri", "time": "3:00pm"}, {"days": "Sat-Sun", "time": "Closed"}], "id": "4853200017", "name": "USPS COLLECTION BOX - BLUE BOX", "address": {"city": "FLINT", "state": "MI", "street": "1321 S LINDEN RD", "postcode": "48532"}}},
{"geometry": {"type": "Point", "coordinates": [-83.7723365843, 42.9911176313]}, "type": "Feature", "properties": {"collection_times": [{"days": "Mon-Fri", "time": "3:00pm"}, {"days": "Sat-Sun", "time": "Closed"}], "id": "4853200018", "name": "USPS COLLECTION BOX - BLUE BOX", "address": {"city": "FLINT", "state": "MI", "street": "2353 S LINDEN RD", "postcode": "48532"}}},
{"geometry": {"type": "Point", "coordinates": [-83.7725346548, 42.9995669595]}, "type": "Feature", "properties": {"collection_times": [{"days": "Mon-Sat", "time": "9:30am"}, {"days": "Sun", "time": "Closed"}], "id": "4853200019", "name": "USPS COLLECTION BOX - BLUE BOX", "address": {"city": "FLINT", "state": "MI", "street": "2105 S LINDEN RD", "postcode": "48532"}}},
{"geometry": {"type": "Point", "coordinates": [-83.7821988269, 43.001840887]}, "type": "Feature", "properties": {"collection_times": [{"days": "Mon-Sat", "time": "10:00am"}, {"days": "Sun", "time": "Closed"}], "id": "4853200020", "name": "USPS COLLECTION BOX - BLUE BOX", "address": {"city": "FLINT", "state": "MI", "street": "5249 CORUNNA RD", "postcode": "48532"}}},
{"geometry": {"type": "Point", "coordinates": [-83.7404759006, 43.0154355363]}, "type": "Feature", "properties": {"collection_times": [{"days": "Mon-Fri", "time": "3:00pm"}, {"days": "Sat-Sun", "time": "Closed"}], "id": "4853200021", "name": "USPS COLLECTION BOX - BLUE BOX", "address": {"city": "FLINT", "state": "MI", "street": "G3235 BEECHER RD", "postcode": "48532"}}},
{"geometry": {"type": "Point", "coordinates": [-83.7447586184, 43.0022314662]}, "type": "Feature", "properties": {"collection_times": [{"days": "Mon-Sat", "time": "11:00am"}, {"days": "Sun", "time": "Closed"}], "id": "4853200023", "name": "USPS COLLECTION BOX - BLUE BOX", "address": {"city": "FLINT", "state": "MI", "street": "G3312 CORUNNA RD", "postcode": "48532"}}},
{"geometry": {"type": "Point", "coordinates": [-83.7682406638, 43.0020215919]}, "type": "Feature", "properties": {"collection_times": [{"days": "Mon-Sat", "time": "10:00am"}, {"days": "Sun", "time": "Closed"}], "id": "4853200025", "name": "USPS COLLECTION BOX - BLUE BOX", "address": {"city": "FLINT", "state": "MI", "street": "4413 CORUNNA RD", "postcode": "48532"}}},
{"geometry": {"type": "Point", "coordinates": [-83.7724193415, 42.9913966272]}, "type": "Feature", "properties": {"collection_times": [{"days": "Mon-Fri", "time": "3:00pm"}, {"days": "Sat-Sun", "time": "Closed"}], "id": "4853200026", "name": "USPS COLLECTION BOX - BLUE BOX", "address": {"city": "FLINT", "state": "MI", "street": "2370 S LINDEN RD", "postcode": "48532"}}},
{"geometry": {"type": "Point", "coordinates": [-83.7726073921, 42.9952887168]}, "type": "Feature", "properties": {"collection_times": [{"days": "Mon-Fri", "time": "12:00pm"}, {"days": "Sat-Sun", "time": "Closed"}], "id": "4853200027", "name": "USPS COLLECTION BOX - BLUE BOX", "address": {"city": "FLINT", "state": "MI", "street": "2222 S LINDEN RD", "postcode": "48532"}}},
{"geometry": {"type": "Point", "coordinates": [-83.773731243, 43.0422307398]}, "type": "Feature", "properties": {"collection_times": [{"days": "Mon-Fri", "time": "3:00pm"}, {"days": "Sat-Sun", "time": "Closed"}], "id": "4853200028", "name": "USPS COLLECTION BOX - BLUE BOX", "address": {"city": "FLINT", "state": "MI", "street": "2387 S LINDEN RD", "postcode": "48532"}}},
{"geometry": {"type": "Point", "coordinates": [-83.7723519128, 42.9882404927]}, "type": "Feature", "properties": {"collection_times": [{"days": "Mon-Fri", "time": "3:00pm"}, {"days": "Sat-Sun", "time": "Closed"}], "id": "4853200034", "name": "USPS COLLECTION BOX - BLUE BOX", "address": {"city": "FLINT", "state": "MI", "street": "2503 S LINDEN RD", "postcode": "48532"}}},
{"geometry": {"type": "Point", "coordinates": [-83.8062519679, 43.0134611778]}, "type": "Feature", "properties": {"collection_times": [{"days": "Mon-Sat", "time": "10:00am"}, {"days": "Sun", "time": "Closed"}], "id": "4853200035", "name": "USPS COLLECTION BOX - BLUE BOX", "address": {"city": "FLINT", "state": "MI", "street": "1171 RAMSGATE RD", "postcode": "48532"}}},
{"geometry": {"type": "Point", "coordinates": [-83.7729008058, 43.012935944]}, "type": "Feature", "properties": {"collection_times": [{"days": "Mon-Sat", "time": "10:00am"}, {"days": "Sun", "time": "Closed"}], "id": "4853200036", "name": "USPS COLLECTION BOX - BLUE BOX", "address": {"city": "FLINT", "state": "MI", "street": "1125 S LINDEN RD", "postcode": "48532"}}},
{"geometry": {"type": "Point", "coordinates": [-83.772797758, 43.0059482809]}, "type": "Feature", "properties": {"collection_times": [{"days": "Mon-Fri", "time": "3:00pm"}, {"days": "Sat-Sun", "time": "Closed"}], "id": "4853200037", "name": "USPS COLLECTION BOX - BLUE BOX", "address": {"city": "FLINT", "state": "MI", "street": "1380 S LINDEN RD", "postcode": "48532"}}},
{"geometry": {"type": "Point", "coordinates": [-83.7673699253, 43.0136721107]}, "type": "Feature", "properties": {"collection_times": [{"days": "Mon-Sat", "time": "10:30am"}, {"days": "Sun", "time": "Closed"}], "id": "4853200039", "name": "USPS COLLECTION BOX - BLUE BOX", "address": {"city": "FLINT", "state": "MI", "street": "1500 NORMANDY TERRACE DR", "postcode": "48532"}}},
{"geometry": {"type": "Point", "coordinates": [-83.7718360738, 42.9957486357]}, "type": "Feature", "properties": {"collection_times": [{"days": "Mon-Fri", "time": "3:00pm"}, {"days": "Sat-Sun", "time": "Closed"}], "id": "4853200041", "name": "USPS COLLECTION BOX - BLUE BOX", "address": {"city": "FLINT", "state": "MI", "street": "4438 OAKBRIDGE DR", "postcode": "48532"}}},
{"geometry": {"type": "Point", "coordinates": [-83.7723849792, 42.9872853011]}, "type": "Feature", "properties": {"collection_times": [{"days": "Mon-Fri", "time": "5:00pm"}, {"days": "Sat", "time": "3:00pm"}, {"days": "Sun", "time": "Closed"}], "id": "4853200042", "name": "USPS COLLECTION BOX - APC", "address": {"city": "FLINT", "state": "MI", "street": "2500 S LINDEN RD", "postcode": "48532"}}}
]}
