{"type": "FeatureCollection", "features": [
{"geometry": {"type": "Point", "coordinates": [-83.9116465588, 43.3998218519]}, "type": "Feature", "properties": {"collection_times": [{"days": "Mon-Fri", "time": "2:45pm"}, {"days": "Sat", "time": "2:00pm"}, {"days": "Sun", "time": "Closed"}], "id": "4860100009", "name": "USPS COLLECTION BOX - BLUE BOX", "address": {"city": "SAGINAW", "state": "MI", "street": "3581 DIXIE HWY", "postcode": "48601"}}},
{"geometry": {"type": "Point", "coordinates": [-83.9465117717, 43.4194536274]}, "type": "Feature", "properties": {"collection_times": [{"days": "Mon-Sat", "time": "3:00pm"}, {"days": "Sun", "time": "Closed"}], "id": "4860100010", "name": "USPS COLLECTION BOX - BLUE BOX", "address": {"city": "SAGINAW", "state": "MI", "street": "1315 S WASHINGTON AVE", "postcode": "48601"}}},
{"geometry": {"type": "Point", "coordinates": [-83.909323286, 43.414128497]}, "type": "Feature", "properties": {"collection_times": [{"days": "Mon-Fri", "time": "5:00pm"}, {"days": "Sat", "time": "2:00pm"}, {"days": "Sun", "time": "Closed"}], "id": "4860100015", "name": "USPS COLLECTION BOX - BLUE BOX", "address": {"city": "SAGINAW", "state": "MI", "street": "1300 CUMBERLAND ST", "postcode": "48601"}}},
{"geometry": {"type": "Point", "coordinates": [-83.9419631092, 43.4258317542]}, "type": "Feature", "properties": {"collection_times": [{"days": "Mon-Sat", "time": "3:00pm"}, {"days": "Sun", "time": "Closed"}], "id": "4860100017", "name": "USPS COLLECTION BOX - BLUE BOX", "address": {"city": "SAGINAW", "state": "MI", "street": "800 S WASHINGTON AVE", "postcode": "48601"}}},
{"geometry": {"type": "Point", "coordinates": [-83.909323286, 43.414128497]}, "type": "Feature", "properties": {"collection_times": [{"days": "Mon-Fri", "time": "5:00pm"}, {"days": "Sat", "time": "2:00pm"}, {"days": "Sun", "time": "Closed"}], "id": "4860100043", "name": "USPS COLLECTION BOX - BLUE BOX", "address": {"city": "SAGINAW", "state": "MI", "street": "1300 CUMBERLAND ST", "postcode": "48601"}}},
{"geometry": {"type": "Point", "coordinates": [-83.9377473942, 43.4330913992]}, "type": "Feature", "properties": {"collection_times": [{"days": "Mon-Sat", "time": "3:00pm"}, {"days": "Sun", "time": "Closed"}], "id": "4860100055", "name": "USPS COLLECTION BOX - BLUE BOX", "address": {"city": "SAGINAW", "state": "MI", "street": "301 E GENESEE AVE", "postcode": "48601"}}},
{"geometry": {"type": "Point", "coordinates": [-83.909323286, 43.414128497]}, "type": "Feature", "properties": {"collection_times": [{"days": "Mon-Fri", "time": "5:00pm"}, {"days": "Sat", "time": "2:00pm"}, {"days": "Sun", "time": "Closed"}], "id": "4860100112", "name": "USPS COLLECTION BOX - PO LOBBY", "address": {"city": "SAGINAW", "state": "MI", "street": "1300 CUMBERLAND ST", "postcode": "48601"}}},
{"geometry": {"type": "Point", "coordinates": [-83.9356969271, 43.4324078976]}, "type": "Feature", "properties": {"collection_times": [{"days": "Mon-Sat", "time": "3:00pm"}, {"days": "Sun", "time": "Closed"}], "id": "4860100118", "name": "USPS COLLECTION BOX - BLUE BOX", "address": {"city": "SAGINAW", "state": "MI", "street": "100 S JEFFERSON AVE", "postcode": "48601"}}},
{"geometry": {"type": "Point", "coordinates": [-83.936517243, 43.4328765943]}, "type": "Feature", "properties": {"collection_times": [{"days": "Mon-Sat", "time": "3:00pm"}, {"days": "Sun", "time": "Closed"}], "id": "4860100132", "name": "USPS COLLECTION BOX - BLUE BOX", "address": {"city": "SAGINAW", "state": "MI", "street": "411 E GENESEE AVE", "postcode": "48601"}}},
{"geometry": {"type": "Point", "coordinates": [-84.0688315795, 43.4158960056]}, "type": "Feature", "properties": {"collection_times": [{"days": "Mon-Sat", "time": "1:00pm"}, {"days": "Sun", "time": "Closed"}], "id": "4860200004", "name": "USPS COLLECTION BOX - BLUE BOX", "address": {"city": "SAGINAW", "state": "MI", "street": "7835 GRATIOT RD", "postcode": "48602"}}},
{"geometry": {"type": "Point", "coordinates": [-84.0787107414, 43.4160759464]}, "type": "Feature", "properties": {"collection_times": [{"days": "Mon-Fri", "time": "4:15pm"}, {"days": "Sat", "time": "3:30pm"}, {"days": "Sun", "time": "Closed"}], "id": "4860200006", "name": "USPS COLLECTION BOX - BLUE BOX", "address": {"city": "SAGINAW", "state": "MI", "street": "8400 GRATIOT RD", "postcode": "48602"}}},
{"geometry": {"type": "Point", "coordinates": [-83.955621526, 43.4280909622]}, "type": "Feature", "properties": {"collection_times": [{"days": "Mon-Fri", "time": "3:00pm"}, {"days": "Sat", "time": "1:00pm"}, {"days": "Sun", "time": "Closed"}], "id": "4860200009", "name": "USPS COLLECTION BOX - BLUE BOX", "address": {"city": "SAGINAW", "state": "MI", "street": "1447 N HARRISON ST", "postcode": "48602"}}},
{"geometry": {"type": "Point", "coordinates": [-83.9662857791, 43.4159857428]}, "type": "Feature", "properties": {"collection_times": [{"days": "Mon-Fri", "time": "4:45pm"}, {"days": "Sat", "time": "3:45pm"}, {"days": "Sun", "time": "Closed"}], "id": "4860200020", "name": "USPS COLLECTION BOX - BLUE BOX", "address": {"city": "SAGINAW", "state": "MI", "street": "333 S MICHIGAN AVE", "postcode": "48602"}}},
{"geometry": {"type": "Point", "coordinates": [-83.9662857791, 43.4159857428]}, "type": "Feature", "properties": {"collection_times": [{"days": "Mon-Fri", "time": "4:45pm"}, {"days": "Sat", "time": "3:45pm"}, {"days": "Sun", "time": "Closed"}], "id": "4860200021", "name": "USPS COLLECTION BOX - BLUE BOX", "address": {"city": "SAGINAW", "state": "MI", "street": "333 S MICHIGAN AVE", "postcode": "48602"}}},
{"geometry": {"type": "Point", "coordinates": [-83.9752730081, 43.4360125117]}, "type": "Feature", "properties": {"collection_times": [{"days": "Mon-Sat", "time": "1:00pm"}, {"days": "Sun", "time": "Closed"}], "id": "4860200034", "name": "USPS COLLECTION BOX - BLUE BOX", "address": {"city": "SAGINAW", "state": "MI", "street": "2032 BAY ST", "postcode": "48602"}}},
{"geometry": {"type": "Point", "coordinates": [-83.9905748657, 43.436708502]}, "type": "Feature", "properties": {"collection_times": [{"days": "Mon-Sat", "time": "3:00pm"}, {"days": "Sun", "time": "Closed"}], "id": "4860200062", "name": "USPS COLLECTION BOX - BLUE BOX", "address": {"city": "SAGINAW", "state": "MI", "street": "3518 STATE ST", "postcode": "48602"}}},
{"geometry": {"type": "Point", "coordinates": [-83.9519807748, 43.4304114585]}, "type": "Feature", "properties": {"collection_times": [{"days": "Mon-Fri", "time": "3:00pm"}, {"days": "Sat", "time": "1:00pm"}, {"days": "Sun", "time": "Closed"}], "id": "4860200064", "name": "USPS COLLECTION BOX - BLUE BOX", "address": {"city": "SAGINAW", "state": "MI", "street": "700 COOPER AVE", "postcode": "48602"}}},
{"geometry": {"type": "Point", "coordinates": [-84.0123060532, 43.4153283562]}, "type": "Feature", "properties": {"collection_times": [{"days": "Mon-Sat", "time": "3:00pm"}, {"days": "Sun", "time": "Closed"}], "id": "4860200067", "name": "USPS COLLECTION BOX - BLUE BOX", "address": {"city": "SAGINAW", "state": "MI", "street": "4880 GRATIOT RD", "postcode": "48602"}}},
{"geometry": {"type": "Point", "coordinates": [-83.9635815821, 43.4755274042]}, "type": "Feature", "properties": {"collection_times": [{"days": "Mon-Sat", "time": "3:00pm"}, {"days": "Sun", "time": "Closed"}], "id": "4860300001", "name": "USPS COLLECTION BOX - BLUE BOX", "address": {"city": "SAGINAW", "state": "MI", "street": "4701 TOWNE CENTRE RD", "postcode": "48603"}}},
{"geometry": {"type": "Point", "coordinates": [-83.9755972013, 43.448287504]}, "type": "Feature", "properties": {"collection_times": [{"days": "Mon-Sat", "time": "3:00pm"}, {"days": "Sun", "time": "Closed"}], "id": "4860300028", "name": "USPS COLLECTION BOX - BLUE BOX", "address": {"city": "SAGINAW", "state": "MI", "street": "2885 BAY RD", "postcode": "48603"}}},
{"geometry": {"type": "Point", "coordinates": [-83.9753937642, 43.4785550441]}, "type": "Feature", "properties": {"collection_times": [{"days": "Mon-Sat", "time": "3:00pm"}, {"days": "Sun", "time": "Closed"}], "id": "4860300034", "name": "USPS COLLECTION BOX - BLUE BOX", "address": {"city": "SAGINAW", "state": "MI", "street": "4900 BAY RD", "postcode": "48603"}}},
{"geometry": {"type": "Point", "coordinates": [-83.979377412, 43.455551875]}, "type": "Feature", "properties": {"collection_times": [{"days": "Mon-Fri", "time": "5:00pm"}, {"days": "Sat", "time": "4:00pm"}, {"days": "Sun", "time": "Closed"}], "id": "4860300039", "name": "USPS COLLECTION BOX - BLUE BOX", "address": {"city": "SAGINAW", "state": "MI", "street": "3193 BOARDWALK DR", "postcode": "48603"}}},
{"geometry": {"type": "Point", "coordinates": [-84.0170107754, 43.4152727659]}, "type": "Feature", "properties": {"collection_times": [{"days": "Mon-Sat", "time": "3:00pm"}, {"days": "Sun", "time": "Closed"}], "id": "4860300048", "name": "USPS COLLECTION BOX - BLUE BOX", "address": {"city": "SAGINAW", "state": "MI", "street": "5115 GRATIOT RD", "postcode": "48603"}}},
{"geometry": {"type": "Point", "coordinates": [-83.9476572571, 43.4627011657]}, "type": "Feature", "properties": {"collection_times": [{"days": "Mon-Sat", "time": "3:00pm"}, {"days": "Sun", "time": "Closed"}], "id": "4860300059", "name": "USPS COLLECTION BOX - BLUE BOX", "address": {"city": "SAGINAW", "state": "MI", "street": "3775 N MICHIGAN AVE", "postcode": "48603"}}},
{"geometry": {"type": "Point", "coordinates": [-83.9833242301, 43.4801747479]}, "type": "Feature", "properties": {"collection_times": [{"days": "Mon-Fri", "time": "5:00pm"}, {"days": "Sat", "time": "4:15pm"}, {"days": "Sun", "time": "Closed"}], "id": "4860300072", "name": "USPS COLLECTION BOX - BLUE BOX", "address": {"city": "SAGINAW", "state": "MI", "street": "3360 TITTABAWASSEE RD", "postcode": "48603"}}},
{"geometry": {"type": "Point", "coordinates": [-83.963556343, 43.4785071763]}, "type": "Feature", "properties": {"collection_times": [{"days": "Mon-Sat", "time": "3:00pm"}, {"days": "Sun", "time": "Closed"}], "id": "4860300076", "name": "USPS COLLECTION BOX - BLUE BOX", "address": {"city": "SAGINAW", "state": "MI", "street": "4901 TOWNE CENTRE RD", "postcode": "48603"}}},
{"geometry": {"type": "Point", "coordinates": [-83.9635639207, 43.4776013917]}, "type": "Feature", "properties": {"collection_times": [{"days": "Mon-Sat", "time": "3:00pm"}, {"days": "Sun", "time": "Closed"}], "id": "4860300092", "name": "USPS COLLECTION BOX - BLUE BOX", "address": {"city": "SAGINAW", "state": "MI", "street": "4835 TOWNE CENTRE RD", "postcode": "48603"}}},
{"geometry": {"type": "Point", "coordinates": [-83.9628543046, 43.479988501]}, "type": "Feature", "properties": {"collection_times": [{"days": "Mon-Sat", "time": "3:00pm"}, {"days": "Sun", "time": "Closed"}], "id": "4860300104", "name": "USPS COLLECTION BOX - BLUE BOX", "address": {"city": "SAGINAW", "state": "MI", "street": "2272 TITTABAWASSEE RD", "postcode": "48603"}}},
{"geometry": {"type": "Point", "coordinates": [-83.9476572571, 43.4627011657]}, "type": "Feature", "properties": {"collection_times": [{"days": "Mon-Sat", "time": "3:00pm"}, {"days": "Sun", "time": "Closed"}], "id": "4860300105", "name": "USPS COLLECTION BOX - BLUE BOX", "address": {"city": "SAGINAW", "state": "MI", "street": "3775 N MICHIGAN AVE", "postcode": "48603"}}},
{"geometry": {"type": "Point", "coordinates": [-83.979377412, 43.455551875]}, "type": "Feature", "properties": {"collection_times": [{"days": "Mon-Fri", "time": "5:00pm"}, {"days": "Sat", "time": "4:00pm"}, {"days": "Sun", "time": "Closed"}], "id": "4860300106", "name": "USPS COLLECTION BOX - PO LOBBY", "address": {"city": "SAGINAW", "state": "MI", "street": "3193 BOARDWALK DR", "postcode": "48603"}}},
{"geometry": {"type": "Point", "coordinates": [-84.0146473471, 43.4512792671]}, "type": "Feature", "properties": {"collection_times": [{"days": "Mon-Sat", "time": "3:00pm"}, {"days": "Sun", "time": "Closed"}], "id": "4860300109", "name": "USPS COLLECTION BOX - BLUE BOX", "address": {"city": "SAGINAW", "state": "MI", "street": "4980 SHATTUCK RD", "postcode": "48603"}}},
{"geometry": {"type": "Point", "coordinates": [-83.9197034741, 43.4793040045]}, "type": "Feature", "properties": {"collection_times": [{"days": "Mon-Sat", "time": "1:00pm"}, {"days": "Sun", "time": "Closed"}], "id": "4860300116", "name": "USPS COLLECTION BOX - BLUE BOX", "address": {"city": "SAGINAW", "state": "MI", "street": "319 TITTABAWASSEE RD", "postcode": "48603"}}},
{"geometry": {"type": "Point", "coordinates": [-84.0055502402, 43.4411444227]}, "type": "Feature", "properties": {"collection_times": [{"days": "Mon-Sat", "time": "1:00pm"}, {"days": "Sun", "time": "Closed"}], "id": "4860300117", "name": "USPS COLLECTION BOX - BLUE BOX", "address": {"city": "SAGINAW", "state": "MI", "street": "4545 COLONIAL DR", "postcode": "48603"}}},
{"geometry": {"type": "Point", "coordinates": [-84.0295272623, 43.4385632082]}, "type": "Feature", "properties": {"collection_times": [{"days": "Mon-Fri", "time": "5:00pm"}, {"days": "Sat", "time": "3:15pm"}, {"days": "Sun", "time": "Closed"}], "id": "4860300122", "name": "USPS COLLECTION BOX - BLUE BOX", "address": {"city": "SAGINAW", "state": "MI", "street": "2130 WIENEKE RD", "postcode": "48603"}}},
{"geometry": {"type": "Point", "coordinates": [-83.979377412, 43.455551875]}, "type": "Feature", "properties": {"collection_times": [{"days": "Mon-Fri", "time": "5:00pm"}, {"days": "Sat", "time": "4:00pm"}, {"days": "Sun", "time": "Closed"}], "id": "4860300124", "name": "USPS COLLECTION BOX - BLUE BOX", "address": {"city": "SAGINAW", "state": "MI", "street": "3193 BOARDWALK DR", "postcode": "48603"}}},
{"geometry": {"type": "Point", "coordinates": [-84.0166274703, 43.4369097658]}, "type": "Feature", "properties": {"collection_times": [{"days": "Mon-Sat", "time": "1:00pm"}, {"days": "Sun", "time": "Closed"}], "id": "4860300125", "name": "USPS COLLECTION BOX - BLUE BOX", "address": {"city": "SAGINAW", "state": "MI", "street": "5090 STATE ST", "postcode": "48603"}}},
{"geometry": {"type": "Point", "coordinates": [-84.0058516737, 43.4367989953]}, "type": "Feature", "properties": {"collection_times": [{"days": "Mon-Fri", "time": "3:00pm"}, {"days": "Sat", "time": "2:00pm"}, {"days": "Sun", "time": "Closed"}], "id": "4860300126", "name": "USPS COLLECTION BOX - BLUE BOX", "address": {"city": "SAGINAW", "state": "MI", "street": "4550 STATE ST", "postcode": "48603"}}},
{"geometry": {"type": "Point", "coordinates": [-84.0170107754, 43.4152727659]}, "type": "Feature", "properties": {"collection_times": [{"days": "Mon-Sat", "time": "3:00pm"}, {"days": "Sun", "time": "Closed"}], "id": "4860300129", "name": "USPS COLLECTION BOX - BLUE BOX", "address": {"city": "SAGINAW", "state": "MI", "street": "5115 GRATIOT RD", "postcode": "48603"}}},
{"geometry": {"type": "Point", "coordinates": [-83.9701416034, 43.4770485419]}, "type": "Feature", "properties": {"collection_times": [{"days": "Mon-Sat", "time": "3:00pm"}, {"days": "Sun", "time": "Closed"}], "id": "4860300130", "name": "USPS COLLECTION BOX - BLUE BOX", "address": {"city": "SAGINAW", "state": "MI", "street": "4800 FASHION SQUARE BLVD", "postcode": "48603"}}},
{"geometry": {"type": "Point", "coordinates": [-84.0058516737, 43.4367989953]}, "type": "Feature", "properties": {"collection_times": [{"days": "Mon-Fri", "time": "3:00pm"}, {"days": "Sat", "time": "2:00pm"}, {"days": "Sun", "time": "Closed"}], "id": "4860300131", "name": "USPS COLLECTION BOX - BLUE BOX", "address": {"city": "SAGINAW", "state": "MI", "street": "4550 STATE ST", "postcode": "48603"}}},
{"geometry": {"type": "Point", "coordinates": [-83.9833242301, 43.4801747479]}, "type": "Feature", "properties": {"collection_times": [{"days": "Mon-Fri", "time": "5:00pm"}, {"days": "Sat", "time": "4:15pm"}, {"days": "Sun", "time": "Closed"}], "id": "4860300132", "name": "USPS COLLECTION BOX - BLUE BOX", "address": {"city": "SAGINAW", "state": "MI", "street": "3360 TITTABAWASSEE RD", "postcode": "48603"}}},
{"geometry": {"type": "Point", "coordinates": [-83.945643886, 43.420676349]}, "type": "Feature", "properties": {"collection_times": [{"days": "Mon-Sat", "time": "6:00pm"}, {"days": "Sun", "time": "Closed"}], "id": "4860500002", "name": "USPS COLLECTION BOX - PO LOBBY", "address": {"city": "SAGINAW", "state": "MI", "street": "1233 S WASHINGTON AVE", "postcode": "48605"}}},
{"geometry": {"type": "Point", "coordinates": [-83.945643886, 43.420676349]}, "type": "Feature", "properties": {"collection_times": [{"days": "Mon-Sat", "time": "6:00pm"}, {"days": "Sun", "time": "Closed"}], "id": "4860500007", "name": "USPS COLLECTION BOX - BLUE BOX", "address": {"city": "SAGINAW", "state": "MI", "street": "1233 S WASHINGTON AVE", "postcode": "48605"}}},
{"geometry": {"type": "Point", "coordinates": [-84.120585423, 44.125512776]}, "type": "Feature", "properties": {"collection_times": [{"days": "Mon-Fri", "time": "4:00pm"}, {"days": "Sat", "time": "9:00am"}, {"days": "Sun", "time": "Closed"}], "id": "4861000000", "name": "USPS COLLECTION BOX - BLUE BOX", "address": {"city": "ALGER", "state": "MI", "street": "1454 JOY ST", "postcode": "48610"}}},
{"geometry": {"type": "Point", "coordinates": [-84.120585423, 44.125512776]}, "type": "Feature", "properties": {"collection_times": [{"days": "Mon-Fri", "time": "4:00pm"}, {"days": "Sat", "time": "9:00am"}, {"days": "Sun", "time": "Closed"}], "id": "4861000001", "name": "USPS COLLECTION BOX - PO LOBBY", "address": {"city": "ALGER", "state": "MI", "street": "1454 JOY ST", "postcode": "48610"}}},
{"geometry": {"type": "Point", "coordinates": [-84.087801369, 43.603592434]}, "type": "Feature", "properties": {"collection_times": [{"days": "Mon-Fri", "time": "4:30pm"}, {"days": "Sat", "time": "10:00am"}, {"days": "Sun", "time": "Closed"}], "id": "4861100001", "name": "USPS COLLECTION BOX - BLUE BOX", "address": {"city": "AUBURN", "state": "MI", "street": "951 W MIDLAND RD", "postcode": "48611"}}},
{"geometry": {"type": "Point", "coordinates": [-84.087801369, 43.603592434]}, "type": "Feature", "properties": {"collection_times": [{"days": "Mon-Fri", "time": "4:30pm"}, {"days": "Sat", "time": "10:00am"}, {"days": "Sun", "time": "Closed"}], "id": "4861100003", "name": "USPS COLLECTION BOX - PO LOBBY", "address": {"city": "AUBURN", "state": "MI", "street": "951 W MIDLAND RD", "postcode": "48611"}}},
{"geometry": {"type": "Point", "coordinates": [-84.485335354, 43.87985064]}, "type": "Feature", "properties": {"collection_times": [{"days": "Mon-Fri", "time": "4:25pm"}, {"days": "Sat", "time": "10:00am"}, {"days": "Sun", "time": "Closed"}], "id": "4861200001", "name": "USPS COLLECTION BOX - BLUE BOX", "address": {"city": "BEAVERTON", "state": "MI", "street": "362 N ROSS ST", "postcode": "48612"}}},
{"geometry": {"type": "Point", "coordinates": [-84.485335354, 43.87985064]}, "type": "Feature", "properties": {"collection_times": [{"days": "Mon-Fri", "time": "4:25pm"}, {"days": "Sat", "time": "10:00am"}, {"days": "Sun", "time": "Closed"}], "id": "4861200005", "name": "USPS COLLECTION BOX - PO LOBBY", "address": {"city": "BEAVERTON", "state": "MI", "street": "362 N ROSS ST", "postcode": "48612"}}},
{"geometry": {"type": "Point", "coordinates": [-84.4853696875, 43.8804519565]}, "type": "Feature", "properties": {"collection_times": [{"days": "Mon-Sat", "time": "9:00am"}, {"days": "Sun", "time": "Closed"}], "id": "4861200007", "name": "USPS COLLECTION BOX - BLUE BOX", "address": {"city": "BEAVERTON", "state": "MI", "street": "190 S ROSS ST", "postcode": "48612"}}},
{"geometry": {"type": "Point", "coordinates": [-84.2287999761, 43.2591868045]}, "type": "Feature", "properties": {"collection_times": [{"days": "Mon-Sat", "time": "10:00am"}, {"days": "Sun", "time": "Closed"}], "id": "4861400003", "name": "USPS COLLECTION BOX - BLUE BOX", "address": {"city": "BRANT", "state": "MI", "street": "15998 W BRANT RD", "postcode": "48614"}}},
{"geometry": {"type": "Point", "coordinates": [-84.476096049, 43.408028557]}, "type": "Feature", "properties": {"collection_times": [{"days": "Mon-Fri", "time": "4:00pm"}, {"days": "Sat", "time": "9:00am"}, {"days": "Sun", "time": "Closed"}], "id": "4861500001", "name": "USPS COLLECTION BOX - BLUE BOX", "address": {"city": "BRECKENRIDGE", "state": "MI", "street": "307 E SAGINAW ST", "postcode": "48615"}}},
{"geometry": {"type": "Point", "coordinates": [-84.476096049, 43.408028557]}, "type": "Feature", "properties": {"collection_times": [{"days": "Mon-Fri", "time": "4:00pm"}, {"days": "Sat", "time": "9:00am"}, {"days": "Sun", "time": "Closed"}], "id": "4861500002", "name": "USPS COLLECTION BOX - PO LOBBY", "address": {"city": "BRECKENRIDGE", "state": "MI", "street": "307 E SAGINAW ST", "postcode": "48615"}}},
{"geometry": {"type": "Point", "coordinates": [-84.1159350201, 43.1848606674]}, "type": "Feature", "properties": {"collection_times": [{"days": "Mon-Fri", "time": "2:30pm"}, {"days": "Sat", "time": "2:00pm"}, {"days": "Sun", "time": "Closed"}], "id": "4861600002", "name": "USPS COLLECTION BOX - BLUE BOX", "address": {"city": "CHESANING", "state": "MI", "street": "150 W BROAD ST", "postcode": "48616"}}},
{"geometry": {"type": "Point", "coordinates": [-84.113807512, 43.183881985]}, "type": "Feature", "properties": {"collection_times": [{"days": "Mon-Fri", "time": "4:30pm"}, {"days": "Sat", "time": "3:00pm"}, {"days": "Sun", "time": "Closed"}], "id": "4861600004", "name": "USPS COLLECTION BOX - BLUE BOX", "address": {"city": "CHESANING", "state": "MI", "street": "230 E BROAD ST", "postcode": "48616"}}},
{"geometry": {"type": "Point", "coordinates": [-84.113807512, 43.183881985]}, "type": "Feature", "properties": {"collection_times": [{"days": "Mon-Fri", "time": "4:30pm"}, {"days": "Sat", "time": "3:00pm"}, {"days": "Sun", "time": "Closed"}], "id": "4861600005", "name": "USPS COLLECTION BOX - BLUE BOX", "address": {"city": "CHESANING", "state": "MI", "street": "230 E BROAD ST", "postcode": "48616"}}},
{"geometry": {"type": "Point", "coordinates": [-84.113807512, 43.183881985]}, "type": "Feature", "properties": {"collection_times": [{"days": "Mon-Fri", "time": "4:30pm"}, {"days": "Sat", "time": "3:00pm"}, {"days": "Sun", "time": "Closed"}], "id": "4861600007", "name": "USPS COLLECTION BOX - PO LOBBY", "address": {"city": "CHESANING", "state": "MI", "street": "230 E BROAD ST", "postcode": "48616"}}},
{"geometry": {"type": "Point", "coordinates": [-84.7682754663, 43.82363295]}, "type": "Feature", "properties": {"collection_times": [{"days": "Mon-Sat", "time": "10:00am"}, {"days": "Sun", "time": "Closed"}], "id": "4861700003", "name": "USPS COLLECTION BOX - BLUE BOX", "address": {"city": "CLARE", "state": "MI", "street": "1026 N MCEWAN ST", "postcode": "48617"}}},
{"geometry": {"type": "Point", "coordinates": [-84.7684385755, 43.8250868606]}, "type": "Feature", "properties": {"collection_times": [{"days": "Mon-Sat", "time": "10:30am"}, {"days": "Sun", "time": "Closed"}], "id": "4861700004", "name": "USPS COLLECTION BOX - BLUE BOX", "address": {"city": "CLARE", "state": "MI", "street": "1141 N MCEWAN ST", "postcode": "48617"}}},
{"geometry": {"type": "Point", "coordinates": [-84.768679194, 43.819658301]}, "type": "Feature", "properties": {"collection_times": [{"days": "Mon-Fri", "time": "4:30pm"}, {"days": "Sat", "time": "12:00pm"}, {"days": "Sun", "time": "Closed"}], "id": "4861700008", "name": "USPS COLLECTION BOX - PO LOBBY", "address": {"city": "CLARE", "state": "MI", "street": "111 W 5TH ST", "postcode": "48617"}}},
{"geometry": {"type": "Point", "coordinates": [-84.768679194, 43.819658301]}, "type": "Feature", "properties": {"collection_times": [{"days": "Mon-Fri", "time": "4:30pm"}, {"days": "Sat", "time": "12:00pm"}, {"days": "Sun", "time": "Closed"}], "id": "4861700010", "name": "USPS COLLECTION BOX - BLUE BOX", "address": {"city": "CLARE", "state": "MI", "street": "111 W 5TH ST", "postcode": "48617"}}},
{"geometry": {"type": "Point", "coordinates": [-84.584725207, 43.756270927]}, "type": "Feature", "properties": {"collection_times": [{"days": "Mon-Fri", "time": "4:00pm"}, {"days": "Sat", "time": "11:00am"}, {"days": "Sun", "time": "Closed"}], "id": "4861800001", "name": "USPS COLLECTION BOX - BLUE BOX", "address": {"city": "COLEMAN", "state": "MI", "street": "109 N 3RD ST", "postcode": "48618"}}},
{"geometry": {"type": "Point", "coordinates": [-84.584725207, 43.756270927]}, "type": "Feature", "properties": {"collection_times": [{"days": "Mon-Fri", "time": "4:00pm"}, {"days": "Sat", "time": "11:00am"}, {"days": "Sun", "time": "Closed"}], "id": "4861800003", "name": "USPS COLLECTION BOX - PO LOBBY", "address": {"city": "COLEMAN", "state": "MI", "street": "109 N 3RD ST", "postcode": "48618"}}},
{"geometry": {"type": "Point", "coordinates": [-84.05123721, 44.804868677]}, "type": "Feature", "properties": {"collection_times": [{"days": "Mon-Fri", "time": "3:40pm"}, {"days": "Sat", "time": "9:30am"}, {"days": "Sun", "time": "Closed"}], "id": "4861900001", "name": "USPS COLLECTION BOX - BLUE BOX", "address": {"city": "COMINS", "state": "MI", "street": "4240 N ABBE RD", "postcode": "48619"}}},
{"geometry": {"type": "Point", "coordinates": [-84.05123721, 44.804868677]}, "type": "Feature", "properties": {"collection_times": [{"days": "Mon-Fri", "time": "3:40pm"}, {"days": "Sat", "time": "9:30am"}, {"days": "Sun", "time": "Closed"}], "id": "4861900002", "name": "USPS COLLECTION BOX - PO LOBBY", "address": {"city": "COMINS", "state": "MI", "street": "4240 N ABBE RD", "postcode": "48619"}}},
{"geometry": {"type": "Point", "coordinates": [-84.385204466, 43.805539582]}, "type": "Feature", "properties": {"collection_times": [{"days": "Mon-Fri", "time": "3:40pm"}, {"days": "Sat", "time": "11:00am"}, {"days": "Sun", "time": "Closed"}], "id": "4862000001", "name": "USPS COLLECTION BOX - BLUE BOX", "address": {"city": "EDENVILLE", "state": "MI", "street": "461 CEDAR DR", "postcode": "48620"}}},
{"geometry": {"type": "Point", "coordinates": [-84.385204466, 43.805539582]}, "type": "Feature", "properties": {"collection_times": [{"days": "Mon-Fri", "time": "3:40pm"}, {"days": "Sat", "time": "11:00am"}, {"days": "Sun", "time": "Closed"}], "id": "4862000002", "name": "USPS COLLECTION BOX - PO LOBBY", "address": {"city": "EDENVILLE", "state": "MI", "street": "461 CEDAR DR", "postcode": "48620"}}},
{"geometry": {"type": "Point", "coordinates": [-84.050618991, 44.725808504]}, "type": "Feature", "properties": {"collection_times": [{"days": "Mon-Fri", "time": "3:55pm"}, {"days": "Sat", "time": "9:30am"}, {"days": "Sun", "time": "Closed"}], "id": "4862100001", "name": "USPS COLLECTION BOX - BLUE BOX", "address": {"city": "FAIRVIEW", "state": "MI", "street": "1531 N ABBE RD", "postcode": "48621"}}},
{"geometry": {"type": "Point", "coordinates": [-84.050618991, 44.725808504]}, "type": "Feature", "properties": {"collection_times": [{"days": "Mon-Fri", "time": "3:55pm"}, {"days": "Sat", "time": "9:30am"}, {"days": "Sun", "time": "Closed"}], "id": "4862100002", "name": "USPS COLLECTION BOX - PO LOBBY", "address": {"city": "FAIRVIEW", "state": "MI", "street": "1531 N ABBE RD", "postcode": "48621"}}},
{"geometry": {"type": "Point", "coordinates": [-84.868991928, 43.835282852]}, "type": "Feature", "properties": {"collection_times": [{"days": "Mon-Fri", "time": "4:15pm"}, {"days": "Sat", "time": "11:30am"}, {"days": "Sun", "time": "Closed"}], "id": "4862200003", "name": "USPS COLLECTION BOX - BLUE BOX", "address": {"city": "FARWELL", "state": "MI", "street": "254 W MAIN ST", "postcode": "48622"}}},
{"geometry": {"type": "Point", "coordinates": [-84.868991928, 43.835282852]}, "type": "Feature", "properties": {"collection_times": [{"days": "Mon-Fri", "time": "4:15pm"}, {"days": "Sat", "time": "11:30am"}, {"days": "Sun", "time": "Closed"}], "id": "4862200004", "name": "USPS COLLECTION BOX - PO LOBBY", "address": {"city": "FARWELL", "state": "MI", "street": "254 W MAIN ST", "postcode": "48622"}}},
{"geometry": {"type": "Point", "coordinates": [-84.120380986, 43.524882368]}, "type": "Feature", "properties": {"collection_times": [{"days": "Mon-Fri", "time": "4:30pm"}, {"days": "Sat", "time": "12:00pm"}, {"days": "Sun", "time": "Closed"}], "id": "4862300001", "name": "USPS COLLECTION BOX - BLUE BOX", "address": {"city": "FREELAND", "state": "MI", "street": "240 E WASHINGTON RD", "postcode": "48623"}}},
{"geometry": {"type": "Point", "coordinates": [-84.120380986, 43.524882368]}, "type": "Feature", "properties": {"collection_times": [{"days": "Mon-Fri", "time": "5:00pm"}, {"days": "Sat", "time": "12:00pm"}, {"days": "Sun", "time": "Closed"}], "id": "4862300004", "name": "USPS COLLECTION BOX - PO LOBBY", "address": {"city": "FREELAND", "state": "MI", "street": "240 E WASHINGTON RD", "postcode": "48623"}}},
{"geometry": {"type": "Point", "coordinates": [-84.1212028494, 43.5210324283]}, "type": "Feature", "properties": {"collection_times": [{"days": "Mon-Sat", "time": "10:00am"}, {"days": "Sun", "time": "Closed"}], "id": "4862300005", "name": "USPS COLLECTION BOX - BLUE BOX", "address": {"city": "FREELAND", "state": "MI", "street": "7620 MIDLAND RD", "postcode": "48623"}}},
{"geometry": {"type": "Point", "coordinates": [-84.3653708726, 43.9804072209]}, "type": "Feature", "properties": {"collection_times": [{"days": "Mon-Sat", "time": "11:00am"}, {"days": "Sun", "time": "Closed"}], "id": "4862400001", "name": "USPS COLLECTION BOX - BLUE BOX", "address": {"city": "GLADWIN", "state": "MI", "street": "27 E M 61", "postcode": "48624"}}},
{"geometry": {"type": "Point", "coordinates": [-84.4857582382, 43.9902973576]}, "type": "Feature", "properties": {"collection_times": [{"days": "Mon-Sat", "time": "11:00am"}, {"days": "Sun", "time": "Closed"}], "id": "4862400002", "name": "USPS COLLECTION BOX - BLUE BOX", "address": {"city": "GLADWIN", "state": "MI", "street": "1204 N STATE ST", "postcode": "48624"}}},
{"geometry": {"type": "Point", "coordinates": [-84.490451861, 43.981110745]}, "type": "Feature", "properties": {"collection_times": [{"days": "Mon-Fri", "time": "4:10pm"}, {"days": "Sat", "time": "3:00pm"}, {"days": "Sun", "time": "Closed"}], "id": "4862400013", "name": "USPS COLLECTION BOX - PO LOBBY", "address": {"city": "GLADWIN", "state": "MI", "street": "140 N BOWERY AVE", "postcode": "48624"}}},
{"geometry": {"type": "Point", "coordinates": [-84.490451861, 43.981110745]}, "type": "Feature", "properties": {"collection_times": [{"days": "Mon-Fri", "time": "4:10pm"}, {"days": "Sat", "time": "3:00pm"}, {"days": "Sun", "time": "Closed"}], "id": "4862400014", "name": "USPS COLLECTION BOX - BLUE BOX", "address": {"city": "GLADWIN", "state": "MI", "street": "140 N BOWERY AVE", "postcode": "48624"}}},
{"geometry": {"type": "Point", "coordinates": [-84.7994389754, 44.0188716727]}, "type": "Feature", "properties": {"collection_times": [{"days": "Mon-Sat", "time": "4:25pm"}, {"days": "Sun", "time": "Closed"}], "id": "4862500001", "name": "USPS COLLECTION BOX - BLUE BOX", "address": {"city": "HARRISON", "state": "MI", "street": "191 S 1ST ST", "postcode": "48625"}}},
{"geometry": {"type": "Point", "coordinates": [-84.7994389754, 44.0188716727]}, "type": "Feature", "properties": {"collection_times": [{"days": "Mon-Sat", "time": "4:25pm"}, {"days": "Sun", "time": "Closed"}], "id": "4862500002", "name": "USPS COLLECTION BOX - BLUE BOX", "address": {"city": "HARRISON", "state": "MI", "street": "191 S 1ST ST", "postcode": "48625"}}},
{"geometry": {"type": "Point", "coordinates": [-84.7677178984, 43.9656475823]}, "type": "Feature", "properties": {"collection_times": [{"days": "Mon-Sat", "time": "12:00pm"}, {"days": "Sun", "time": "Closed"}], "id": "4862500003", "name": "USPS COLLECTION BOX - BLUE BOX", "address": {"city": "HARRISON", "state": "MI", "street": "1570 S CLARE AVE", "postcode": "48625"}}},
{"geometry": {"type": "Point", "coordinates": [-84.7994389754, 44.0188716727]}, "type": "Feature", "properties": {"collection_times": [{"days": "Mon-Sat", "time": "4:25pm"}, {"days": "Sun", "time": "Closed"}], "id": "4862500005", "name": "USPS COLLECTION BOX - PO LOBBY", "address": {"city": "HARRISON", "state": "MI", "street": "191 S 1ST ST", "postcode": "48625"}}},
{"geometry": {"type": "Point", "coordinates": [-84.229637307, 43.41338575]}, "type": "Feature", "properties": {"collection_times": [{"days": "Mon-Fri", "time": "3:45pm"}, {"days": "Sat", "time": "9:00am"}, {"days": "Sun", "time": "Closed"}], "id": "4862600002", "name": "USPS COLLECTION BOX - PO LOBBY", "address": {"city": "HEMLOCK", "state": "MI", "street": "215 S HEMLOCK RD", "postcode": "48626"}}},
{"geometry": {"type": "Point", "coordinates": [-84.229637307, 43.41338575]}, "type": "Feature", "properties": {"collection_times": [{"days": "Mon-Fri", "time": "3:45pm"}, {"days": "Sat", "time": "9:00am"}, {"days": "Sun", "time": "Closed"}], "id": "4862600003", "name": "USPS COLLECTION BOX - BLUE BOX", "address": {"city": "HEMLOCK", "state": "MI", "street": "215 S HEMLOCK RD", "postcode": "48626"}}},
{"geometry": {"type": "Point", "coordinates": [-84.778377473, 44.490946934]}, "type": "Feature", "properties": {"collection_times": [{"days": "Mon-Fri", "time": "2:35pm"}, {"days": "Sat", "time": "11:00am"}, {"days": "Sun", "time": "Closed"}], "id": "4862700002", "name": "USPS COLLECTION BOX - BLUE BOX", "address": {"city": "HIGGINS LAKE", "state": "MI", "street": "6311 W HIGGINS LAKE DR", "postcode": "48627"}}},
{"geometry": {"type": "Point", "coordinates": [-84.778377473, 44.490946934]}, "type": "Feature", "properties": {"collection_times": [{"days": "Mon-Fri", "time": "2:35pm"}, {"days": "Sat", "time": "11:00am"}, {"days": "Sun", "time": "Closed"}], "id": "4862700003", "name": "USPS COLLECTION BOX - PO LOBBY", "address": {"city": "HIGGINS LAKE", "state": "MI", "street": "6311 W HIGGINS LAKE DR", "postcode": "48627"}}},
{"geometry": {"type": "Point", "coordinates": [-84.338713039, 43.763258364]}, "type": "Feature", "properties": {"collection_times": [{"days": "Mon-Fri", "time": "3:25pm"}, {"days": "Sat", "time": "1:00pm"}, {"days": "Sun", "time": "Closed"}], "id": "4862800001", "name": "USPS COLLECTION BOX - BLUE BOX", "address": {"city": "HOPE", "state": "MI", "street": "5230 N HOPE RD", "postcode": "48628"}}},
{"geometry": {"type": "Point", "coordinates": [-84.338713039, 43.763258364]}, "type": "Feature", "properties": {"collection_times": [{"days": "Mon-Fri", "time": "3:25pm"}, {"days": "Sat", "time": "1:00pm"}, {"days": "Sun", "time": "Closed"}], "id": "4862800002", "name": "USPS COLLECTION BOX - PO LOBBY", "address": {"city": "HOPE", "state": "MI", "street": "5230 N HOPE RD", "postcode": "48628"}}},
{"geometry": {"type": "Point", "coordinates": [-84.753331691, 44.301819905]}, "type": "Feature", "properties": {"collection_times": [{"days": "Mon-Fri", "time": "3:05pm"}, {"days": "Sat", "time": "12:00pm"}, {"days": "Sun", "time": "Closed"}], "id": "4862900001", "name": "USPS COLLECTION BOX - BLUE BOX", "address": {"city": "HOUGHTON LAKE", "state": "MI", "street": "2255 TOWER HILL RD", "postcode": "48629"}}},
{"geometry": {"type": "Point", "coordinates": [-84.7837083402, 44.3297179679]}, "type": "Feature", "properties": {"collection_times": [{"days": "Mon-Sat", "time": "10:30am"}, {"days": "Sun", "time": "Closed"}], "id": "4862900002", "name": "USPS COLLECTION BOX - BLUE BOX", "address": {"city": "HOUGHTON LAKE", "state": "MI", "street": "8135 W HOUGHTON LAKE DR", "postcode": "48629"}}},
{"geometry": {"type": "Point", "coordinates": [-84.7116620851, 44.2984982905]}, "type": "Feature", "properties": {"collection_times": [{"days": "Mon-Sat", "time": "11:30am"}, {"days": "Sun", "time": "Closed"}], "id": "4862900003", "name": "USPS COLLECTION BOX - BLUE BOX", "address": {"city": "HOUGHTON LAKE", "state": "MI", "street": "3561 W HOUGHTON LAKE DR", "postcode": "48629"}}},
{"geometry": {"type": "Point", "coordinates": [-84.753331691, 44.301819905]}, "type": "Feature", "properties": {"collection_times": [{"days": "Mon-Fri", "time": "3:05pm"}, {"days": "Sat", "time": "12:00pm"}, {"days": "Sun", "time": "Closed"}], "id": "4862900004", "name": "USPS COLLECTION BOX - PO LOBBY", "address": {"city": "HOUGHTON LAKE", "state": "MI", "street": "2255 TOWER HILL RD", "postcode": "48629"}}},
{"geometry": {"type": "Point", "coordinates": [-84.7303843855, 44.2982819776]}, "type": "Feature", "properties": {"collection_times": [{"days": "Mon-Sat", "time": "11:30am"}, {"days": "Sun", "time": "Closed"}], "id": "4862900006", "name": "USPS COLLECTION BOX - BLUE BOX", "address": {"city": "HOUGHTON LAKE", "state": "MI", "street": "4562 W HOUGHTON LAKE DR", "postcode": "48629"}}},
{"geometry": {"type": "Point", "coordinates": [-84.6440721737, 44.3281096016]}, "type": "Feature", "properties": {"collection_times": [{"days": "Mon-Sat", "time": "11:00am"}, {"days": "Sun", "time": "Closed"}], "id": "4862900007", "name": "USPS COLLECTION BOX - BLUE BOX", "address": {"city": "HOUGHTON LAKE", "state": "MI", "street": "2129 W HOUGHTON LAKE DR", "postcode": "48629"}}},
{"geometry": {"type": "Point", "coordinates": [-84.77219836, 44.327837211]}, "type": "Feature", "properties": {"collection_times": [{"days": "Mon-Fri", "time": "2:55pm"}, {"days": "Sat", "time": "10:00am"}, {"days": "Sun", "time": "Closed"}], "id": "4863000001", "name": "USPS COLLECTION BOX - BLUE BOX", "address": {"city": "HOUGHTON LAKE", "state": "MI", "street": "1641 HEIGHTSVIEW DR", "postcode": "48630"}}},
{"geometry": {"type": "Point", "coordinates": [-84.77219836, 44.327837211]}, "type": "Feature", "properties": {"collection_times": [{"days": "Mon-Fri", "time": "2:55pm"}, {"days": "Sat", "time": "10:00am"}, {"days": "Sun", "time": "Closed"}], "id": "4863000002", "name": "USPS COLLECTION BOX - PO LOBBY", "address": {"city": "HOUGHTON LAKE", "state": "MI", "street": "1641 HEIGHTSVIEW DR", "postcode": "48630"}}},
{"geometry": {"type": "Point", "coordinates": [-83.945227236, 43.651602256]}, "type": "Feature", "properties": {"collection_times": [{"days": "Mon-Fri", "time": "4:30pm"}, {"days": "Sat", "time": "10:30am"}, {"days": "Sun", "time": "Closed"}], "id": "4863100001", "name": "USPS COLLECTION BOX - BLUE BOX", "address": {"city": "KAWKAWLIN", "state": "MI", "street": "121 W GROVE ST", "postcode": "48631"}}},
{"geometry": {"type": "Point", "coordinates": [-83.945227236, 43.651602256]}, "type": "Feature", "properties": {"collection_times": [{"days": "Mon-Fri", "time": "4:30pm"}, {"days": "Sat", "time": "10:30am"}, {"days": "Sun", "time": "Closed"}], "id": "4863100002", "name": "USPS COLLECTION BOX - PO LOBBY", "address": {"city": "KAWKAWLIN", "state": "MI", "street": "121 W GROVE ST", "postcode": "48631"}}},
{"geometry": {"type": "Point", "coordinates": [-85.013854544, 43.857891812]}, "type": "Feature", "properties": {"collection_times": [{"days": "Mon-Fri", "time": "4:00pm"}, {"days": "Sat", "time": "9:30am"}, {"days": "Sun", "time": "Closed"}], "id": "4863200002", "name": "USPS COLLECTION BOX - BLUE BOX", "address": {"city": "LAKE", "state": "MI", "street": "8959 LAKE STATION AVE", "postcode": "48632"}}},
{"geometry": {"type": "Point", "coordinates": [-85.013854544, 43.857891812]}, "type": "Feature", "properties": {"collection_times": [{"days": "Mon-Fri", "time": "4:00pm"}, {"days": "Sat", "time": "9:30am"}, {"days": "Sun", "time": "Closed"}], "id": "4863200003", "name": "USPS COLLECTION BOX - PO LOBBY", "address": {"city": "LAKE", "state": "MI", "street": "8959 LAKE STATION AVE", "postcode": "48632"}}},
{"geometry": {"type": "Point", "coordinates": [-84.951345826, 43.972365684]}, "type": "Feature", "properties": {"collection_times": [{"days": "Mon-Fri", "time": "3:45pm"}, {"days": "Sat", "time": "10:45am"}, {"days": "Sun", "time": "Closed"}], "id": "4863300001", "name": "USPS COLLECTION BOX - BLUE BOX", "address": {"city": "LAKE GEORGE", "state": "MI", "street": "190 W PARK ST", "postcode": "48633"}}},
{"geometry": {"type": "Point", "coordinates": [-84.951345826, 43.972365684]}, "type": "Feature", "properties": {"collection_times": [{"days": "Mon-Fri", "time": "3:45pm"}, {"days": "Sat", "time": "10:45am"}, {"days": "Sun", "time": "Closed"}], "id": "4863300003", "name": "USPS COLLECTION BOX - PO LOBBY", "address": {"city": "LAKE GEORGE", "state": "MI", "street": "190 W PARK ST", "postcode": "48633"}}},
{"geometry": {"type": "Point", "coordinates": [-83.961820094, 43.738706695]}, "type": "Feature", "properties": {"collection_times": [{"days": "Mon-Fri", "time": "4:00pm"}, {"days": "Sat", "time": "11:00am"}, {"days": "Sun", "time": "Closed"}], "id": "4863400001", "name": "USPS COLLECTION BOX - BLUE BOX", "address": {"city": "LINWOOD", "state": "MI", "street": "200 W CENTER ST", "postcode": "48634"}}},
{"geometry": {"type": "Point", "coordinates": [-83.961820094, 43.738706695]}, "type": "Feature", "properties": {"collection_times": [{"days": "Mon-Fri", "time": "4:00pm"}, {"days": "Sat", "time": "11:00am"}, {"days": "Sun", "time": "Closed"}], "id": "4863400002", "name": "USPS COLLECTION BOX - PO LOBBY", "address": {"city": "LINWOOD", "state": "MI", "street": "200 W CENTER ST", "postcode": "48634"}}},
{"geometry": {"type": "Point", "coordinates": [-83.9953186103, 44.3996161802]}, "type": "Feature", "properties": {"collection_times": [{"days": "Mon-Sat", "time": "12:00pm"}, {"days": "Sun", "time": "Closed"}], "id": "4863500006", "name": "USPS COLLECTION BOX - BLUE BOX", "address": {"city": "LUPTON", "state": "MI", "street": "2575 ROSE CITY RD", "postcode": "48635"}}},
{"geometry": {"type": "Point", "coordinates": [-84.269729475, 44.614622029]}, "type": "Feature", "properties": {"collection_times": [{"days": "Mon-Fri", "time": "3:20pm"}, {"days": "Sat", "time": "9:30am"}, {"days": "Sun", "time": "Closed"}], "id": "4863600002", "name": "USPS COLLECTION BOX - PO LOBBY", "address": {"city": "LUZERNE", "state": "MI", "street": "2289 ROYCE AVE", "postcode": "48636"}}},
{"geometry": {"type": "Point", "coordinates": [-84.330338255, 43.408438529]}, "type": "Feature", "properties": {"collection_times": [{"days": "Mon-Fri", "time": "4:00pm"}, {"days": "Sat", "time": "9:00am"}, {"days": "Sun", "time": "Closed"}], "id": "4863700001", "name": "USPS COLLECTION BOX - BLUE BOX", "address": {"city": "MERRILL", "state": "MI", "street": "242 S MIDLAND ST", "postcode": "48637"}}},
{"geometry": {"type": "Point", "coordinates": [-84.330338255, 43.408438529]}, "type": "Feature", "properties": {"collection_times": [{"days": "Mon-Fri", "time": "4:00pm"}, {"days": "Sat", "time": "9:00am"}, {"days": "Sun", "time": "Closed"}], "id": "4863700002", "name": "USPS COLLECTION BOX - PO LOBBY", "address": {"city": "MERRILL", "state": "MI", "street": "242 S MIDLAND ST", "postcode": "48637"}}},
{"geometry": {"type": "Point", "coordinates": [-84.2261319672, 43.6234825988]}, "type": "Feature", "properties": {"collection_times": [{"days": "Mon-Fri", "time": "5:00pm"}, {"days": "Sat", "time": "3:00pm"}, {"days": "Sun", "time": "Closed"}], "id": "4864000001", "name": "USPS COLLECTION BOX - BLUE BOX", "address": {"city": "MIDLAND", "state": "MI", "street": "2901 RODD ST", "postcode": "48640"}}},
{"geometry": {"type": "Point", "coordinates": [-84.2261319672, 43.6234825988]}, "type": "Feature", "properties": {"collection_times": [{"days": "Mon-Fri", "time": "5:00pm"}, {"days": "Sat", "time": "3:00pm"}, {"days": "Sun", "time": "Closed"}], "id": "4864000010", "name": "USPS COLLECTION BOX - BLUE BOX", "address": {"city": "MIDLAND", "state": "MI", "street": "2901 RODD ST", "postcode": "48640"}}},
{"geometry": {"type": "Point", "coordinates": [-84.2569641412, 43.6342182998]}, "type": "Feature", "properties": {"collection_times": [{"days": "Mon-Sat", "time": "2:00pm"}, {"days": "Sun", "time": "Closed"}], "id": "4864000015", "name": "USPS COLLECTION BOX - BLUE BOX", "address": {"city": "MIDLAND", "state": "MI", "street": "4011 ORCHARD DR", "postcode": "48640"}}},
{"geometry": {"type": "Point", "coordinates": [-84.2452311285, 43.6153430698]}, "type": "Feature", "properties": {"collection_times": [{"days": "Mon-Fri", "time": "5:00pm"}, {"days": "Sat", "time": "2:00pm"}, {"days": "Sun", "time": "Closed"}], "id": "4864000020", "name": "USPS COLLECTION BOX - BLUE BOX", "address": {"city": "MIDLAND", "state": "MI", "street": "333 W ELLSWORTH ST", "postcode": "48640"}}},
{"geometry": {"type": "Point", "coordinates": [-84.2445562665, 43.613803108]}, "type": "Feature", "properties": {"collection_times": [{"days": "Mon-Fri", "time": "5:00pm"}, {"days": "Sat", "time": "2:00pm"}, {"days": "Sun", "time": "Closed"}], "id": "4864000026", "name": "USPS COLLECTION BOX - BLUE BOX", "address": {"city": "MIDLAND", "state": "MI", "street": "202 ASHMAN ST", "postcode": "48640"}}},
{"geometry": {"type": "Point", "coordinates": [-84.2324374804, 43.6547614043]}, "type": "Feature", "properties": {"collection_times": [{"days": "Mon-Sat", "time": "2:00pm"}, {"days": "Sun", "time": "Closed"}], "id": "4864000039", "name": "USPS COLLECTION BOX - BLUE BOX", "address": {"city": "MIDLAND", "state": "MI", "street": "555 W WACKERLY ST", "postcode": "48640"}}},
{"geometry": {"type": "Point", "coordinates": [-84.2445562665, 43.613803108]}, "type": "Feature", "properties": {"collection_times": [{"days": "Mon-Fri", "time": "5:00pm"}, {"days": "Sat", "time": "2:00pm"}, {"days": "Sun", "time": "Closed"}], "id": "4864000048", "name": "USPS COLLECTION BOX - BLUE BOX", "address": {"city": "MIDLAND", "state": "MI", "street": "202 ASHMAN ST", "postcode": "48640"}}},
{"geometry": {"type": "Point", "coordinates": [-84.1873247765, 43.6165711416]}, "type": "Feature", "properties": {"collection_times": [{"days": "Mon-Sat", "time": "2:00pm"}, {"days": "Sun", "time": "Closed"}], "id": "4864000056", "name": "USPS COLLECTION BOX - BLUE BOX", "address": {"city": "MIDLAND", "state": "MI", "street": "3300 RIDGECREST DR", "postcode": "48640"}}},
{"geometry": {"type": "Point", "coordinates": [-84.247294707, 43.6548467469]}, "type": "Feature", "properties": {"collection_times": [{"days": "Mon-Sat", "time": "11:00am"}, {"days": "Sun", "time": "Closed"}], "id": "4864000058", "name": "USPS COLLECTION BOX - BLUE BOX", "address": {"city": "MIDLAND", "state": "MI", "street": "1711 W WACKERLY ST", "postcode": "48640"}}},
{"geometry": {"type": "Point", "coordinates": [-84.186978598, 43.6001566951]}, "type": "Feature", "properties": {"collection_times": [{"days": "Mon-Sat", "time": "1:00pm"}, {"days": "Sun", "time": "Closed"}], "id": "4864000062", "name": "USPS COLLECTION BOX - BLUE BOX", "address": {"city": "MIDLAND", "state": "MI", "street": "3403 CENTENNIAL DR", "postcode": "48640"}}},
{"geometry": {"type": "Point", "coordinates": [-84.2447459307, 43.612508932]}, "type": "Feature", "properties": {"collection_times": [{"days": "Mon-Sat", "time": "2:00pm"}, {"days": "Sun", "time": "Closed"}], "id": "4864000067", "name": "USPS COLLECTION BOX - BLUE BOX", "address": {"city": "MIDLAND", "state": "MI", "street": "200 E MAIN ST", "postcode": "48640"}}},
{"geometry": {"type": "Point", "coordinates": [-84.1974207889, 43.6182885139]}, "type": "Feature", "properties": {"collection_times": [{"days": "Mon-Sat", "time": "12:00pm"}, {"days": "Sun", "time": "Closed"}], "id": "4864000069", "name": "USPS COLLECTION BOX - BLUE BOX", "address": {"city": "MIDLAND", "state": "MI", "street": "2405 ABBOTT RD", "postcode": "48640"}}},
{"geometry": {"type": "Point", "coordinates": [-84.2349169554, 43.6549048725]}, "type": "Feature", "properties": {"collection_times": [{"days": "Mon-Sat", "time": "2:00pm"}, {"days": "Sun", "time": "Closed"}], "id": "4864000079", "name": "USPS COLLECTION BOX - BLUE BOX", "address": {"city": "MIDLAND", "state": "MI", "street": "720 W WACKERLY ST", "postcode": "48640"}}},
{"geometry": {"type": "Point", "coordinates": [-84.22583436, 43.623472752]}, "type": "Feature", "properties": {"collection_times": [{"days": "Mon-Fri", "time": "5:00pm"}, {"days": "Sat", "time": "3:00pm"}, {"days": "Sun", "time": "Closed"}], "id": "4864000085", "name": "USPS COLLECTION BOX - PO LOBBY", "address": {"city": "MIDLAND", "state": "MI", "street": "2900 RODD ST", "postcode": "48640"}}},
{"geometry": {"type": "Point", "coordinates": [-84.22583436, 43.623472752]}, "type": "Feature", "properties": {"collection_times": [{"days": "Mon-Fri", "time": "5:00pm"}, {"days": "Sat", "time": "3:00pm"}, {"days": "Sun", "time": "Closed"}], "id": "4864000090", "name": "USPS COLLECTION BOX - BLUE BOX", "address": {"city": "MIDLAND", "state": "MI", "street": "2900 RODD ST", "postcode": "48640"}}},
{"geometry": {"type": "Point", "coordinates": [-84.2470573921, 43.6610448563]}, "type": "Feature", "properties": {"collection_times": [{"days": "Mon-Fri", "time": "5:00pm"}, {"days": "Sat", "time": "2:00pm"}, {"days": "Sun", "time": "Closed"}], "id": "4864000091", "name": "USPS COLLECTION BOX - BLUE BOX", "address": {"city": "MIDLAND", "state": "MI", "street": "7300 EASTMAN AVE", "postcode": "48640"}}},
{"geometry": {"type": "Point", "coordinates": [-84.2470573921, 43.6610448563]}, "type": "Feature", "properties": {"collection_times": [{"days": "Mon-Fri", "time": "5:00pm"}, {"days": "Sat", "time": "2:00pm"}, {"days": "Sun", "time": "Closed"}], "id": "4864000092", "name": "USPS COLLECTION BOX - BLUE BOX", "address": {"city": "MIDLAND", "state": "MI", "street": "7300 EASTMAN AVE", "postcode": "48640"}}},
{"geometry": {"type": "Point", "coordinates": [-84.2508320143, 43.6413255094]}, "type": "Feature", "properties": {"collection_times": [{"days": "Mon-Fri", "time": "3:00pm"}, {"days": "Sat", "time": "2:00pm"}, {"days": "Sun", "time": "Closed"}], "id": "4864000105", "name": "USPS COLLECTION BOX - BLUE BOX", "address": {"city": "MIDLAND", "state": "MI", "street": "2018 N SAGINAW RD", "postcode": "48640"}}},
{"geometry": {"type": "Point", "coordinates": [-84.2242352011, 43.6113290843]}, "type": "Feature", "properties": {"collection_times": [{"days": "Mon-Sat", "time": "2:00pm"}, {"days": "Sun", "time": "Closed"}], "id": "4864000106", "name": "USPS COLLECTION BOX - BLUE BOX", "address": {"city": "MIDLAND", "state": "MI", "street": "300 E LYON RD", "postcode": "48640"}}},
{"geometry": {"type": "Point", "coordinates": [-84.22583436, 43.623472752]}, "type": "Feature", "properties": {"collection_times": [{"days": "Mon-Fri", "time": "5:00pm"}, {"days": "Sat", "time": "3:00pm"}, {"days": "Sun", "time": "Closed"}], "id": "4864000107", "name": "USPS COLLECTION BOX - APC", "address": {"city": "MIDLAND", "state": "MI", "street": "2900 RODD ST", "postcode": "48640"}}},
{"geometry": {"type": "Point", "coordinates": [-84.1299338666, 44.6542669729]}, "type": "Feature", "properties": {"collection_times": [{"days": "Mon-Sat", "time": "1:30pm"}, {"days": "Sun", "time": "Closed"}], "id": "4864700001", "name": "USPS COLLECTION BOX - BLUE BOX", "address": {"city": "MIO", "state": "MI", "street": "305 N MORENCI AVE", "postcode": "48647"}}},
{"geometry": {"type": "Point", "coordinates": [-84.129943991, 44.651196736]}, "type": "Feature", "properties": {"collection_times": [{"days": "Mon-Fri", "time": "4:10pm"}, {"days": "Sat", "time": "2:00pm"}, {"days": "Sun", "time": "Closed"}], "id": "4864700005", "name": "USPS COLLECTION BOX - BLUE BOX", "address": {"city": "MIO", "state": "MI", "street": "213 S MORENCI AVE", "postcode": "48647"}}},
{"geometry": {"type": "Point", "coordinates": [-84.129943991, 44.651196736]}, "type": "Feature", "properties": {"collection_times": [{"days": "Mon-Fri", "time": "4:10pm"}, {"days": "Sat", "time": "2:00pm"}, {"days": "Sun", "time": "Closed"}], "id": "4864700006", "name": "USPS COLLECTION BOX - PO LOBBY", "address": {"city": "MIO", "state": "MI", "street": "213 S MORENCI AVE", "postcode": "48647"}}},
{"geometry": {"type": "Point", "coordinates": [-84.168333193, 43.141869654]}, "type": "Feature", "properties": {"collection_times": [{"days": "Mon-Fri", "time": "4:30pm"}, {"days": "Sat", "time": "9:30am"}, {"days": "Sun", "time": "Closed"}], "id": "4864900001", "name": "USPS COLLECTION BOX - BLUE BOX", "address": {"city": "OAKLEY", "state": "MI", "street": "205 S MAIN ST", "postcode": "48649"}}},
{"geometry": {"type": "Point", "coordinates": [-84.168333193, 43.141869654]}, "type": "Feature", "properties": {"collection_times": [{"days": "Mon-Fri", "time": "4:30pm"}, {"days": "Sat", "time": "9:30am"}, {"days": "Sun", "time": "Closed"}], "id": "4864900002", "name": "USPS COLLECTION BOX - PO LOBBY", "address": {"city": "OAKLEY", "state": "MI", "street": "205 S MAIN ST", "postcode": "48649"}}},
{"geometry": {"type": "Point", "coordinates": [-83.961202471, 43.856028573]}, "type": "Feature", "properties": {"collection_times": [{"days": "Mon-Fri", "time": "4:15pm"}, {"days": "Sat", "time": "10:00am"}, {"days": "Sun", "time": "Closed"}], "id": "4865000001", "name": "USPS COLLECTION BOX - BLUE BOX", "address": {"city": "PINCONNING", "state": "MI", "street": "207 S KAISER ST", "postcode": "48650"}}},
{"geometry": {"type": "Point", "coordinates": [-83.961202471, 43.856028573]}, "type": "Feature", "properties": {"collection_times": [{"days": "Mon-Fri", "time": "4:15pm"}, {"days": "Sat", "time": "10:00am"}, {"days": "Sun", "time": "Closed"}], "id": "4865000002", "name": "USPS COLLECTION BOX - BLUE BOX", "address": {"city": "PINCONNING", "state": "MI", "street": "207 S KAISER ST", "postcode": "48650"}}},
{"geometry": {"type": "Point", "coordinates": [-83.9659305707, 43.8510897805]}, "type": "Feature", "properties": {"collection_times": [{"days": "Mon-Fri", "time": "12:00pm"}, {"days": "Sat", "time": "10:00am"}, {"days": "Sun", "time": "Closed"}], "id": "4865000003", "name": "USPS COLLECTION BOX - BLUE BOX", "address": {"city": "PINCONNING", "state": "MI", "street": "704 S MABLE ST", "postcode": "48650"}}},
{"geometry": {"type": "Point", "coordinates": [-83.961202471, 43.856028573]}, "type": "Feature", "properties": {"collection_times": [{"days": "Mon-Fri", "time": "4:15pm"}, {"days": "Sat", "time": "10:00am"}, {"days": "Sun", "time": "Closed"}], "id": "4865000006", "name": "USPS COLLECTION BOX - BLUE BOX", "address": {"city": "PINCONNING", "state": "MI", "street": "207 S KAISER ST", "postcode": "48650"}}},
{"geometry": {"type": "Point", "coordinates": [-83.961202471, 43.856028573]}, "type": "Feature", "properties": {"collection_times": [{"days": "Mon-Fri", "time": "4:15pm"}, {"days": "Sat", "time": "10:00am"}, {"days": "Sun", "time": "Closed"}], "id": "4865000007", "name": "USPS COLLECTION BOX - PO LOBBY", "address": {"city": "PINCONNING", "state": "MI", "street": "207 S KAISER ST", "postcode": "48650"}}},
{"geometry": {"type": "Point", "coordinates": [-84.654861144, 44.298411454]}, "type": "Feature", "properties": {"collection_times": [{"days": "Mon-Fri", "time": "3:20pm"}, {"days": "Sat", "time": "12:00pm"}, {"days": "Sun", "time": "Closed"}], "id": "4865100001", "name": "USPS COLLECTION BOX - BLUE BOX", "address": {"city": "PRUDENVILLE", "state": "MI", "street": "899 W HOUGHTON LAKE DR", "postcode": "48651"}}},
{"geometry": {"type": "Point", "coordinates": [-84.654861144, 44.298411454]}, "type": "Feature", "properties": {"collection_times": [{"days": "Mon-Fri", "time": "3:20pm"}, {"days": "Sat", "time": "12:00pm"}, {"days": "Sun", "time": "Closed"}], "id": "4865100002", "name": "USPS COLLECTION BOX - PO LOBBY", "address": {"city": "PRUDENVILLE", "state": "MI", "street": "899 W HOUGHTON LAKE DR", "postcode": "48651"}}},
{"geometry": {"type": "Point", "coordinates": [-84.654861144, 44.298411454]}, "type": "Feature", "properties": {"collection_times": [{"days": "Mon-Fri", "time": "3:20pm"}, {"days": "Sat", "time": "12:00pm"}, {"days": "Sun", "time": "Closed"}], "id": "4865100003", "name": "USPS COLLECTION BOX - BLUE BOX", "address": {"city": "PRUDENVILLE", "state": "MI", "street": "899 W HOUGHTON LAKE DR", "postcode": "48651"}}},
{"geometry": {"type": "Point", "coordinates": [-84.17608976, 43.902353228]}, "type": "Feature", "properties": {"collection_times": [{"days": "Mon-Fri", "time": "3:40pm"}, {"days": "Sat", "time": "9:30am"}, {"days": "Sun", "time": "Closed"}], "id": "4865200001", "name": "USPS COLLECTION BOX - BLUE BOX", "address": {"city": "RHODES", "state": "MI", "street": "2832 RHODES RD", "postcode": "48652"}}},
{"geometry": {"type": "Point", "coordinates": [-84.17608976, 43.902353228]}, "type": "Feature", "properties": {"collection_times": [{"days": "Mon-Fri", "time": "3:40pm"}, {"days": "Sat", "time": "9:30am"}, {"days": "Sun", "time": "Closed"}], "id": "4865200002", "name": "USPS COLLECTION BOX - PO LOBBY", "address": {"city": "RHODES", "state": "MI", "street": "2832 RHODES RD", "postcode": "48652"}}},
{"geometry": {"type": "Point", "coordinates": [-84.596928502, 44.49351154]}, "type": "Feature", "properties": {"collection_times": [{"days": "Mon-Fri", "time": "4:05pm"}, {"days": "Sat", "time": "12:00pm"}, {"days": "Sun", "time": "Closed"}], "id": "4865300001", "name": "USPS COLLECTION BOX - BLUE BOX", "address": {"city": "ROSCOMMON", "state": "MI", "street": "281 LAKE ST", "postcode": "48653"}}},
{"geometry": {"type": "Point", "coordinates": [-84.596928502, 44.49351154]}, "type": "Feature", "properties": {"collection_times": [{"days": "Mon-Fri", "time": "4:05pm"}, {"days": "Sat", "time": "12:00pm"}, {"days": "Sun", "time": "Closed"}], "id": "4865300007", "name": "USPS COLLECTION BOX - PO LOBBY", "address": {"city": "ROSCOMMON", "state": "MI", "street": "281 LAKE ST", "postcode": "48653"}}},
{"geometry": {"type": "Point", "coordinates": [-84.11776202, 44.421837333]}, "type": "Feature", "properties": {"collection_times": [{"days": "Mon-Fri", "time": "4:00pm"}, {"days": "Sat", "time": "10:00am"}, {"days": "Sun", "time": "Closed"}], "id": "4865400001", "name": "USPS COLLECTION BOX - BLUE BOX", "address": {"city": "ROSE CITY", "state": "MI", "street": "130 CLYDE ST", "postcode": "48654"}}},
{"geometry": {"type": "Point", "coordinates": [-84.11776202, 44.421837333]}, "type": "Feature", "properties": {"collection_times": [{"days": "Mon-Fri", "time": "4:00pm"}, {"days": "Sat", "time": "10:00am"}, {"days": "Sun", "time": "Closed"}], "id": "4865400004", "name": "USPS COLLECTION BOX - PO LOBBY", "address": {"city": "ROSE CITY", "state": "MI", "street": "130 CLYDE ST", "postcode": "48654"}}},
{"geometry": {"type": "Point", "coordinates": [-84.139719345, 43.296146788]}, "type": "Feature", "properties": {"collection_times": [{"days": "Mon-Fri", "time": "4:30pm"}, {"days": "Sat", "time": "3:00pm"}, {"days": "Sun", "time": "Closed"}], "id": "4865500001", "name": "USPS COLLECTION BOX - BLUE BOX", "address": {"city": "SAINT CHARLES", "state": "MI", "street": "202 S SAGINAW ST", "postcode": "48655"}}},
{"geometry": {"type": "Point", "coordinates": [-84.1428196646, 43.2994246744]}, "type": "Feature", "properties": {"collection_times": [{"days": "Mon-Sat", "time": "11:00am"}, {"days": "Sun", "time": "Closed"}], "id": "4865500003", "name": "USPS COLLECTION BOX - BLUE BOX", "address": {"city": "SAINT CHARLES", "state": "MI", "street": "500 N SAGINAW ST", "postcode": "48655"}}},
{"geometry": {"type": "Point", "coordinates": [-84.139719345, 43.296146788]}, "type": "Feature", "properties": {"collection_times": [{"days": "Mon-Fri", "time": "4:30pm"}, {"days": "Sat", "time": "3:00pm"}, {"days": "Sun", "time": "Closed"}], "id": "4865500004", "name": "USPS COLLECTION BOX - PO LOBBY", "address": {"city": "SAINT CHARLES", "state": "MI", "street": "202 S SAGINAW ST", "postcode": "48655"}}},
{"geometry": {"type": "Point", "coordinates": [-84.410222496, 44.367909028]}, "type": "Feature", "properties": {"collection_times": [{"days": "Mon-Fri", "time": "2:40pm"}, {"days": "Sat", "time": "12:00pm"}, {"days": "Sun", "time": "Closed"}], "id": "4865600002", "name": "USPS COLLECTION BOX - BLUE BOX", "address": {"city": "SAINT HELEN", "state": "MI", "street": "2332 N SAINT HELEN RD", "postcode": "48656"}}},
{"geometry": {"type": "Point", "coordinates": [-84.410222496, 44.367909028]}, "type": "Feature", "properties": {"collection_times": [{"days": "Mon-Fri", "time": "2:40pm"}, {"days": "Sat", "time": "12:00pm"}, {"days": "Sun", "time": "Closed"}], "id": "4865600004", "name": "USPS COLLECTION BOX - PO LOBBY", "address": {"city": "SAINT HELEN", "state": "MI", "street": "2332 N SAINT HELEN RD", "postcode": "48656"}}},
{"geometry": {"type": "Point", "coordinates": [-84.376522814, 43.67014911]}, "type": "Feature", "properties": {"collection_times": [{"days": "Mon-Fri", "time": "4:15pm"}, {"days": "Sat", "time": "11:00am"}, {"days": "Sun", "time": "Closed"}], "id": "4865700001", "name": "USPS COLLECTION BOX - BLUE BOX", "address": {"city": "SANFORD", "state": "MI", "street": "239 W SAGINAW RD", "postcode": "48657"}}},
{"geometry": {"type": "Point", "coordinates": [-84.376522814, 43.67014911]}, "type": "Feature", "properties": {"collection_times": [{"days": "Mon-Fri", "time": "4:30pm"}, {"days": "Sat", "time": "11:00am"}, {"days": "Sun", "time": "Closed"}], "id": "4865700002", "name": "USPS COLLECTION BOX - PO LOBBY", "address": {"city": "SANFORD", "state": "MI", "street": "239 W SAGINAW RD", "postcode": "48657"}}},
{"geometry": {"type": "Point", "coordinates": [-84.3789385059, 43.6712609819]}, "type": "Feature", "properties": {"collection_times": [{"days": "Mon-Fri", "time": "12:00pm"}, {"days": "Sat", "time": "11:00am"}, {"days": "Sun", "time": "Closed"}], "id": "4865700003", "name": "USPS COLLECTION BOX - BLUE BOX", "address": {"city": "SANFORD", "state": "MI", "street": "256 W SAGINAW RD", "postcode": "48657"}}},
{"geometry": {"type": "Point", "coordinates": [-83.957069236, 43.981929189]}, "type": "Feature", "properties": {"collection_times": [{"days": "Mon-Fri", "time": "4:05pm"}, {"days": "Sat", "time": "12:00pm"}, {"days": "Sun", "time": "Closed"}], "id": "4865800001", "name": "USPS COLLECTION BOX - BLUE BOX", "address": {"city": "STANDISH", "state": "MI", "street": "120 S GROVE ST", "postcode": "48658"}}},
{"geometry": {"type": "Point", "coordinates": [-83.9598243331, 43.9777063374]}, "type": "Feature", "properties": {"collection_times": [{"days": "Mon-Sat", "time": "12:00pm"}, {"days": "Sun", "time": "Closed"}], "id": "4865800004", "name": "USPS COLLECTION BOX - BLUE BOX", "address": {"city": "STANDISH", "state": "MI", "street": "533 S MAIN ST", "postcode": "48658"}}},
{"geometry": {"type": "Point", "coordinates": [-83.957069236, 43.981929189]}, "type": "Feature", "properties": {"collection_times": [{"days": "Mon-Fri", "time": "4:05pm"}, {"days": "Sat", "time": "12:00pm"}, {"days": "Sun", "time": "Closed"}], "id": "4865800006", "name": "USPS COLLECTION BOX - PO LOBBY", "address": {"city": "STANDISH", "state": "MI", "street": "120 S GROVE ST", "postcode": "48658"}}},
{"geometry": {"type": "Point", "coordinates": [-84.028049715, 44.033322444]}, "type": "Feature", "properties": {"collection_times": [{"days": "Mon-Fri", "time": "4:00pm"}, {"days": "Sat", "time": "8:30am"}, {"days": "Sun", "time": "Closed"}], "id": "4865900001", "name": "USPS COLLECTION BOX - BLUE BOX", "address": {"city": "STERLING", "state": "MI", "street": "420 W STATE ST", "postcode": "48659"}}},
{"geometry": {"type": "Point", "coordinates": [-84.028049715, 44.033322444]}, "type": "Feature", "properties": {"collection_times": [{"days": "Mon-Fri", "time": "4:00pm"}, {"days": "Sat", "time": "8:30am"}, {"days": "Sun", "time": "Closed"}], "id": "4865900005", "name": "USPS COLLECTION BOX - PO LOBBY", "address": {"city": "STERLING", "state": "MI", "street": "420 W STATE ST", "postcode": "48659"}}},
{"geometry": {"type": "Point", "coordinates": [-84.2384822, 44.275919945]}, "type": "Feature", "properties": {"collection_times": [{"days": "Mon-Fri", "time": "4:50pm"}, {"days": "Sat", "time": "3:00pm"}, {"days": "Sun", "time": "Closed"}], "id": "4866100001", "name": "USPS COLLECTION BOX - BLUE BOX", "address": {"city": "WEST BRANCH", "state": "MI", "street": "122 S 3RD ST", "postcode": "48661"}}},
{"geometry": {"type": "Point", "coordinates": [-84.2384822, 44.275919945]}, "type": "Feature", "properties": {"collection_times": [{"days": "Mon-Fri", "time": "4:50pm"}, {"days": "Sat", "time": "3:00pm"}, {"days": "Sun", "time": "Closed"}], "id": "4866100003", "name": "USPS COLLECTION BOX - BLUE BOX", "address": {"city": "WEST BRANCH", "state": "MI", "street": "122 S 3RD ST", "postcode": "48661"}}},
{"geometry": {"type": "Point", "coordinates": [-84.2295416085, 44.2762964307]}, "type": "Feature", "properties": {"collection_times": [{"days": "Mon-Sat", "time": "12:00pm"}, {"days": "Sun", "time": "Closed"}], "id": "4866100006", "name": "USPS COLLECTION BOX - BLUE BOX", "address": {"city": "WEST BRANCH", "state": "MI", "street": "520 E HOUGHTON AVE", "postcode": "48661"}}},
{"geometry": {"type": "Point", "coordinates": [-84.2452496795, 44.2762888694]}, "type": "Feature", "properties": {"collection_times": [{"days": "Mon-Fri", "time": "3:00pm"}, {"days": "Sat", "time": "12:00pm"}, {"days": "Sun", "time": "Closed"}], "id": "4866100007", "name": "USPS COLLECTION BOX - BLUE BOX", "address": {"city": "WEST BRANCH", "state": "MI", "street": "806 W HOUGHTON AVE", "postcode": "48661"}}},
{"geometry": {"type": "Point", "coordinates": [-84.2202426806, 44.2717189537]}, "type": "Feature", "properties": {"collection_times": [{"days": "Mon-Sat", "time": "9:00am"}, {"days": "Sun", "time": "Closed"}], "id": "4866100008", "name": "USPS COLLECTION BOX - BLUE BOX", "address": {"city": "WEST BRANCH", "state": "MI", "street": "2206 S M 76", "postcode": "48661"}}},
{"geometry": {"type": "Point", "coordinates": [-84.2384822, 44.275919945]}, "type": "Feature", "properties": {"collection_times": [{"days": "Mon-Fri", "time": "4:50pm"}, {"days": "Sat", "time": "3:00pm"}, {"days": "Sun", "time": "Closed"}], "id": "4866100009", "name": "USPS COLLECTION BOX - PO LOBBY", "address": {"city": "WEST BRANCH", "state": "MI", "street": "122 S 3RD ST", "postcode": "48661"}}},
{"geometry": {"type": "Point", "coordinates": [-84.2255303736, 44.2557970843]}, "type": "Feature", "properties": {"collection_times": [{"days": "Mon-Sat", "time": "9:00am"}, {"days": "Sun", "time": "Closed"}], "id": "4866100010", "name": "USPS COLLECTION BOX - BLUE BOX", "address": {"city": "WEST BRANCH", "state": "MI", "street": "2750 COOK RD", "postcode": "48661"}}},
{"geometry": {"type": "Point", "coordinates": [-84.4390071762, 43.4078880026]}, "type": "Feature", "properties": {"collection_times": [{"days": "Mon-Sat", "time": "10:00am"}, {"days": "Sun", "time": "Closed"}], "id": "4866200003", "name": "USPS COLLECTION BOX - BLUE BOX", "address": {"city": "WHEELER", "state": "MI", "street": "8510 E MONROE RD", "postcode": "48662"}}}
]}
