{"type": "FeatureCollection", "features": [
{"geometry": {"type": "Point", "coordinates": [-83.515647386, 43.566364768]}, "type": "Feature", "properties": {"collection_times": [{"days": "Mon-Fri", "time": "3:05pm"}, {"days": "Sat", "time": "9:15am"}, {"days": "Sun", "time": "Closed"}], "id": "4870100001", "name": "USPS COLLECTION BOX - BLUE BOX", "address": {"city": "AKRON", "state": "MI", "street": "4282 BEACH ST", "postcode": "48701"}}},
{"geometry": {"type": "Point", "coordinates": [-83.515647386, 43.566364768]}, "type": "Feature", "properties": {"collection_times": [{"days": "Mon-Fri", "time": "3:05pm"}, {"days": "Sat", "time": "9:15am"}, {"days": "Sun", "time": "Closed"}], "id": "4870100002", "name": "USPS COLLECTION BOX - PO LOBBY", "address": {"city": "AKRON", "state": "MI", "street": "4282 BEACH ST", "postcode": "48701"}}},
{"geometry": {"type": "Point", "coordinates": [-83.695167103, 44.048267204]}, "type": "Feature", "properties": {"collection_times": [{"days": "Mon-Fri", "time": "4:30pm"}, {"days": "Sat", "time": "12:00pm"}, {"days": "Sun", "time": "Closed"}], "id": "4870300001", "name": "USPS COLLECTION BOX - BLUE BOX", "address": {"city": "AU GRES", "state": "MI", "street": "109 W HURON RD", "postcode": "48703"}}},
{"geometry": {"type": "Point", "coordinates": [-83.695167103, 44.048267204]}, "type": "Feature", "properties": {"collection_times": [{"days": "Mon-Fri", "time": "4:30pm"}, {"days": "Sat", "time": "12:00pm"}, {"days": "Sun", "time": "Closed"}], "id": "4870300002", "name": "USPS COLLECTION BOX - PO LOBBY", "address": {"city": "AU GRES", "state": "MI", "street": "109 W HURON RD", "postcode": "48703"}}},
{"geometry": {"type": "Point", "coordinates": [-83.601632452, 44.683758252]}, "type": "Feature", "properties": {"collection_times": [{"days": "Mon-Fri", "time": "2:15pm"}, {"days": "Sat", "time": "11:15am"}, {"days": "Sun", "time": "Closed"}], "id": "4870500001", "name": "USPS COLLECTION BOX - BLUE BOX", "address": {"city": "BARTON CITY", "state": "MI", "street": "1011 N MONTANA RD", "postcode": "48705"}}},
{"geometry": {"type": "Point", "coordinates": [-83.601632452, 44.683758252]}, "type": "Feature", "properties": {"collection_times": [{"days": "Mon-Fri", "time": "2:30pm"}, {"days": "Sat", "time": "11:15am"}, {"days": "Sun", "time": "Closed"}], "id": "4870500002", "name": "USPS COLLECTION BOX - PO LOBBY", "address": {"city": "BARTON CITY", "state": "MI", "street": "1011 N MONTANA RD", "postcode": "48705"}}},
{"geometry": {"type": "Point", "coordinates": [-83.8803857685, 43.589334911]}, "type": "Feature", "properties": {"collection_times": [{"days": "Mon-Sat", "time": "3:00pm"}, {"days": "Sun", "time": "Closed"}], "id": "4870600015", "name": "USPS COLLECTION BOX - BLUE BOX", "address": {"city": "BAY CITY", "state": "MI", "street": "1100 COLUMBUS AVE", "postcode": "48706"}}},
{"geometry": {"type": "Point", "coordinates": [-83.9154843617, 43.5891952859]}, "type": "Feature", "properties": {"collection_times": [{"days": "Mon-Sat", "time": "1:00pm"}, {"days": "Sun", "time": "Closed"}], "id": "4870600019", "name": "USPS COLLECTION BOX - BLUE BOX", "address": {"city": "BAY CITY", "state": "MI", "street": "1199 S EUCLID AVE", "postcode": "48706"}}},
{"geometry": {"type": "Point", "coordinates": [-83.9141279705, 43.6243063884]}, "type": "Feature", "properties": {"collection_times": [{"days": "Mon-Sat", "time": "12:00pm"}, {"days": "Sun", "time": "Closed"}], "id": "4870600022", "name": "USPS COLLECTION BOX - BLUE BOX", "address": {"city": "BAY CITY", "state": "MI", "street": "4001 N EUCLID AVE", "postcode": "48706"}}},
{"geometry": {"type": "Point", "coordinates": [-83.902940798, 43.601192231]}, "type": "Feature", "properties": {"collection_times": [{"days": "Mon-Fri", "time": "5:00pm"}, {"days": "Sat", "time": "3:00pm"}, {"days": "Sun", "time": "Closed"}], "id": "4870600029", "name": "USPS COLLECTION BOX - BLUE BOX", "address": {"city": "BAY CITY", "state": "MI", "street": "300 E JOHN ST", "postcode": "48706"}}},
{"geometry": {"type": "Point", "coordinates": [-83.902940798, 43.601192231]}, "type": "Feature", "properties": {"collection_times": [{"days": "Mon-Fri", "time": "5:00pm"}, {"days": "Sat", "time": "3:00pm"}, {"days": "Sun", "time": "Closed"}], "id": "4870600030", "name": "USPS COLLECTION BOX - BLUE BOX", "address": {"city": "BAY CITY", "state": "MI", "street": "300 E JOHN ST", "postcode": "48706"}}},
{"geometry": {"type": "Point", "coordinates": [-83.8885952375, 43.5794817068]}, "type": "Feature", "properties": {"collection_times": [{"days": "Mon-Sat", "time": "12:00pm"}, {"days": "Sun", "time": "Closed"}], "id": "4870600033", "name": "USPS COLLECTION BOX - BLUE BOX", "address": {"city": "BAY CITY", "state": "MI", "street": "910 LAFAYETTE AVE", "postcode": "48706"}}},
{"geometry": {"type": "Point", "coordinates": [-83.887429982, 43.600197671]}, "type": "Feature", "properties": {"collection_times": [{"days": "Mon-Sat", "time": "5:00pm"}, {"days": "Sun", "time": "Closed"}], "id": "4870600036", "name": "USPS COLLECTION BOX - BLUE BOX", "address": {"city": "BAY CITY", "state": "MI", "street": "1000 WASHINGTON AVE", "postcode": "48706"}}},
{"geometry": {"type": "Point", "coordinates": [-83.887429982, 43.600197671]}, "type": "Feature", "properties": {"collection_times": [{"days": "Mon-Sat", "time": "5:00pm"}, {"days": "Sun", "time": "Closed"}], "id": "4870600037", "name": "USPS COLLECTION BOX - BLUE BOX", "address": {"city": "BAY CITY", "state": "MI", "street": "1000 WASHINGTON AVE", "postcode": "48706"}}},
{"geometry": {"type": "Point", "coordinates": [-83.8802162788, 43.6145809577]}, "type": "Feature", "properties": {"collection_times": [{"days": "Mon-Sat", "time": "12:00pm"}, {"days": "Sun", "time": "Closed"}], "id": "4870600038", "name": "USPS COLLECTION BOX - BLUE BOX", "address": {"city": "BAY CITY", "state": "MI", "street": "1108 MARQUETTE ST", "postcode": "48706"}}},
{"geometry": {"type": "Point", "coordinates": [-83.9333149659, 43.602287275]}, "type": "Feature", "properties": {"collection_times": [{"days": "Mon-Sat", "time": "12:00pm"}, {"days": "Sun", "time": "Closed"}], "id": "4870600041", "name": "USPS COLLECTION BOX - BLUE BOX", "address": {"city": "BAY CITY", "state": "MI", "street": "2981 MIDLAND RD", "postcode": "48706"}}},
{"geometry": {"type": "Point", "coordinates": [-83.8692156101, 43.5876891537]}, "type": "Feature", "properties": {"collection_times": [{"days": "Mon-Sat", "time": "3:00pm"}, {"days": "Sun", "time": "Closed"}], "id": "4870600042", "name": "USPS COLLECTION BOX - BLUE BOX", "address": {"city": "BAY CITY", "state": "MI", "street": "300 MULHOLLAND ST", "postcode": "48706"}}},
{"geometry": {"type": "Point", "coordinates": [-83.8880180721, 43.5970315924]}, "type": "Feature", "properties": {"collection_times": [{"days": "Mon-Sat", "time": "3:00pm"}, {"days": "Sun", "time": "Closed"}], "id": "4870600049", "name": "USPS COLLECTION BOX - BLUE BOX", "address": {"city": "BAY CITY", "state": "MI", "street": "701 WASHINGTON AVE", "postcode": "48706"}}},
{"geometry": {"type": "Point", "coordinates": [-83.8992998702, 43.6239726641]}, "type": "Feature", "properties": {"collection_times": [{"days": "Mon-Sat", "time": "12:00pm"}, {"days": "Sun", "time": "Closed"}], "id": "4870600051", "name": "USPS COLLECTION BOX - BLUE BOX", "address": {"city": "BAY CITY", "state": "MI", "street": "3543 OLD KAWKAWLIN RD", "postcode": "48706"}}},
{"geometry": {"type": "Point", "coordinates": [-83.905251989, 43.6011843469]}, "type": "Feature", "properties": {"collection_times": [{"days": "Mon-Fri", "time": "3:00pm"}, {"days": "Sat", "time": "9:00am"}, {"days": "Sun", "time": "Closed"}], "id": "4870600060", "name": "USPS COLLECTION BOX - BLUE BOX", "address": {"city": "BAY CITY", "state": "MI", "street": "200 S WENONA ST", "postcode": "48706"}}},
{"geometry": {"type": "Point", "coordinates": [-83.9321899045, 43.6239330556]}, "type": "Feature", "properties": {"collection_times": [{"days": "Mon-Sat", "time": "3:00pm"}, {"days": "Sun", "time": "Closed"}], "id": "4870600064", "name": "USPS COLLECTION BOX - BLUE BOX", "address": {"city": "BAY CITY", "state": "MI", "street": "2980 WILDER RD", "postcode": "48706"}}},
{"geometry": {"type": "Point", "coordinates": [-83.8824665854, 43.6234421544]}, "type": "Feature", "properties": {"collection_times": [{"days": "Mon-Sat", "time": "12:00pm"}, {"days": "Sun", "time": "Closed"}], "id": "4870600066", "name": "USPS COLLECTION BOX - BLUE BOX", "address": {"city": "BAY CITY", "state": "MI", "street": "4300 WILDER RD", "postcode": "48706"}}},
{"geometry": {"type": "Point", "coordinates": [-83.8914198607, 43.6238085182]}, "type": "Feature", "properties": {"collection_times": [{"days": "Mon-Sat", "time": "1:00pm"}, {"days": "Sun", "time": "Closed"}], "id": "4870600079", "name": "USPS COLLECTION BOX - BLUE BOX", "address": {"city": "BAY CITY", "state": "MI", "street": "4101 WILDER RD", "postcode": "48706"}}},
{"geometry": {"type": "Point", "coordinates": [-83.9937332809, 43.5662032779]}, "type": "Feature", "properties": {"collection_times": [{"days": "Mon-Sat", "time": "11:15am"}, {"days": "Sun", "time": "Closed"}], "id": "4870600085", "name": "USPS COLLECTION BOX - BLUE BOX", "address": {"city": "BAY CITY", "state": "MI", "street": "5209 MACKINAW RD", "postcode": "48706"}}},
{"geometry": {"type": "Point", "coordinates": [-83.8889354885, 43.6032207918]}, "type": "Feature", "properties": {"collection_times": [{"days": "Mon-Fri", "time": "3:00pm"}, {"days": "Sat-Sun", "time": "Closed"}], "id": "4870600088", "name": "USPS COLLECTION BOX - BLUE BOX", "address": {"city": "BAY CITY", "state": "MI", "street": "111 1ST ST", "postcode": "48706"}}},
{"geometry": {"type": "Point", "coordinates": [-83.8887364762, 43.5981795216]}, "type": "Feature", "properties": {"collection_times": [{"days": "Mon-Sat", "time": "3:00pm"}, {"days": "Sun", "time": "Closed"}], "id": "4870600089", "name": "USPS COLLECTION BOX - BLUE BOX", "address": {"city": "BAY CITY", "state": "MI", "street": "213 CENTER AVE", "postcode": "48706"}}},
{"geometry": {"type": "Point", "coordinates": [-83.902940798, 43.601192231]}, "type": "Feature", "properties": {"collection_times": [{"days": "Mon-Fri", "time": "5:00pm"}, {"days": "Sat", "time": "3:00pm"}, {"days": "Sun", "time": "Closed"}], "id": "4870600092", "name": "USPS COLLECTION BOX - BLUE BOX", "address": {"city": "BAY CITY", "state": "MI", "street": "300 E JOHN ST", "postcode": "48706"}}},
{"geometry": {"type": "Point", "coordinates": [-83.887429982, 43.600197671]}, "type": "Feature", "properties": {"collection_times": [{"days": "Mon-Sat", "time": "5:00pm"}, {"days": "Sun", "time": "Closed"}], "id": "4870600095", "name": "USPS COLLECTION BOX - PO LOBBY", "address": {"city": "BAY CITY", "state": "MI", "street": "1000 WASHINGTON AVE", "postcode": "48706"}}},
{"geometry": {"type": "Point", "coordinates": [-83.902940798, 43.601192231]}, "type": "Feature", "properties": {"collection_times": [{"days": "Mon-Fri", "time": "5:00pm"}, {"days": "Sat-Sun", "time": "Closed"}], "id": "4870600096", "name": "USPS COLLECTION BOX - PO LOBBY", "address": {"city": "BAY CITY", "state": "MI", "street": "300 E JOHN ST", "postcode": "48706"}}},
{"geometry": {"type": "Point", "coordinates": [-83.902940798, 43.601192231]}, "type": "Feature", "properties": {"collection_times": [{"days": "Mon-Fri", "time": "5:00pm"}, {"days": "Sat", "time": "3:00pm"}, {"days": "Sun", "time": "Closed"}], "id": "4870600098", "name": "USPS COLLECTION BOX - BLUE BOX", "address": {"city": "BAY CITY", "state": "MI", "street": "300 E JOHN ST", "postcode": "48706"}}},
{"geometry": {"type": "Point", "coordinates": [-83.8369155008, 43.5819187373]}, "type": "Feature", "properties": {"collection_times": [{"days": "Mon-Sat", "time": "3:00pm"}, {"days": "Sun", "time": "Closed"}], "id": "4870600100", "name": "USPS COLLECTION BOX - BLUE BOX", "address": {"city": "BAY CITY", "state": "MI", "street": "595 N PINE RD", "postcode": "48706"}}},
{"geometry": {"type": "Point", "coordinates": [-83.902940798, 43.601192231]}, "type": "Feature", "properties": {"collection_times": [{"days": "Mon-Fri", "time": "5:00pm"}, {"days": "Sat", "time": "3:00pm"}, {"days": "Sun", "time": "Closed"}], "id": "4870600101", "name": "USPS COLLECTION BOX - BLUE BOX", "address": {"city": "BAY CITY", "state": "MI", "street": "300 E JOHN ST", "postcode": "48706"}}},
{"geometry": {"type": "Point", "coordinates": [-83.8974155032, 43.6544754532]}, "type": "Feature", "properties": {"collection_times": [{"days": "Mon-Sat", "time": "12:00pm"}, {"days": "Sun", "time": "Closed"}], "id": "4870600104", "name": "USPS COLLECTION BOX - BLUE BOX", "address": {"city": "BAY CITY", "state": "MI", "street": "362 STATE PARK DR", "postcode": "48706"}}},
{"geometry": {"type": "Point", "coordinates": [-83.8981169283, 43.6238452979]}, "type": "Feature", "properties": {"collection_times": [{"days": "Mon-Sat", "time": "11:00am"}, {"days": "Sun", "time": "Closed"}], "id": "4870600106", "name": "USPS COLLECTION BOX - BLUE BOX", "address": {"city": "BAY CITY", "state": "MI", "street": "3921 WILDER RD", "postcode": "48706"}}},
{"geometry": {"type": "Point", "coordinates": [-83.8995087456, 43.6238215205]}, "type": "Feature", "properties": {"collection_times": [{"days": "Mon-Sat", "time": "3:00pm"}, {"days": "Sun", "time": "Closed"}], "id": "4870600109", "name": "USPS COLLECTION BOX - BLUE BOX", "address": {"city": "BAY CITY", "state": "MI", "street": "3895 WILDER RD", "postcode": "48706"}}},
{"geometry": {"type": "Point", "coordinates": [-83.8854321879, 43.5978952807]}, "type": "Feature", "properties": {"collection_times": [{"days": "Mon-Sat", "time": "3:00pm"}, {"days": "Sun", "time": "Closed"}], "id": "4870600110", "name": "USPS COLLECTION BOX - BLUE BOX", "address": {"city": "BAY CITY", "state": "MI", "street": "515 CENTER AVE", "postcode": "48706"}}},
{"geometry": {"type": "Point", "coordinates": [-83.9149490436, 43.6083602636]}, "type": "Feature", "properties": {"collection_times": [{"days": "Mon-Fri", "time": "3:00pm"}, {"days": "Sat", "time": "12:00pm"}, {"days": "Sun", "time": "Closed"}], "id": "4870600111", "name": "USPS COLLECTION BOX - BLUE BOX", "address": {"city": "BAY CITY", "state": "MI", "street": "180 STATE PARK DR", "postcode": "48706"}}},
{"geometry": {"type": "Point", "coordinates": [-83.374428379, 43.849355912]}, "type": "Feature", "properties": {"collection_times": [{"days": "Mon-Fri", "time": "3:00pm"}, {"days": "Sat", "time": "9:00am"}, {"days": "Sun", "time": "Closed"}], "id": "4872000001", "name": "USPS COLLECTION BOX - BLUE BOX", "address": {"city": "BAY PORT", "state": "MI", "street": "805 PROMENADE ST", "postcode": "48720"}}},
{"geometry": {"type": "Point", "coordinates": [-83.374428379, 43.849355912]}, "type": "Feature", "properties": {"collection_times": [{"days": "Mon-Fri", "time": "11:15am"}, {"days": "Sat", "time": "9:00am"}, {"days": "Sun", "time": "Closed"}], "id": "4872000003", "name": "USPS COLLECTION BOX - PO LOBBY", "address": {"city": "BAY PORT", "state": "MI", "street": "805 PROMENADE ST", "postcode": "48720"}}},
{"geometry": {"type": "Point", "coordinates": [-83.870913761, 43.353446055]}, "type": "Feature", "properties": {"collection_times": [{"days": "Mon-Fri", "time": "10:00am"}, {"days": "Sat", "time": "9:00am"}, {"days": "Sun", "time": "Closed"}], "id": "4872200002", "name": "USPS COLLECTION BOX - BLUE BOX", "address": {"city": "BRIDGEPORT", "state": "MI", "street": "6370 BRIDGEPORT VILLAGE SQUARE DR", "postcode": "48722"}}},
{"geometry": {"type": "Point", "coordinates": [-83.8710925366, 43.3536665493]}, "type": "Feature", "properties": {"collection_times": [{"days": "Mon-Fri", "time": "10:00am"}, {"days": "Sat", "time": "9:00am"}, {"days": "Sun", "time": "Closed"}], "id": "4872200003", "name": "USPS COLLECTION BOX - BLUE BOX", "address": {"city": "BRIDGEPORT", "state": "MI", "street": "6364 DIXIE HWY", "postcode": "48722"}}},
{"geometry": {"type": "Point", "coordinates": [-83.880744393, 43.359294862]}, "type": "Feature", "properties": {"collection_times": [{"days": "Mon-Fri", "time": "4:30pm"}, {"days": "Sat", "time": "9:00am"}, {"days": "Sun", "time": "Closed"}], "id": "4872200005", "name": "USPS COLLECTION BOX - BLUE BOX", "address": {"city": "BRIDGEPORT", "state": "MI", "street": "3760 STATE ST", "postcode": "48722"}}},
{"geometry": {"type": "Point", "coordinates": [-83.880744393, 43.359294862]}, "type": "Feature", "properties": {"collection_times": [{"days": "Mon-Fri", "time": "4:30pm"}, {"days": "Sat", "time": "9:00am"}, {"days": "Sun", "time": "Closed"}], "id": "4872200006", "name": "USPS COLLECTION BOX - PO LOBBY", "address": {"city": "BRIDGEPORT", "state": "MI", "street": "3760 STATE ST", "postcode": "48722"}}},
{"geometry": {"type": "Point", "coordinates": [-83.396560549, 43.490659929]}, "type": "Feature", "properties": {"collection_times": [{"days": "Mon-Fri", "time": "5:00pm"}, {"days": "Sat", "time": "1:00pm"}, {"days": "Sun", "time": "Closed"}], "id": "4872300001", "name": "USPS COLLECTION BOX - BLUE BOX", "address": {"city": "CARO", "state": "MI", "street": "210 W LINCOLN ST", "postcode": "48723"}}},
{"geometry": {"type": "Point", "coordinates": [-83.3926115919, 43.4904289166]}, "type": "Feature", "properties": {"collection_times": [{"days": "Mon-Fri", "time": "2:00pm"}, {"days": "Sat", "time": "1:00pm"}, {"days": "Sun", "time": "Closed"}], "id": "4872300006", "name": "USPS COLLECTION BOX - BLUE BOX", "address": {"city": "CARO", "state": "MI", "street": "420 COURT ST", "postcode": "48723"}}},
{"geometry": {"type": "Point", "coordinates": [-83.4168887101, 43.4734997707]}, "type": "Feature", "properties": {"collection_times": [{"days": "Mon-Sat", "time": "9:00am"}, {"days": "Sun", "time": "Closed"}], "id": "4872300011", "name": "USPS COLLECTION BOX - BLUE BOX", "address": {"city": "CARO", "state": "MI", "street": "1520 W CARO RD", "postcode": "48723"}}},
{"geometry": {"type": "Point", "coordinates": [-83.396560549, 43.490659929]}, "type": "Feature", "properties": {"collection_times": [{"days": "Mon-Fri", "time": "5:00pm"}, {"days": "Sat", "time": "1:00pm"}, {"days": "Sun", "time": "Closed"}], "id": "4872300012", "name": "USPS COLLECTION BOX - BLUE BOX", "address": {"city": "CARO", "state": "MI", "street": "210 W LINCOLN ST", "postcode": "48723"}}},
{"geometry": {"type": "Point", "coordinates": [-83.396560549, 43.490659929]}, "type": "Feature", "properties": {"collection_times": [{"days": "Mon-Fri", "time": "5:00pm"}, {"days": "Sat", "time": "1:00pm"}, {"days": "Sun", "time": "Closed"}], "id": "4872300014", "name": "USPS COLLECTION BOX - PO LOBBY", "address": {"city": "CARO", "state": "MI", "street": "210 W LINCOLN ST", "postcode": "48723"}}},
{"geometry": {"type": "Point", "coordinates": [-83.3789882794, 43.5021553511]}, "type": "Feature", "properties": {"collection_times": [{"days": "Mon-Sat", "time": "12:00pm"}, {"days": "Sun", "time": "Closed"}], "id": "4872300018", "name": "USPS COLLECTION BOX - BLUE BOX", "address": {"city": "CARO", "state": "MI", "street": "1100 E CARO RD", "postcode": "48723"}}},
{"geometry": {"type": "Point", "coordinates": [-83.929798182, 43.457733145]}, "type": "Feature", "properties": {"collection_times": [{"days": "Mon-Fri", "time": "4:00pm"}, {"days": "Sat", "time": "10:00am"}, {"days": "Sun", "time": "Closed"}], "id": "4872400001", "name": "USPS COLLECTION BOX - BLUE BOX", "address": {"city": "CARROLLTON", "state": "MI", "street": "3510 N MADISON ST", "postcode": "48724"}}},
{"geometry": {"type": "Point", "coordinates": [-83.929798182, 43.457733145]}, "type": "Feature", "properties": {"collection_times": [{"days": "Mon-Fri", "time": "4:00pm"}, {"days": "Sat", "time": "10:00am"}, {"days": "Sun", "time": "Closed"}], "id": "4872400002", "name": "USPS COLLECTION BOX - PO LOBBY", "address": {"city": "CARROLLTON", "state": "MI", "street": "3510 N MADISON ST", "postcode": "48724"}}},
{"geometry": {"type": "Point", "coordinates": [-83.280622196, 43.934065706]}, "type": "Feature", "properties": {"collection_times": [{"days": "Mon-Fri", "time": "3:45pm"}, {"days": "Sat", "time": "9:30am"}, {"days": "Sun", "time": "Closed"}], "id": "4872500003", "name": "USPS COLLECTION BOX - PO LOBBY", "address": {"city": "CASEVILLE", "state": "MI", "street": "7060 MAIN ST", "postcode": "48725"}}},
{"geometry": {"type": "Point", "coordinates": [-83.280622196, 43.934065706]}, "type": "Feature", "properties": {"collection_times": [{"days": "Mon-Fri", "time": "3:45pm"}, {"days": "Sat", "time": "9:30am"}, {"days": "Sun", "time": "Closed"}], "id": "4872500004", "name": "USPS COLLECTION BOX - BLUE BOX", "address": {"city": "CASEVILLE", "state": "MI", "street": "7060 MAIN ST", "postcode": "48725"}}},
{"geometry": {"type": "Point", "coordinates": [-83.170662718, 43.600554962]}, "type": "Feature", "properties": {"collection_times": [{"days": "Mon-Fri", "time": "4:00pm"}, {"days": "Sat", "time": "11:30am"}, {"days": "Sun", "time": "Closed"}], "id": "4872600001", "name": "USPS COLLECTION BOX - BLUE BOX", "address": {"city": "CASS CITY", "state": "MI", "street": "4544 SHERMAN ST", "postcode": "48726"}}},
{"geometry": {"type": "Point", "coordinates": [-83.170662718, 43.600554962]}, "type": "Feature", "properties": {"collection_times": [{"days": "Mon-Fri", "time": "4:00pm"}, {"days": "Sat", "time": "11:30am"}, {"days": "Sun", "time": "Closed"}], "id": "4872600002", "name": "USPS COLLECTION BOX - BLUE BOX", "address": {"city": "CASS CITY", "state": "MI", "street": "4544 SHERMAN ST", "postcode": "48726"}}},
{"geometry": {"type": "Point", "coordinates": [-83.173911684, 43.6009464213]}, "type": "Feature", "properties": {"collection_times": [{"days": "Mon-Fri", "time": "2:15pm"}, {"days": "Sat", "time": "11:30am"}, {"days": "Sun", "time": "Closed"}], "id": "4872600003", "name": "USPS COLLECTION BOX - BLUE BOX", "address": {"city": "CASS CITY", "state": "MI", "street": "6522 MAIN ST", "postcode": "48726"}}},
{"geometry": {"type": "Point", "coordinates": [-83.170662718, 43.600554962]}, "type": "Feature", "properties": {"collection_times": [{"days": "Mon-Fri", "time": "4:00pm"}, {"days": "Sat", "time": "11:30am"}, {"days": "Sun", "time": "Closed"}], "id": "4872600004", "name": "USPS COLLECTION BOX - PO LOBBY", "address": {"city": "CASS CITY", "state": "MI", "street": "4544 SHERMAN ST", "postcode": "48726"}}},
{"geometry": {"type": "Point", "coordinates": [-83.179236621, 43.313633899]}, "type": "Feature", "properties": {"collection_times": [{"days": "Mon-Fri", "time": "3:15pm"}, {"days": "Sat", "time": "9:15am"}, {"days": "Sun", "time": "Closed"}], "id": "4872700001", "name": "USPS COLLECTION BOX - BLUE BOX", "address": {"city": "CLIFFORD", "state": "MI", "street": "9581 MAIN ST", "postcode": "48727"}}},
{"geometry": {"type": "Point", "coordinates": [-83.179236621, 43.313633899]}, "type": "Feature", "properties": {"collection_times": [{"days": "Mon-Fri", "time": "3:15pm"}, {"days": "Sat", "time": "9:15am"}, {"days": "Sun", "time": "Closed"}], "id": "4872700002", "name": "USPS COLLECTION BOX - PO LOBBY", "address": {"city": "CLIFFORD", "state": "MI", "street": "9581 MAIN ST", "postcode": "48727"}}},
{"geometry": {"type": "Point", "coordinates": [-83.807557706, 44.714397542]}, "type": "Feature", "properties": {"collection_times": [{"days": "Mon-Fri", "time": "1:45pm"}, {"days": "Sat", "time": "12:45pm"}, {"days": "Sun", "time": "Closed"}], "id": "4872800001", "name": "USPS COLLECTION BOX - BLUE BOX", "address": {"city": "CURRAN", "state": "MI", "street": "2071 N CURRAN RD", "postcode": "48728"}}},
{"geometry": {"type": "Point", "coordinates": [-83.807557706, 44.714397542]}, "type": "Feature", "properties": {"collection_times": [{"days": "Mon-Fri", "time": "1:45pm"}, {"days": "Sat", "time": "12:45pm"}, {"days": "Sun", "time": "Closed"}], "id": "4872800002", "name": "USPS COLLECTION BOX - PO LOBBY", "address": {"city": "CURRAN", "state": "MI", "street": "2071 N CURRAN RD", "postcode": "48728"}}},
{"geometry": {"type": "Point", "coordinates": [-83.194660435, 43.512669676]}, "type": "Feature", "properties": {"collection_times": [{"days": "Mon-Fri", "time": "2:40pm"}, {"days": "Sat", "time": "9:00am"}, {"days": "Sun", "time": "Closed"}], "id": "4872900001", "name": "USPS COLLECTION BOX - BLUE BOX", "address": {"city": "DEFORD", "state": "MI", "street": "1522 RAILROAD ST", "postcode": "48729"}}},
{"geometry": {"type": "Point", "coordinates": [-83.194660435, 43.512669676]}, "type": "Feature", "properties": {"collection_times": [{"days": "Mon-Fri", "time": "2:40pm"}, {"days": "Sat", "time": "9:00am"}, {"days": "Sun", "time": "Closed"}], "id": "4872900002", "name": "USPS COLLECTION BOX - PO LOBBY", "address": {"city": "DEFORD", "state": "MI", "street": "1522 RAILROAD ST", "postcode": "48729"}}},
{"geometry": {"type": "Point", "coordinates": [-83.491101818, 44.282161456]}, "type": "Feature", "properties": {"collection_times": [{"days": "Mon-Fri", "time": "4:10pm"}, {"days": "Sat", "time": "11:00am"}, {"days": "Sun", "time": "Closed"}], "id": "4873000001", "name": "USPS COLLECTION BOX - BLUE BOX", "address": {"city": "EAST TAWAS", "state": "MI", "street": "326 NEWMAN ST", "postcode": "48730"}}},
{"geometry": {"type": "Point", "coordinates": [-83.491101818, 44.282161456]}, "type": "Feature", "properties": {"collection_times": [{"days": "Mon-Fri", "time": "4:10pm"}, {"days": "Sat", "time": "11:00am"}, {"days": "Sun", "time": "Closed"}], "id": "4873000004", "name": "USPS COLLECTION BOX - PO LOBBY", "address": {"city": "EAST TAWAS", "state": "MI", "street": "326 NEWMAN ST", "postcode": "48730"}}},
{"geometry": {"type": "Point", "coordinates": [-83.179751447, 43.818297104]}, "type": "Feature", "properties": {"collection_times": [{"days": "Mon-Fri", "time": "4:00pm"}, {"days": "Sat", "time": "9:15am"}, {"days": "Sun", "time": "Closed"}], "id": "4873100001", "name": "USPS COLLECTION BOX - BLUE BOX", "address": {"city": "ELKTON", "state": "MI", "street": "4958 MILL ST", "postcode": "48731"}}},
{"geometry": {"type": "Point", "coordinates": [-83.179751447, 43.818297104]}, "type": "Feature", "properties": {"collection_times": [{"days": "Mon-Fri", "time": "4:00pm"}, {"days": "Sat", "time": "9:15am"}, {"days": "Sun", "time": "Closed"}], "id": "4873100002", "name": "USPS COLLECTION BOX - PO LOBBY", "address": {"city": "ELKTON", "state": "MI", "street": "4958 MILL ST", "postcode": "48731"}}},
{"geometry": {"type": "Point", "coordinates": [-83.7802872441, 43.6052879128]}, "type": "Feature", "properties": {"collection_times": [{"days": "Mon-Sat", "time": "9:45am"}, {"days": "Sun", "time": "Closed"}], "id": "4873200000", "name": "USPS COLLECTION BOX - BLUE BOX", "address": {"city": "ESSEXVILLE", "state": "MI", "street": "1760 SAGINAW BAY ESTATES DR", "postcode": "48732"}}},
{"geometry": {"type": "Point", "coordinates": [-83.8470676109, 43.5947601822]}, "type": "Feature", "properties": {"collection_times": [{"days": "Mon-Sat", "time": "2:30pm"}, {"days": "Sun", "time": "Closed"}], "id": "4873200001", "name": "USPS COLLECTION BOX - BLUE BOX", "address": {"city": "ESSEXVILLE", "state": "MI", "street": "2910 CENTER AVE", "postcode": "48732"}}},
{"geometry": {"type": "Point", "coordinates": [-83.8469826738, 43.5885507291]}, "type": "Feature", "properties": {"collection_times": [{"days": "Mon-Sat", "time": "11:30am"}, {"days": "Sun", "time": "Closed"}], "id": "4873200004", "name": "USPS COLLECTION BOX - BLUE BOX", "address": {"city": "ESSEXVILLE", "state": "MI", "street": "837 N SCHEURMANN RD", "postcode": "48732"}}},
{"geometry": {"type": "Point", "coordinates": [-83.844274757, 43.614198595]}, "type": "Feature", "properties": {"collection_times": [{"days": "Mon-Fri", "time": "4:30pm"}, {"days": "Sat", "time": "2:30pm"}, {"days": "Sun", "time": "Closed"}], "id": "4873200005", "name": "USPS COLLECTION BOX - BLUE BOX", "address": {"city": "ESSEXVILLE", "state": "MI", "street": "1205 WOODSIDE AVE", "postcode": "48732"}}},
{"geometry": {"type": "Point", "coordinates": [-83.844274757, 43.614198595]}, "type": "Feature", "properties": {"collection_times": [{"days": "Mon-Fri", "time": "4:30pm"}, {"days": "Sat", "time": "12:00pm"}, {"days": "Sun", "time": "Closed"}], "id": "4873200006", "name": "USPS COLLECTION BOX - PO LOBBY", "address": {"city": "ESSEXVILLE", "state": "MI", "street": "1205 WOODSIDE AVE", "postcode": "48732"}}},
{"geometry": {"type": "Point", "coordinates": [-83.543476971, 43.52528345]}, "type": "Feature", "properties": {"collection_times": [{"days": "Mon-Fri", "time": "2:50pm"}, {"days": "Sat", "time": "9:00am"}, {"days": "Sun", "time": "Closed"}], "id": "4873300001", "name": "USPS COLLECTION BOX - BLUE BOX", "address": {"city": "FAIRGROVE", "state": "MI", "street": "2045 N MAIN ST", "postcode": "48733"}}},
{"geometry": {"type": "Point", "coordinates": [-83.543476971, 43.52528345]}, "type": "Feature", "properties": {"collection_times": [{"days": "Mon-Fri", "time": "2:50pm"}, {"days": "Sat", "time": "9:00am"}, {"days": "Sun", "time": "Closed"}], "id": "4873300002", "name": "USPS COLLECTION BOX - PO LOBBY", "address": {"city": "FAIRGROVE", "state": "MI", "street": "2045 N MAIN ST", "postcode": "48733"}}},
{"geometry": {"type": "Point", "coordinates": [-83.5781676673, 43.5376409541]}, "type": "Feature", "properties": {"collection_times": [{"days": "Mon-Sat", "time": "11:00am"}, {"days": "Sun", "time": "Closed"}], "id": "4873300003", "name": "USPS COLLECTION BOX - BLUE BOX", "address": {"city": "FAIRGROVE", "state": "MI", "street": "1788 S MAIN ST", "postcode": "48733"}}},
{"geometry": {"type": "Point", "coordinates": [-83.738133387, 43.336560341]}, "type": "Feature", "properties": {"collection_times": [{"days": "Mon-Fri", "time": "5:00pm"}, {"days": "Sat", "time": "2:00pm"}, {"days": "Sun", "time": "Closed"}], "id": "4873400001", "name": "USPS COLLECTION BOX - BLUE BOX", "address": {"city": "FRANKENMUTH", "state": "MI", "street": "119 N MAIN ST", "postcode": "48734"}}},
{"geometry": {"type": "Point", "coordinates": [-83.7402566339, 43.327538456]}, "type": "Feature", "properties": {"collection_times": [{"days": "Mon-Sat", "time": "10:00am"}, {"days": "Sun", "time": "Closed"}], "id": "4873400008", "name": "USPS COLLECTION BOX - BLUE BOX", "address": {"city": "FRANKENMUTH", "state": "MI", "street": "664 S MAIN ST", "postcode": "48734"}}},
{"geometry": {"type": "Point", "coordinates": [-83.738133387, 43.336560341]}, "type": "Feature", "properties": {"collection_times": [{"days": "Mon-Fri", "time": "5:00pm"}, {"days": "Sat", "time": "2:00pm"}, {"days": "Sun", "time": "Closed"}], "id": "4873400011", "name": "USPS COLLECTION BOX - PO LOBBY", "address": {"city": "FRANKENMUTH", "state": "MI", "street": "119 N MAIN ST", "postcode": "48734"}}},
{"geometry": {"type": "Point", "coordinates": [-83.244867597, 43.656750607]}, "type": "Feature", "properties": {"collection_times": [{"days": "Mon-Fri", "time": "3:45pm"}, {"days": "Sat", "time": "9:30am"}, {"days": "Sun", "time": "Closed"}], "id": "4873500001", "name": "USPS COLLECTION BOX - BLUE BOX", "address": {"city": "GAGETOWN", "state": "MI", "street": "6483 LINCOLN ST", "postcode": "48735"}}},
{"geometry": {"type": "Point", "coordinates": [-83.244867597, 43.656750607]}, "type": "Feature", "properties": {"collection_times": [{"days": "Mon-Fri", "time": "3:45pm"}, {"days": "Sat", "time": "9:30am"}, {"days": "Sun", "time": "Closed"}], "id": "4873500002", "name": "USPS COLLECTION BOX - PO LOBBY", "address": {"city": "GAGETOWN", "state": "MI", "street": "6483 LINCOLN ST", "postcode": "48735"}}},
{"geometry": {"type": "Point", "coordinates": [-83.726534451, 44.563834821]}, "type": "Feature", "properties": {"collection_times": [{"days": "Mon-Fri", "time": "2:20pm"}, {"days": "Sat", "time": "9:30am"}, {"days": "Sun", "time": "Closed"}], "id": "4873700001", "name": "USPS COLLECTION BOX - BLUE BOX", "address": {"city": "GLENNIE", "state": "MI", "street": "3160 STATE RD", "postcode": "48737"}}},
{"geometry": {"type": "Point", "coordinates": [-83.726534451, 44.563834821]}, "type": "Feature", "properties": {"collection_times": [{"days": "Mon-Fri", "time": "2:20pm"}, {"days": "Sat", "time": "9:30am"}, {"days": "Sun", "time": "Closed"}], "id": "4873700004", "name": "USPS COLLECTION BOX - PO LOBBY", "address": {"city": "GLENNIE", "state": "MI", "street": "3160 STATE RD", "postcode": "48737"}}},
{"geometry": {"type": "Point", "coordinates": [-83.31663201, 44.587241011]}, "type": "Feature", "properties": {"collection_times": [{"days": "Mon-Fri", "time": "3:40pm"}, {"days": "Sat", "time": "9:30am"}, {"days": "Sun", "time": "Closed"}], "id": "4873800001", "name": "USPS COLLECTION BOX - BLUE BOX", "address": {"city": "GREENBUSH", "state": "MI", "street": "2398 S US HIGHWAY 23", "postcode": "48738"}}},
{"geometry": {"type": "Point", "coordinates": [-83.31663201, 44.587241011]}, "type": "Feature", "properties": {"collection_times": [{"days": "Mon-Fri", "time": "3:40pm"}, {"days": "Sat", "time": "9:30am"}, {"days": "Sun", "time": "Closed"}], "id": "4873800002", "name": "USPS COLLECTION BOX - PO LOBBY", "address": {"city": "GREENBUSH", "state": "MI", "street": "2398 S US HIGHWAY 23", "postcode": "48738"}}},
{"geometry": {"type": "Point", "coordinates": [-83.804400977, 44.377992003]}, "type": "Feature", "properties": {"collection_times": [{"days": "Mon-Fri", "time": "2:50pm"}, {"days": "Sat", "time": "10:45am"}, {"days": "Sun", "time": "Closed"}], "id": "4873900001", "name": "USPS COLLECTION BOX - BLUE BOX", "address": {"city": "HALE", "state": "MI", "street": "121 E MAIN ST", "postcode": "48739"}}},
{"geometry": {"type": "Point", "coordinates": [-83.804400977, 44.377992003]}, "type": "Feature", "properties": {"collection_times": [{"days": "Mon-Fri", "time": "2:50pm"}, {"days": "Sat", "time": "10:45am"}, {"days": "Sun", "time": "Closed"}], "id": "4873900003", "name": "USPS COLLECTION BOX - PO LOBBY", "address": {"city": "HALE", "state": "MI", "street": "121 E MAIN ST", "postcode": "48739"}}},
{"geometry": {"type": "Point", "coordinates": [-83.41007656, 44.684805119]}, "type": "Feature", "properties": {"collection_times": [{"days": "Mon-Fri", "time": "3:25pm"}, {"days": "Sat", "time": "9:30am"}, {"days": "Sun", "time": "Closed"}], "id": "4874000001", "name": "USPS COLLECTION BOX - BLUE BOX", "address": {"city": "HARRISVILLE", "state": "MI", "street": "109 1ST ST", "postcode": "48740"}}},
{"geometry": {"type": "Point", "coordinates": [-83.41007656, 44.684805119]}, "type": "Feature", "properties": {"collection_times": [{"days": "Mon-Fri", "time": "3:25pm"}, {"days": "Sat", "time": "9:30am"}, {"days": "Sun", "time": "Closed"}], "id": "4874000002", "name": "USPS COLLECTION BOX - PO LOBBY", "address": {"city": "HARRISVILLE", "state": "MI", "street": "109 1ST ST", "postcode": "48740"}}},
{"geometry": {"type": "Point", "coordinates": [-83.18729785, 43.413355418]}, "type": "Feature", "properties": {"collection_times": [{"days": "Mon-Fri", "time": "2:55pm"}, {"days": "Sat", "time": "9:15am"}, {"days": "Sun", "time": "Closed"}], "id": "4874100001", "name": "USPS COLLECTION BOX - BLUE BOX", "address": {"city": "KINGSTON", "state": "MI", "street": "3484 RIVER ST", "postcode": "48741"}}},
{"geometry": {"type": "Point", "coordinates": [-83.18729785, 43.413355418]}, "type": "Feature", "properties": {"collection_times": [{"days": "Mon-Fri", "time": "2:55pm"}, {"days": "Sat", "time": "9:15am"}, {"days": "Sun", "time": "Closed"}], "id": "4874100002", "name": "USPS COLLECTION BOX - PO LOBBY", "address": {"city": "KINGSTON", "state": "MI", "street": "3484 RIVER ST", "postcode": "48741"}}},
{"geometry": {"type": "Point", "coordinates": [-83.411556319, 44.682672311]}, "type": "Feature", "properties": {"collection_times": [{"days": "Mon-Fri", "time": "2:45pm"}, {"days": "Sat", "time": "9:30am"}, {"days": "Sun", "time": "Closed"}], "id": "4874200001", "name": "USPS COLLECTION BOX - BLUE BOX", "address": {"city": "LINCOLN", "state": "MI", "street": "215 S 2ND ST", "postcode": "48742"}}},
{"geometry": {"type": "Point", "coordinates": [-83.411556319, 44.682672311]}, "type": "Feature", "properties": {"collection_times": [{"days": "Mon-Fri", "time": "2:45pm"}, {"days": "Sat", "time": "9:30am"}, {"days": "Sun", "time": "Closed"}], "id": "4874200002", "name": "USPS COLLECTION BOX - PO LOBBY", "address": {"city": "LINCOLN", "state": "MI", "street": "215 S 2ND ST", "postcode": "48742"}}},
{"geometry": {"type": "Point", "coordinates": [-83.352517116, 43.334731081]}, "type": "Feature", "properties": {"collection_times": [{"days": "Mon-Fri", "time": "3:50pm"}, {"days": "Sat", "time": "11:00am"}, {"days": "Sun", "time": "Closed"}], "id": "4874400001", "name": "USPS COLLECTION BOX - BLUE BOX", "address": {"city": "MAYVILLE", "state": "MI", "street": "6120 FULTON ST", "postcode": "48744"}}},
{"geometry": {"type": "Point", "coordinates": [-83.352517116, 43.334731081]}, "type": "Feature", "properties": {"collection_times": [{"days": "Mon-Fri", "time": "3:50pm"}, {"days": "Sat", "time": "11:00am"}, {"days": "Sun", "time": "Closed"}], "id": "4874400002", "name": "USPS COLLECTION BOX - BLUE BOX", "address": {"city": "MAYVILLE", "state": "MI", "street": "6120 FULTON ST", "postcode": "48744"}}},
{"geometry": {"type": "Point", "coordinates": [-83.352517116, 43.334731081]}, "type": "Feature", "properties": {"collection_times": [{"days": "Mon-Fri", "time": "3:50pm"}, {"days": "Sat", "time": "11:00am"}, {"days": "Sun", "time": "Closed"}], "id": "4874400003", "name": "USPS COLLECTION BOX - PO LOBBY", "address": {"city": "MAYVILLE", "state": "MI", "street": "6120 FULTON ST", "postcode": "48744"}}},
{"geometry": {"type": "Point", "coordinates": [-83.422591815, 44.590685871]}, "type": "Feature", "properties": {"collection_times": [{"days": "Mon-Fri", "time": "3:00pm"}, {"days": "Sat", "time": "9:00am"}, {"days": "Sun", "time": "Closed"}], "id": "4874500001", "name": "USPS COLLECTION BOX - BLUE BOX", "address": {"city": "MIKADO", "state": "MI", "street": "2256 S F 41", "postcode": "48745"}}},
{"geometry": {"type": "Point", "coordinates": [-83.422591815, 44.590685871]}, "type": "Feature", "properties": {"collection_times": [{"days": "Mon-Fri", "time": "3:00pm"}, {"days": "Sat", "time": "9:00am"}, {"days": "Sun", "time": "Closed"}], "id": "4874500002", "name": "USPS COLLECTION BOX - PO LOBBY", "address": {"city": "MIKADO", "state": "MI", "street": "2256 S F 41", "postcode": "48745"}}},
{"geometry": {"type": "Point", "coordinates": [-83.530107735, 43.281321204]}, "type": "Feature", "properties": {"collection_times": [{"days": "Mon-Fri", "time": "4:45pm"}, {"days": "Sat", "time": "12:45pm"}, {"days": "Sun", "time": "Closed"}], "id": "4874600001", "name": "USPS COLLECTION BOX - BLUE BOX", "address": {"city": "MILLINGTON", "state": "MI", "street": "4717 MAIN ST", "postcode": "48746"}}},
{"geometry": {"type": "Point", "coordinates": [-83.5279194199, 43.2798869159]}, "type": "Feature", "properties": {"collection_times": [{"days": "Mon-Sat", "time": "11:00am"}, {"days": "Sun", "time": "Closed"}], "id": "4874600002", "name": "USPS COLLECTION BOX - BLUE BOX", "address": {"city": "MILLINGTON", "state": "MI", "street": "4728 CENTER ST", "postcode": "48746"}}},
{"geometry": {"type": "Point", "coordinates": [-83.530107735, 43.281321204]}, "type": "Feature", "properties": {"collection_times": [{"days": "Mon-Fri", "time": "4:45pm"}, {"days": "Sat", "time": "12:45pm"}, {"days": "Sun", "time": "Closed"}], "id": "4874600003", "name": "USPS COLLECTION BOX - PO LOBBY", "address": {"city": "MILLINGTON", "state": "MI", "street": "4717 MAIN ST", "postcode": "48746"}}},
{"geometry": {"type": "Point", "coordinates": [-83.5672835306, 43.3290035354]}, "type": "Feature", "properties": {"collection_times": [{"days": "Mon-Sat", "time": "11:00am"}, {"days": "Sun", "time": "Closed"}], "id": "4874600004", "name": "USPS COLLECTION BOX - BLUE BOX", "address": {"city": "MILLINGTON", "state": "MI", "street": "5651 PINETREE DR", "postcode": "48746"}}},
{"geometry": {"type": "Point", "coordinates": [-83.777870977, 43.522016642]}, "type": "Feature", "properties": {"collection_times": [{"days": "Mon-Fri", "time": "2:25pm"}, {"days": "Sat", "time": "8:45am"}, {"days": "Sun", "time": "Closed"}], "id": "4874700001", "name": "USPS COLLECTION BOX - BLUE BOX", "address": {"city": "MUNGER", "state": "MI", "street": "11 E MUNGER RD", "postcode": "48747"}}},
{"geometry": {"type": "Point", "coordinates": [-83.777870977, 43.522016642]}, "type": "Feature", "properties": {"collection_times": [{"days": "Mon-Fri", "time": "2:25pm"}, {"days": "Sat", "time": "8:45am"}, {"days": "Sun", "time": "Closed"}], "id": "4874700002", "name": "USPS COLLECTION BOX - PO LOBBY", "address": {"city": "MUNGER", "state": "MI", "street": "11 E MUNGER RD", "postcode": "48747"}}},
{"geometry": {"type": "Point", "coordinates": [-83.712980876, 44.234248912]}, "type": "Feature", "properties": {"collection_times": [{"days": "Mon-Fri", "time": "3:25pm"}, {"days": "Sat", "time": "9:45am"}, {"days": "Sun", "time": "Closed"}], "id": "4874800001", "name": "USPS COLLECTION BOX - BLUE BOX", "address": {"city": "NATIONAL CITY", "state": "MI", "street": "4770 WHITTEMORE RD", "postcode": "48748"}}},
{"geometry": {"type": "Point", "coordinates": [-83.6430261572, 44.3487871086]}, "type": "Feature", "properties": {"collection_times": [{"days": "Mon-Sat", "time": "12:00pm"}, {"days": "Sun", "time": "Closed"}], "id": "4874800003", "name": "USPS COLLECTION BOX - BLUE BOX", "address": {"city": "NATIONAL CITY", "state": "MI", "street": "4049 INDIAN LAKE RD", "postcode": "48748"}}},
{"geometry": {"type": "Point", "coordinates": [-83.712980876, 44.234248912]}, "type": "Feature", "properties": {"collection_times": [{"days": "Mon-Fri", "time": "3:25pm"}, {"days": "Sat", "time": "9:45am"}, {"days": "Sun", "time": "Closed"}], "id": "4874800004", "name": "USPS COLLECTION BOX - PO LOBBY", "address": {"city": "NATIONAL CITY", "state": "MI", "street": "4770 WHITTEMORE RD", "postcode": "48748"}}},
{"geometry": {"type": "Point", "coordinates": [-83.855078571, 44.048142738]}, "type": "Feature", "properties": {"collection_times": [{"days": "Mon-Fri", "time": "3:55pm"}, {"days": "Sat", "time": "10:00am"}, {"days": "Sun", "time": "Closed"}], "id": "4874900001", "name": "USPS COLLECTION BOX - BLUE BOX", "address": {"city": "OMER", "state": "MI", "street": "100 BRIDGE ST", "postcode": "48749"}}},
{"geometry": {"type": "Point", "coordinates": [-83.855078571, 44.048142738]}, "type": "Feature", "properties": {"collection_times": [{"days": "Mon-Fri", "time": "3:55pm"}, {"days": "Sat", "time": "10:30am"}, {"days": "Sun", "time": "Closed"}], "id": "4874900002", "name": "USPS COLLECTION BOX - PO LOBBY", "address": {"city": "OMER", "state": "MI", "street": "100 BRIDGE ST", "postcode": "48749"}}},
{"geometry": {"type": "Point", "coordinates": [-83.3303042974, 44.4216426855]}, "type": "Feature", "properties": {"collection_times": [{"days": "Mon-Fri", "time": "4:00pm"}, {"days": "Sat", "time": "12:30pm"}, {"days": "Sun", "time": "Closed"}], "id": "4875000004", "name": "USPS COLLECTION BOX - BLUE BOX", "address": {"city": "OSCODA", "state": "MI", "street": "221 N STATE ST", "postcode": "48750"}}},
{"geometry": {"type": "Point", "coordinates": [-83.3322486028, 44.4082531424]}, "type": "Feature", "properties": {"collection_times": [{"days": "Mon-Fri", "time": "1:45pm"}, {"days": "Sat", "time": "12:30pm"}, {"days": "Sun", "time": "Closed"}], "id": "4875000005", "name": "USPS COLLECTION BOX - BLUE BOX", "address": {"city": "OSCODA", "state": "MI", "street": "328 S STATE ST", "postcode": "48750"}}},
{"geometry": {"type": "Point", "coordinates": [-83.330304297, 44.421642685]}, "type": "Feature", "properties": {"collection_times": [{"days": "Mon-Fri", "time": "4:00pm"}, {"days": "Sat", "time": "12:30pm"}, {"days": "Sun", "time": "Closed"}], "id": "4875000007", "name": "USPS COLLECTION BOX - PO LOBBY", "address": {"city": "OSCODA", "state": "MI", "street": "221 N STATE ST", "postcode": "48750"}}},
{"geometry": {"type": "Point", "coordinates": [-83.3303042974, 44.4216426855]}, "type": "Feature", "properties": {"collection_times": [{"days": "Mon-Fri", "time": "4:00pm"}, {"days": "Sat", "time": "12:30pm"}, {"days": "Sun", "time": "Closed"}], "id": "4875000009", "name": "USPS COLLECTION BOX - BLUE BOX", "address": {"city": "OSCODA", "state": "MI", "street": "221 N STATE ST", "postcode": "48750"}}},
{"geometry": {"type": "Point", "coordinates": [-83.268471385, 43.729066705]}, "type": "Feature", "properties": {"collection_times": [{"days": "Mon-Fri", "time": "4:00pm"}, {"days": "Sat", "time": "9:30am"}, {"days": "Sun", "time": "Closed"}], "id": "4875400001", "name": "USPS COLLECTION BOX - BLUE BOX", "address": {"city": "OWENDALE", "state": "MI", "street": "7314 MAIN ST", "postcode": "48754"}}},
{"geometry": {"type": "Point", "coordinates": [-83.268471385, 43.729066705]}, "type": "Feature", "properties": {"collection_times": [{"days": "Mon-Fri", "time": "4:00pm"}, {"days": "Sat", "time": "9:30am"}, {"days": "Sun", "time": "Closed"}], "id": "4875400002", "name": "USPS COLLECTION BOX - PO LOBBY", "address": {"city": "OWENDALE", "state": "MI", "street": "7314 MAIN ST", "postcode": "48754"}}},
{"geometry": {"type": "Point", "coordinates": [-83.268149898, 43.829982394]}, "type": "Feature", "properties": {"collection_times": [{"days": "Mon-Fri", "time": "4:00pm"}, {"days": "Sat", "time": "11:00am"}, {"days": "Sun", "time": "Closed"}], "id": "4875500001", "name": "USPS COLLECTION BOX - BLUE BOX", "address": {"city": "PIGEON", "state": "MI", "street": "7181 E MICHIGAN AVE", "postcode": "48755"}}},
{"geometry": {"type": "Point", "coordinates": [-83.268149898, 43.829982394]}, "type": "Feature", "properties": {"collection_times": [{"days": "Mon-Fri", "time": "4:00pm"}, {"days": "Sat", "time": "11:00am"}, {"days": "Sun", "time": "Closed"}], "id": "4875500003", "name": "USPS COLLECTION BOX - PO LOBBY", "address": {"city": "PIGEON", "state": "MI", "street": "7181 E MICHIGAN AVE", "postcode": "48755"}}},
{"geometry": {"type": "Point", "coordinates": [-83.930459599, 44.190967098]}, "type": "Feature", "properties": {"collection_times": [{"days": "Mon-Fri", "time": "3:30pm"}, {"days": "Sat", "time": "11:00am"}, {"days": "Sun", "time": "Closed"}], "id": "4875600001", "name": "USPS COLLECTION BOX - BLUE BOX", "address": {"city": "PRESCOTT", "state": "MI", "street": "105 N WASHINGTON ST", "postcode": "48756"}}},
{"geometry": {"type": "Point", "coordinates": [-84.049453289, 44.1833747301]}, "type": "Feature", "properties": {"collection_times": [{"days": "Mon-Fri", "time": "1:00pm"}, {"days": "Sat", "time": "11:00am"}, {"days": "Sun", "time": "Closed"}], "id": "4875600005", "name": "USPS COLLECTION BOX - BLUE BOX", "address": {"city": "PRESCOTT", "state": "MI", "street": "1830 GREENWOOD RD", "postcode": "48756"}}},
{"geometry": {"type": "Point", "coordinates": [-83.930459599, 44.190967098]}, "type": "Feature", "properties": {"collection_times": [{"days": "Mon-Fri", "time": "3:30pm"}, {"days": "Sat", "time": "11:00am"}, {"days": "Sun", "time": "Closed"}], "id": "4875600006", "name": "USPS COLLECTION BOX - PO LOBBY", "address": {"city": "PRESCOTT", "state": "MI", "street": "105 N WASHINGTON ST", "postcode": "48756"}}},
{"geometry": {"type": "Point", "coordinates": [-84.0416269843, 44.183540869]}, "type": "Feature", "properties": {"collection_times": [{"days": "Mon-Fri", "time": "1:30pm"}, {"days": "Sat", "time": "11:00am"}, {"days": "Sun", "time": "Closed"}], "id": "4875600007", "name": "USPS COLLECTION BOX - BLUE BOX", "address": {"city": "PRESCOTT", "state": "MI", "street": "2111 GREENWOOD RD", "postcode": "48756"}}},
{"geometry": {"type": "Point", "coordinates": [-83.696395946, 43.448738306]}, "type": "Feature", "properties": {"collection_times": [{"days": "Mon-Fri", "time": "4:30pm"}, {"days": "Sat", "time": "8:15am"}, {"days": "Sun", "time": "Closed"}], "id": "4875700002", "name": "USPS COLLECTION BOX - BLUE BOX", "address": {"city": "REESE", "state": "MI", "street": "2077 GATES ST", "postcode": "48757"}}},
{"geometry": {"type": "Point", "coordinates": [-83.696395946, 43.448738306]}, "type": "Feature", "properties": {"collection_times": [{"days": "Mon-Fri", "time": "4:30pm"}, {"days": "Sat", "time": "8:15am"}, {"days": "Sun", "time": "Closed"}], "id": "4875700005", "name": "USPS COLLECTION BOX - PO LOBBY", "address": {"city": "REESE", "state": "MI", "street": "2077 GATES ST", "postcode": "48757"}}},
{"geometry": {"type": "Point", "coordinates": [-83.677199032, 43.409096551]}, "type": "Feature", "properties": {"collection_times": [{"days": "Mon-Fri", "time": "3:00pm"}, {"days": "Sat", "time": "10:00am"}, {"days": "Sun", "time": "Closed"}], "id": "4875800001", "name": "USPS COLLECTION BOX - BLUE BOX", "address": {"city": "RICHVILLE", "state": "MI", "street": "9400 W SAGINAW RD", "postcode": "48758"}}},
{"geometry": {"type": "Point", "coordinates": [-83.677199032, 43.409096551]}, "type": "Feature", "properties": {"collection_times": [{"days": "Mon-Fri", "time": "3:00pm"}, {"days": "Sat", "time": "10:00am"}, {"days": "Sun", "time": "Closed"}], "id": "4875800003", "name": "USPS COLLECTION BOX - PO LOBBY", "address": {"city": "RICHVILLE", "state": "MI", "street": "9400 W SAGINAW RD", "postcode": "48758"}}},
{"geometry": {"type": "Point", "coordinates": [-83.451326142, 43.732802861]}, "type": "Feature", "properties": {"collection_times": [{"days": "Mon-Fri", "time": "4:30pm"}, {"days": "Sat", "time": "11:00am"}, {"days": "Sun", "time": "Closed"}], "id": "4875900001", "name": "USPS COLLECTION BOX - BLUE BOX", "address": {"city": "SEBEWAING", "state": "MI", "street": "49 N CENTER ST", "postcode": "48759"}}},
{"geometry": {"type": "Point", "coordinates": [-83.4632485136, 43.6881395888]}, "type": "Feature", "properties": {"collection_times": [{"days": "Mon-Fri", "time": "12:30pm"}, {"days": "Sat", "time": "11:00am"}, {"days": "Sun", "time": "Closed"}], "id": "4875900003", "name": "USPS COLLECTION BOX - BLUE BOX", "address": {"city": "SEBEWAING", "state": "MI", "street": "8866 UNIONVILLE RD", "postcode": "48759"}}},
{"geometry": {"type": "Point", "coordinates": [-83.451326142, 43.732802861]}, "type": "Feature", "properties": {"collection_times": [{"days": "Mon-Fri", "time": "4:30pm"}, {"days": "Sat", "time": "11:00am"}, {"days": "Sun", "time": "Closed"}], "id": "4875900004", "name": "USPS COLLECTION BOX - PO LOBBY", "address": {"city": "SEBEWAING", "state": "MI", "street": "49 N CENTER ST", "postcode": "48759"}}},
{"geometry": {"type": "Point", "coordinates": [-83.247382911, 43.323113797]}, "type": "Feature", "properties": {"collection_times": [{"days": "Mon-Fri", "time": "3:30pm"}, {"days": "Sat", "time": "9:00am"}, {"days": "Sun", "time": "Closed"}], "id": "4876000001", "name": "USPS COLLECTION BOX - BLUE BOX", "address": {"city": "SILVERWOOD", "state": "MI", "street": "2760 CLIFFORD RD", "postcode": "48760"}}},
{"geometry": {"type": "Point", "coordinates": [-83.247382911, 43.323113797]}, "type": "Feature", "properties": {"collection_times": [{"days": "Mon-Fri", "time": "3:30pm"}, {"days": "Sat", "time": "9:00am"}, {"days": "Sun", "time": "Closed"}], "id": "4876000002", "name": "USPS COLLECTION BOX - PO LOBBY", "address": {"city": "SILVERWOOD", "state": "MI", "street": "2760 CLIFFORD RD", "postcode": "48760"}}},
{"geometry": {"type": "Point", "coordinates": [-83.921226589, 44.458019642]}, "type": "Feature", "properties": {"collection_times": [{"days": "Mon-Fri", "time": "4:00pm"}, {"days": "Sat", "time": "9:30am"}, {"days": "Sun", "time": "Closed"}], "id": "4876100001", "name": "USPS COLLECTION BOX - BLUE BOX", "address": {"city": "SOUTH BRANCH", "state": "MI", "street": "6495 HEATH RD", "postcode": "48761"}}},
{"geometry": {"type": "Point", "coordinates": [-83.921226589, 44.458019642]}, "type": "Feature", "properties": {"collection_times": [{"days": "Mon-Fri", "time": "4:00pm"}, {"days": "Sat", "time": "9:30am"}, {"days": "Sun", "time": "Closed"}], "id": "4876100002", "name": "USPS COLLECTION BOX - PO LOBBY", "address": {"city": "SOUTH BRANCH", "state": "MI", "street": "6495 HEATH RD", "postcode": "48761"}}},
{"geometry": {"type": "Point", "coordinates": [-83.9390768591, 44.4787995604]}, "type": "Feature", "properties": {"collection_times": [{"days": "Mon-Sat", "time": "10:00am"}, {"days": "Sun", "time": "Closed"}], "id": "4876100003", "name": "USPS COLLECTION BOX - BLUE BOX", "address": {"city": "SOUTH BRANCH", "state": "MI", "street": "6386 E COUNTY LINE RD", "postcode": "48761"}}},
{"geometry": {"type": "Point", "coordinates": [-83.466151299, 44.844104796]}, "type": "Feature", "properties": {"collection_times": [{"days": "Mon-Fri", "time": "2:20pm"}, {"days": "Sat", "time": "9:30am"}, {"days": "Sun", "time": "Closed"}], "id": "4876200001", "name": "USPS COLLECTION BOX - BLUE BOX", "address": {"city": "SPRUCE", "state": "MI", "street": "1495 E SPRUCE RD", "postcode": "48762"}}},
{"geometry": {"type": "Point", "coordinates": [-83.466151299, 44.844104796]}, "type": "Feature", "properties": {"collection_times": [{"days": "Mon-Fri", "time": "2:20pm"}, {"days": "Sat", "time": "9:30am"}, {"days": "Sun", "time": "Closed"}], "id": "4876200002", "name": "USPS COLLECTION BOX - PO LOBBY", "address": {"city": "SPRUCE", "state": "MI", "street": "1495 E SPRUCE RD", "postcode": "48762"}}},
{"geometry": {"type": "Point", "coordinates": [-83.5219611641, 44.2644916941]}, "type": "Feature", "properties": {"collection_times": [{"days": "Mon-Fri", "time": "4:25pm"}, {"days": "Sat", "time": "11:30am"}, {"days": "Sun", "time": "Closed"}], "id": "4876300001", "name": "USPS COLLECTION BOX - BLUE BOX", "address": {"city": "TAWAS CITY", "state": "MI", "street": "608 W LAKE ST", "postcode": "48763"}}},
{"geometry": {"type": "Point", "coordinates": [-83.522185084, 44.264285808]}, "type": "Feature", "properties": {"collection_times": [{"days": "Mon-Fri", "time": "4:25pm"}, {"days": "Sat", "time": "11:30am"}, {"days": "Sun", "time": "Closed"}], "id": "4876300002", "name": "USPS COLLECTION BOX - PO LOBBY", "address": {"city": "TAWAS CITY", "state": "MI", "street": "616 W LAKE ST", "postcode": "48763"}}},
{"geometry": {"type": "Point", "coordinates": [-83.8475580083, 44.1215010682]}, "type": "Feature", "properties": {"collection_times": [{"days": "Mon-Sat", "time": "10:00am"}, {"days": "Sun", "time": "Closed"}], "id": "4876600003", "name": "USPS COLLECTION BOX - BLUE BOX", "address": {"city": "TWINING", "state": "MI", "street": "105 N STATE ST", "postcode": "48766"}}},
{"geometry": {"type": "Point", "coordinates": [-83.466475912, 43.655653177]}, "type": "Feature", "properties": {"collection_times": [{"days": "Mon-Fri", "time": "3:00pm"}, {"days": "Sat", "time": "9:15am"}, {"days": "Sun", "time": "Closed"}], "id": "4876700001", "name": "USPS COLLECTION BOX - BLUE BOX", "address": {"city": "UNIONVILLE", "state": "MI", "street": "6599 CENTER ST", "postcode": "48767"}}},
{"geometry": {"type": "Point", "coordinates": [-83.466475912, 43.655653177]}, "type": "Feature", "properties": {"collection_times": [{"days": "Mon-Fri", "time": "3:00pm"}, {"days": "Sat", "time": "9:15am"}, {"days": "Sun", "time": "Closed"}], "id": "4876700002", "name": "USPS COLLECTION BOX - PO LOBBY", "address": {"city": "UNIONVILLE", "state": "MI", "street": "6599 CENTER ST", "postcode": "48767"}}},
{"geometry": {"type": "Point", "coordinates": [-83.58259538, 43.373515587]}, "type": "Feature", "properties": {"collection_times": [{"days": "Mon-Fri", "time": "4:30pm"}, {"days": "Sat", "time": "11:00am"}, {"days": "Sun", "time": "Closed"}], "id": "4876800003", "name": "USPS COLLECTION BOX - BLUE BOX", "address": {"city": "VASSAR", "state": "MI", "street": "203 N MAIN ST", "postcode": "48768"}}},
{"geometry": {"type": "Point", "coordinates": [-83.5796138769, 43.3704247205]}, "type": "Feature", "properties": {"collection_times": [{"days": "Mon-Sat", "time": "11:30am"}, {"days": "Sun", "time": "Closed"}], "id": "4876800007", "name": "USPS COLLECTION BOX - BLUE BOX", "address": {"city": "VASSAR", "state": "MI", "street": "320 E HURON AVE", "postcode": "48768"}}},
{"geometry": {"type": "Point", "coordinates": [-83.580035174, 43.3630578564]}, "type": "Feature", "properties": {"collection_times": [{"days": "Mon-Sat", "time": "9:30am"}, {"days": "Sun", "time": "Closed"}], "id": "4876800009", "name": "USPS COLLECTION BOX - BLUE BOX", "address": {"city": "VASSAR", "state": "MI", "street": "500 GOODRICH ST", "postcode": "48768"}}},
{"geometry": {"type": "Point", "coordinates": [-83.5835011976, 43.3720177488]}, "type": "Feature", "properties": {"collection_times": [{"days": "Mon-Sat", "time": "12:00pm"}, {"days": "Sun", "time": "Closed"}], "id": "4876800011", "name": "USPS COLLECTION BOX - BLUE BOX", "address": {"city": "VASSAR", "state": "MI", "street": "101 S MAIN ST", "postcode": "48768"}}},
{"geometry": {"type": "Point", "coordinates": [-83.58259538, 43.373515587]}, "type": "Feature", "properties": {"collection_times": [{"days": "Mon-Fri", "time": "4:30pm"}, {"days": "Sat", "time": "11:00am"}, {"days": "Sun", "time": "Closed"}], "id": "4876800012", "name": "USPS COLLECTION BOX - PO LOBBY", "address": {"city": "VASSAR", "state": "MI", "street": "203 N MAIN ST", "postcode": "48768"}}},
{"geometry": {"type": "Point", "coordinates": [-83.803236881, 44.2324027]}, "type": "Feature", "properties": {"collection_times": [{"days": "Mon-Fri", "time": "3:10pm"}, {"days": "Sat", "time": "9:30am"}, {"days": "Sun", "time": "Closed"}], "id": "4877000001", "name": "USPS COLLECTION BOX - BLUE BOX", "address": {"city": "WHITTEMORE", "state": "MI", "street": "209 S BULLOCK ST", "postcode": "48770"}}},
{"geometry": {"type": "Point", "coordinates": [-83.803236881, 44.2324027]}, "type": "Feature", "properties": {"collection_times": [{"days": "Mon-Fri", "time": "3:10pm"}, {"days": "Sat", "time": "9:30am"}, {"days": "Sun", "time": "Closed"}], "id": "4877000002", "name": "USPS COLLECTION BOX - PO LOBBY", "address": {"city": "WHITTEMORE", "state": "MI", "street": "209 S BULLOCK ST", "postcode": "48770"}}}
]}
