{"type": "FeatureCollection", "features": [
{"geometry": {"type": "Point", "coordinates": [-84.6654316098, 43.3789944861]}, "type": "Feature", "properties": {"collection_times": [{"days": "Mon-Sat", "time": "9:00am"}, {"days": "Sun", "time": "Closed"}], "id": "4880100001", "name": "USPS COLLECTION BOX - BLUE BOX", "address": {"city": "ALMA", "state": "MI", "street": "320 W SUPERIOR ST", "postcode": "48801"}}},
{"geometry": {"type": "Point", "coordinates": [-84.6666625333, 43.3944003832]}, "type": "Feature", "properties": {"collection_times": [{"days": "Mon-Fri", "time": "1:00pm"}, {"days": "Sat", "time": "9:00am"}, {"days": "Sun", "time": "Closed"}], "id": "4880100003", "name": "USPS COLLECTION BOX - BLUE BOX", "address": {"city": "ALMA", "state": "MI", "street": "1600 WRIGHT AVE", "postcode": "48801"}}},
{"geometry": {"type": "Point", "coordinates": [-84.6618974298, 43.3790126572]}, "type": "Feature", "properties": {"collection_times": [{"days": "Mon-Fri", "time": "1:30pm"}, {"days": "Sat", "time": "9:00am"}, {"days": "Sun", "time": "Closed"}], "id": "4880100004", "name": "USPS COLLECTION BOX - BLUE BOX", "address": {"city": "ALMA", "state": "MI", "street": "102 W SUPERIOR ST", "postcode": "48801"}}},
{"geometry": {"type": "Point", "coordinates": [-84.6549967559, 43.3789982765]}, "type": "Feature", "properties": {"collection_times": [{"days": "Mon-Sat", "time": "9:00am"}, {"days": "Sun", "time": "Closed"}], "id": "4880100006", "name": "USPS COLLECTION BOX - BLUE BOX", "address": {"city": "ALMA", "state": "MI", "street": "525 E SUPERIOR ST", "postcode": "48801"}}},
{"geometry": {"type": "Point", "coordinates": [-84.6666692684, 43.3954746292]}, "type": "Feature", "properties": {"collection_times": [{"days": "Mon-Fri", "time": "1:00pm"}, {"days": "Sat", "time": "9:00am"}, {"days": "Sun", "time": "Closed"}], "id": "4880100012", "name": "USPS COLLECTION BOX - BLUE BOX", "address": {"city": "ALMA", "state": "MI", "street": "1700 WRIGHT AVE", "postcode": "48801"}}},
{"geometry": {"type": "Point", "coordinates": [-84.6666625333, 43.3944003832]}, "type": "Feature", "properties": {"collection_times": [{"days": "Mon-Fri", "time": "1:00pm"}, {"days": "Sat", "time": "9:00am"}, {"days": "Sun", "time": "Closed"}], "id": "4880100013", "name": "USPS COLLECTION BOX - BLUE BOX", "address": {"city": "ALMA", "state": "MI", "street": "1600 WRIGHT AVE", "postcode": "48801"}}},
{"geometry": {"type": "Point", "coordinates": [-84.661920334, 43.37624558]}, "type": "Feature", "properties": {"collection_times": [{"days": "Mon-Fri", "time": "3:50pm"}, {"days": "Sat", "time": "3:00pm"}, {"days": "Sun", "time": "Closed"}], "id": "4880100020", "name": "USPS COLLECTION BOX - PO LOBBY", "address": {"city": "ALMA", "state": "MI", "street": "233 N STATE ST", "postcode": "48801"}}},
{"geometry": {"type": "Point", "coordinates": [-84.661920334, 43.37624558]}, "type": "Feature", "properties": {"collection_times": [{"days": "Mon-Fri", "time": "3:50pm"}, {"days": "Sat", "time": "3:00pm"}, {"days": "Sun", "time": "Closed"}], "id": "4880100026", "name": "USPS COLLECTION BOX - BLUE BOX", "address": {"city": "ALMA", "state": "MI", "street": "233 N STATE ST", "postcode": "48801"}}},
{"geometry": {"type": "Point", "coordinates": [-84.661920334, 43.37624558]}, "type": "Feature", "properties": {"collection_times": [{"days": "Mon-Fri", "time": "3:50pm"}, {"days": "Sat", "time": "3:00pm"}, {"days": "Sun", "time": "Closed"}], "id": "4880100027", "name": "USPS COLLECTION BOX - BLUE BOX", "address": {"city": "ALMA", "state": "MI", "street": "233 N STATE ST", "postcode": "48801"}}},
{"geometry": {"type": "Point", "coordinates": [-84.475224847, 43.186265253]}, "type": "Feature", "properties": {"collection_times": [{"days": "Mon-Fri", "time": "2:35pm"}, {"days": "Sat", "time": "10:00am"}, {"days": "Sun", "time": "Closed"}], "id": "4880600001", "name": "USPS COLLECTION BOX - BLUE BOX", "address": {"city": "ASHLEY", "state": "MI", "street": "120 S STERLING ST", "postcode": "48806"}}},
{"geometry": {"type": "Point", "coordinates": [-84.475224847, 43.186265253]}, "type": "Feature", "properties": {"collection_times": [{"days": "Mon-Fri", "time": "2:35pm"}, {"days": "Sat", "time": "10:00am"}, {"days": "Sun", "time": "Closed"}], "id": "4880600002", "name": "USPS COLLECTION BOX - PO LOBBY", "address": {"city": "ASHLEY", "state": "MI", "street": "120 S STERLING ST", "postcode": "48806"}}},
{"geometry": {"type": "Point", "coordinates": [-84.419003437, 43.132360865]}, "type": "Feature", "properties": {"collection_times": [{"days": "Mon-Fri", "time": "2:50pm"}, {"days": "Sat", "time": "11:45am"}, {"days": "Sun", "time": "Closed"}], "id": "4880700001", "name": "USPS COLLECTION BOX - BLUE BOX", "address": {"city": "BANNISTER", "state": "MI", "street": "395 E MAIN ST", "postcode": "48807"}}},
{"geometry": {"type": "Point", "coordinates": [-84.419003437, 43.132360865]}, "type": "Feature", "properties": {"collection_times": [{"days": "Mon-Fri", "time": "2:50pm"}, {"days": "Sat", "time": "11:45am"}, {"days": "Sun", "time": "Closed"}], "id": "4880700002", "name": "USPS COLLECTION BOX - PO LOBBY", "address": {"city": "BANNISTER", "state": "MI", "street": "395 E MAIN ST", "postcode": "48807"}}},
{"geometry": {"type": "Point", "coordinates": [-84.448313476, 42.811250042]}, "type": "Feature", "properties": {"collection_times": [{"days": "Mon-Fri", "time": "2:50pm"}, {"days": "Sat", "time": "10:00am"}, {"days": "Sun", "time": "Closed"}], "id": "4880800001", "name": "USPS COLLECTION BOX - BLUE BOX", "address": {"city": "BATH", "state": "MI", "street": "14137 WEBSTER RD", "postcode": "48808"}}},
{"geometry": {"type": "Point", "coordinates": [-84.448313476, 42.811250042]}, "type": "Feature", "properties": {"collection_times": [{"days": "Mon-Fri", "time": "2:50pm"}, {"days": "Sat", "time": "10:00am"}, {"days": "Sun", "time": "Closed"}], "id": "4880800005", "name": "USPS COLLECTION BOX - PO LOBBY", "address": {"city": "BATH", "state": "MI", "street": "14137 WEBSTER RD", "postcode": "48808"}}},
{"geometry": {"type": "Point", "coordinates": [-85.2275371013, 43.0977922955]}, "type": "Feature", "properties": {"collection_times": [{"days": "Mon-Fri", "time": "3:35pm"}, {"days": "Sat", "time": "2:00pm"}, {"days": "Sun", "time": "Closed"}], "id": "4880900001", "name": "USPS COLLECTION BOX - BLUE BOX", "address": {"city": "BELDING", "state": "MI", "street": "100 ALDERMAN ST", "postcode": "48809"}}},
{"geometry": {"type": "Point", "coordinates": [-85.2275371013, 43.0977922955]}, "type": "Feature", "properties": {"collection_times": [{"days": "Mon-Fri", "time": "3:35pm"}, {"days": "Sat", "time": "2:00pm"}, {"days": "Sun", "time": "Closed"}], "id": "4880900004", "name": "USPS COLLECTION BOX - BLUE BOX", "address": {"city": "BELDING", "state": "MI", "street": "100 ALDERMAN ST", "postcode": "48809"}}},
{"geometry": {"type": "Point", "coordinates": [-85.227080837, 43.097801788]}, "type": "Feature", "properties": {"collection_times": [{"days": "Mon-Fri", "time": "3:35pm"}, {"days": "Sat", "time": "2:00pm"}, {"days": "Sun", "time": "Closed"}], "id": "4880900015", "name": "USPS COLLECTION BOX - PO LOBBY", "address": {"city": "BELDING", "state": "MI", "street": "201 E MAIN ST", "postcode": "48809"}}},
{"geometry": {"type": "Point", "coordinates": [-85.2317770679, 43.0978042279]}, "type": "Feature", "properties": {"collection_times": [{"days": "Mon-Sat", "time": "10:00am"}, {"days": "Sun", "time": "Closed"}], "id": "4880900016", "name": "USPS COLLECTION BOX - BLUE BOX", "address": {"city": "BELDING", "state": "MI", "street": "301 W MAIN ST", "postcode": "48809"}}},
{"geometry": {"type": "Point", "coordinates": [-84.848381114, 43.176971614]}, "type": "Feature", "properties": {"collection_times": [{"days": "Mon-Fri", "time": "3:40pm"}, {"days": "Sat", "time": "10:30am"}, {"days": "Sun", "time": "Closed"}], "id": "4881100001", "name": "USPS COLLECTION BOX - BLUE BOX", "address": {"city": "CARSON CITY", "state": "MI", "street": "215 W MAIN ST", "postcode": "48811"}}},
{"geometry": {"type": "Point", "coordinates": [-84.848381114, 43.176971614]}, "type": "Feature", "properties": {"collection_times": [{"days": "Mon-Fri", "time": "3:40pm"}, {"days": "Sat", "time": "10:30am"}, {"days": "Sun", "time": "Closed"}], "id": "4881100002", "name": "USPS COLLECTION BOX - PO LOBBY", "address": {"city": "CARSON CITY", "state": "MI", "street": "215 W MAIN ST", "postcode": "48811"}}},
{"geometry": {"type": "Point", "coordinates": [-84.978037194, 43.407406344]}, "type": "Feature", "properties": {"collection_times": [{"days": "Mon-Fri", "time": "2:20pm"}, {"days": "Sat", "time": "11:15am"}, {"days": "Sun", "time": "Closed"}], "id": "4881200001", "name": "USPS COLLECTION BOX - BLUE BOX", "address": {"city": "CEDAR LAKE", "state": "MI", "street": "7772 ACADEMY RD", "postcode": "48812"}}},
{"geometry": {"type": "Point", "coordinates": [-84.978037194, 43.407406344]}, "type": "Feature", "properties": {"collection_times": [{"days": "Mon-Fri", "time": "2:20pm"}, {"days": "Sat-Sun", "time": "Closed"}], "id": "4881200002", "name": "USPS COLLECTION BOX - PO LOBBY", "address": {"city": "CEDAR LAKE", "state": "MI", "street": "7772 ACADEMY RD", "postcode": "48812"}}},
{"geometry": {"type": "Point", "coordinates": [-84.8367854873, 42.5623362276]}, "type": "Feature", "properties": {"collection_times": [{"days": "Mon-Fri", "time": "4:30pm"}, {"days": "Sat", "time": "3:00pm"}, {"days": "Sun", "time": "Closed"}], "id": "4881300001", "name": "USPS COLLECTION BOX - BLUE BOX", "address": {"city": "CHARLOTTE", "state": "MI", "street": "142 S BOSTWICK ST", "postcode": "48813"}}},
{"geometry": {"type": "Point", "coordinates": [-84.8358899874, 42.563189141]}, "type": "Feature", "properties": {"collection_times": [{"days": "Mon-Sat", "time": "2:30pm"}, {"days": "Sun", "time": "Closed"}], "id": "4881300005", "name": "USPS COLLECTION BOX - BLUE BOX", "address": {"city": "CHARLOTTE", "state": "MI", "street": "122 S COCHRAN AVE", "postcode": "48813"}}},
{"geometry": {"type": "Point", "coordinates": [-84.8249417021, 42.5707813717]}, "type": "Feature", "properties": {"collection_times": [{"days": "Mon-Sat", "time": "10:00am"}, {"days": "Sun", "time": "Closed"}], "id": "4881300006", "name": "USPS COLLECTION BOX - BLUE BOX", "address": {"city": "CHARLOTTE", "state": "MI", "street": "515 LANSING ST", "postcode": "48813"}}},
{"geometry": {"type": "Point", "coordinates": [-84.836770722, 42.562351408]}, "type": "Feature", "properties": {"collection_times": [{"days": "Mon-Fri", "time": "4:30pm"}, {"days": "Sat", "time": "3:00pm"}, {"days": "Sun", "time": "Closed"}], "id": "4881300007", "name": "USPS COLLECTION BOX - PO LOBBY", "address": {"city": "CHARLOTTE", "state": "MI", "street": "117 W LOVETT ST", "postcode": "48813"}}},
{"geometry": {"type": "Point", "coordinates": [-84.8042340054, 42.5820608854]}, "type": "Feature", "properties": {"collection_times": [{"days": "Mon-Sat", "time": "2:30pm"}, {"days": "Sun", "time": "Closed"}], "id": "4881300010", "name": "USPS COLLECTION BOX - BLUE BOX", "address": {"city": "CHARLOTTE", "state": "MI", "street": "1680 PACKARD HWY", "postcode": "48813"}}},
{"geometry": {"type": "Point", "coordinates": [-85.242562895, 42.842309798]}, "type": "Feature", "properties": {"collection_times": [{"days": "Mon-Fri", "time": "3:15pm"}, {"days": "Sat", "time": "10:15am"}, {"days": "Sun", "time": "Closed"}], "id": "4881500001", "name": "USPS COLLECTION BOX - BLUE BOX", "address": {"city": "CLARKSVILLE", "state": "MI", "street": "108 N MAIN ST", "postcode": "48815"}}},
{"geometry": {"type": "Point", "coordinates": [-85.242562895, 42.842309798]}, "type": "Feature", "properties": {"collection_times": [{"days": "Mon-Fri", "time": "3:15pm"}, {"days": "Sat", "time": "10:15am"}, {"days": "Sun", "time": "Closed"}], "id": "4881500002", "name": "USPS COLLECTION BOX - PO LOBBY", "address": {"city": "CLARKSVILLE", "state": "MI", "street": "108 N MAIN ST", "postcode": "48815"}}},
{"geometry": {"type": "Point", "coordinates": [-83.950128277, 42.759719744]}, "type": "Feature", "properties": {"collection_times": [{"days": "Mon-Fri", "time": "2:00pm"}, {"days": "Sat", "time": "9:00am"}, {"days": "Sun", "time": "Closed"}], "id": "4881600001", "name": "USPS COLLECTION BOX - BLUE BOX", "address": {"city": "COHOCTAH", "state": "MI", "street": "1477 W COHOCTAH RD", "postcode": "48816"}}},
{"geometry": {"type": "Point", "coordinates": [-83.950128277, 42.759719744]}, "type": "Feature", "properties": {"collection_times": [{"days": "Mon-Fri", "time": "2:00pm"}, {"days": "Sat", "time": "9:00am"}, {"days": "Sun", "time": "Closed"}], "id": "4881600002", "name": "USPS COLLECTION BOX - PO LOBBY", "address": {"city": "COHOCTAH", "state": "MI", "street": "1477 W COHOCTAH RD", "postcode": "48816"}}},
{"geometry": {"type": "Point", "coordinates": [-84.117887035, 42.982222506]}, "type": "Feature", "properties": {"collection_times": [{"days": "Mon-Fri", "time": "2:35pm"}, {"days": "Sat", "time": "10:30am"}, {"days": "Sun", "time": "Closed"}], "id": "4881700012", "name": "USPS COLLECTION BOX - PO LOBBY", "address": {"city": "CORUNNA", "state": "MI", "street": "330 N SHIAWASSEE ST", "postcode": "48817"}}},
{"geometry": {"type": "Point", "coordinates": [-84.1178363673, 42.9820174064]}, "type": "Feature", "properties": {"collection_times": [{"days": "Mon-Fri", "time": "2:35pm"}, {"days": "Sat", "time": "10:30am"}, {"days": "Sun", "time": "Closed"}], "id": "4881700013", "name": "USPS COLLECTION BOX - BLUE BOX", "address": {"city": "CORUNNA", "state": "MI", "street": "310 N SHIAWASSEE ST", "postcode": "48817"}}},
{"geometry": {"type": "Point", "coordinates": [-84.1178363673, 42.9820174064]}, "type": "Feature", "properties": {"collection_times": [{"days": "Mon-Fri", "time": "2:35pm"}, {"days": "Sat", "time": "10:30am"}, {"days": "Sun", "time": "Closed"}], "id": "4881700014", "name": "USPS COLLECTION BOX - BLUE BOX", "address": {"city": "CORUNNA", "state": "MI", "street": "310 N SHIAWASSEE ST", "postcode": "48817"}}},
{"geometry": {"type": "Point", "coordinates": [-84.1154643018, 42.9986031275]}, "type": "Feature", "properties": {"collection_times": [{"days": "Mon-Fri", "time": "2:35pm"}, {"days": "Sat", "time": "10:30am"}, {"days": "Sun", "time": "Closed"}], "id": "4881700016", "name": "USPS COLLECTION BOX - BLUE BOX", "address": {"city": "CORUNNA", "state": "MI", "street": "2591 E M 21", "postcode": "48817"}}},
{"geometry": {"type": "Point", "coordinates": [-84.1236392204, 42.9745686324]}, "type": "Feature", "properties": {"collection_times": [{"days": "Mon-Sat", "time": "11:00am"}, {"days": "Sun", "time": "Closed"}], "id": "4881700017", "name": "USPS COLLECTION BOX - BLUE BOX", "address": {"city": "CORUNNA", "state": "MI", "street": "601 S NORTON ST", "postcode": "48817"}}},
{"geometry": {"type": "Point", "coordinates": [-84.1186698969, 42.9911166312]}, "type": "Feature", "properties": {"collection_times": [{"days": "Mon-Sat", "time": "10:30am"}, {"days": "Sun", "time": "Closed"}], "id": "4881700021", "name": "USPS COLLECTION BOX - BLUE BOX", "address": {"city": "CORUNNA", "state": "MI", "street": "200 WALNUT ST", "postcode": "48817"}}},
{"geometry": {"type": "Point", "coordinates": [-84.117887035, 42.982222506]}, "type": "Feature", "properties": {"collection_times": [{"days": "Mon-Fri", "time": "2:35pm"}, {"days": "Sat", "time": "2:30pm"}, {"days": "Sun", "time": "Closed"}], "id": "4881700022", "name": "USPS COLLECTION BOX - BLUE BOX", "address": {"city": "CORUNNA", "state": "MI", "street": "330 N SHIAWASSEE ST", "postcode": "48817"}}},
{"geometry": {"type": "Point", "coordinates": [-84.914936264, 43.262103402]}, "type": "Feature", "properties": {"collection_times": [{"days": "Mon-Fri", "time": "3:10pm"}, {"days": "Sat", "time": "10:00am"}, {"days": "Sun", "time": "Closed"}], "id": "4881800001", "name": "USPS COLLECTION BOX - BLUE BOX", "address": {"city": "CRYSTAL", "state": "MI", "street": "204 S MAIN ST", "postcode": "48818"}}},
{"geometry": {"type": "Point", "coordinates": [-84.914936264, 43.262103402]}, "type": "Feature", "properties": {"collection_times": [{"days": "Mon-Fri", "time": "3:10pm"}, {"days": "Sat", "time": "10:00am"}, {"days": "Sun", "time": "Closed"}], "id": "4881800002", "name": "USPS COLLECTION BOX - PO LOBBY", "address": {"city": "CRYSTAL", "state": "MI", "street": "204 S MAIN ST", "postcode": "48818"}}},
{"geometry": {"type": "Point", "coordinates": [-84.303056421, 42.555314377]}, "type": "Feature", "properties": {"collection_times": [{"days": "Mon-Fri", "time": "2:00pm"}, {"days": "Sat", "time": "11:00am"}, {"days": "Sun", "time": "Closed"}], "id": "4881900001", "name": "USPS COLLECTION BOX - BLUE BOX", "address": {"city": "DANSVILLE", "state": "MI", "street": "1036 S JACKSON ST", "postcode": "48819"}}},
{"geometry": {"type": "Point", "coordinates": [-84.303056421, 42.555314377]}, "type": "Feature", "properties": {"collection_times": [{"days": "Mon-Fri", "time": "2:00pm"}, {"days": "Sat", "time": "11:00am"}, {"days": "Sun", "time": "Closed"}], "id": "4881900002", "name": "USPS COLLECTION BOX - PO LOBBY", "address": {"city": "DANSVILLE", "state": "MI", "street": "1036 S JACKSON ST", "postcode": "48819"}}},
{"geometry": {"type": "Point", "coordinates": [-84.569381422, 42.836602547]}, "type": "Feature", "properties": {"collection_times": [{"days": "Mon-Fri", "time": "4:05pm"}, {"days": "Sat", "time": "12:00pm"}, {"days": "Sun", "time": "Closed"}], "id": "4882000001", "name": "USPS COLLECTION BOX - BLUE BOX", "address": {"city": "DEWITT", "state": "MI", "street": "901 S BRIDGE ST", "postcode": "48820"}}},
{"geometry": {"type": "Point", "coordinates": [-84.5886663219, 42.8256916908]}, "type": "Feature", "properties": {"collection_times": [{"days": "Mon-Sat", "time": "10:00am"}, {"days": "Sun", "time": "Closed"}], "id": "4882000006", "name": "USPS COLLECTION BOX - BLUE BOX", "address": {"city": "DEWITT", "state": "MI", "street": "13151 SCHAVEY RD", "postcode": "48820"}}},
{"geometry": {"type": "Point", "coordinates": [-84.5430143385, 42.8269313428]}, "type": "Feature", "properties": {"collection_times": [{"days": "Mon-Sat", "time": "10:00am"}, {"days": "Sun", "time": "Closed"}], "id": "4882000007", "name": "USPS COLLECTION BOX - BLUE BOX", "address": {"city": "DEWITT", "state": "MI", "street": "13070 S US HIGHWAY 27", "postcode": "48820"}}},
{"geometry": {"type": "Point", "coordinates": [-84.569381422, 42.836602547]}, "type": "Feature", "properties": {"collection_times": [{"days": "Mon-Fri", "time": "4:05pm"}, {"days": "Sat", "time": "12:00pm"}, {"days": "Sun", "time": "Closed"}], "id": "4882000008", "name": "USPS COLLECTION BOX - PO LOBBY", "address": {"city": "DEWITT", "state": "MI", "street": "901 S BRIDGE ST", "postcode": "48820"}}},
{"geometry": {"type": "Point", "coordinates": [-84.5430175995, 42.8288575453]}, "type": "Feature", "properties": {"collection_times": [{"days": "Mon-Sat", "time": "10:00am"}, {"days": "Sun", "time": "Closed"}], "id": "4882000009", "name": "USPS COLLECTION BOX - BLUE BOX", "address": {"city": "DEWITT", "state": "MI", "street": "12900 S US HIGHWAY 27", "postcode": "48820"}}},
{"geometry": {"type": "Point", "coordinates": [-84.569381422, 42.836602547]}, "type": "Feature", "properties": {"collection_times": [{"days": "Mon-Fri", "time": "4:05pm"}, {"days": "Sat", "time": "12:00pm"}, {"days": "Sun", "time": "Closed"}], "id": "4882000011", "name": "USPS COLLECTION BOX - BLUE BOX", "address": {"city": "DEWITT", "state": "MI", "street": "901 S BRIDGE ST", "postcode": "48820"}}},
{"geometry": {"type": "Point", "coordinates": [-84.569381422, 42.836602547]}, "type": "Feature", "properties": {"collection_times": [{"days": "Mon-Fri", "time": "4:05pm"}, {"days": "Sat", "time": "12:00pm"}, {"days": "Sun", "time": "Closed"}], "id": "4882000012", "name": "USPS COLLECTION BOX - PO LOBBY", "address": {"city": "DEWITT", "state": "MI", "street": "901 S BRIDGE ST", "postcode": "48820"}}},
{"geometry": {"type": "Point", "coordinates": [-84.6619204931, 42.6641960922]}, "type": "Feature", "properties": {"collection_times": [{"days": "Mon-Sat", "time": "10:00am"}, {"days": "Sun", "time": "Closed"}], "id": "4882100001", "name": "USPS COLLECTION BOX - BLUE BOX", "address": {"city": "DIMONDALE", "state": "MI", "street": "6661 N CANAL RD", "postcode": "48821"}}},
{"geometry": {"type": "Point", "coordinates": [-84.6619204931, 42.6641960922]}, "type": "Feature", "properties": {"collection_times": [{"days": "Mon-Sat", "time": "10:00am"}, {"days": "Sun", "time": "Closed"}], "id": "4882100002", "name": "USPS COLLECTION BOX - BLUE BOX", "address": {"city": "DIMONDALE", "state": "MI", "street": "6661 N CANAL RD", "postcode": "48821"}}},
{"geometry": {"type": "Point", "coordinates": [-84.6619204931, 42.6641960922]}, "type": "Feature", "properties": {"collection_times": [{"days": "Mon-Sat", "time": "10:00am"}, {"days": "Sun", "time": "Closed"}], "id": "4882100003", "name": "USPS COLLECTION BOX - BLUE BOX", "address": {"city": "DIMONDALE", "state": "MI", "street": "6661 N CANAL RD", "postcode": "48821"}}},
{"geometry": {"type": "Point", "coordinates": [-84.6619204931, 42.6641960922]}, "type": "Feature", "properties": {"collection_times": [{"days": "Mon-Sat", "time": "10:00am"}, {"days": "Sun", "time": "Closed"}], "id": "4882100004", "name": "USPS COLLECTION BOX - BLUE BOX", "address": {"city": "DIMONDALE", "state": "MI", "street": "6661 N CANAL RD", "postcode": "48821"}}},
{"geometry": {"type": "Point", "coordinates": [-84.6453082003, 42.6473767817]}, "type": "Feature", "properties": {"collection_times": [{"days": "Mon-Sat", "time": "9:00am"}, {"days": "Sun", "time": "Closed"}], "id": "4882100005", "name": "USPS COLLECTION BOX - BLUE BOX", "address": {"city": "DIMONDALE", "state": "MI", "street": "140 EAST RD", "postcode": "48821"}}},
{"geometry": {"type": "Point", "coordinates": [-84.652062251, 42.644413462]}, "type": "Feature", "properties": {"collection_times": [{"days": "Mon-Fri", "time": "3:45pm"}, {"days": "Sat", "time": "10:00am"}, {"days": "Sun", "time": "Closed"}], "id": "4882100006", "name": "USPS COLLECTION BOX - BLUE BOX", "address": {"city": "DIMONDALE", "state": "MI", "street": "126 W JEFFERSON ST", "postcode": "48821"}}},
{"geometry": {"type": "Point", "coordinates": [-84.652062251, 42.644413462]}, "type": "Feature", "properties": {"collection_times": [{"days": "Mon-Fri", "time": "4:25pm"}, {"days": "Sat", "time": "10:00am"}, {"days": "Sun", "time": "Closed"}], "id": "4882100011", "name": "USPS COLLECTION BOX - PO LOBBY", "address": {"city": "DIMONDALE", "state": "MI", "street": "126 W JEFFERSON ST", "postcode": "48821"}}},
{"geometry": {"type": "Point", "coordinates": [-84.6734431868, 42.6691920686]}, "type": "Feature", "properties": {"collection_times": [{"days": "Mon-Sat", "time": "9:00am"}, {"days": "Sun", "time": "Closed"}], "id": "4882100012", "name": "USPS COLLECTION BOX - BLUE BOX", "address": {"city": "DIMONDALE", "state": "MI", "street": "8420 BILLWOOD HWY", "postcode": "48821"}}},
{"geometry": {"type": "Point", "coordinates": [-84.788556999, 42.807630005]}, "type": "Feature", "properties": {"collection_times": [{"days": "Mon-Fri", "time": "3:00pm"}, {"days": "Sat", "time": "9:00am"}, {"days": "Sun", "time": "Closed"}], "id": "4882200001", "name": "USPS COLLECTION BOX - BLUE BOX", "address": {"city": "EAGLE", "state": "MI", "street": "13479 W GRAND RIVER HWY", "postcode": "48822"}}},
{"geometry": {"type": "Point", "coordinates": [-84.788556999, 42.807630005]}, "type": "Feature", "properties": {"collection_times": [{"days": "Mon-Fri", "time": "3:00pm"}, {"days": "Sat", "time": "9:00am"}, {"days": "Sun", "time": "Closed"}], "id": "4882200002", "name": "USPS COLLECTION BOX - PO LOBBY", "address": {"city": "EAGLE", "state": "MI", "street": "13479 W GRAND RIVER HWY", "postcode": "48822"}}},
{"geometry": {"type": "Point", "coordinates": [-84.4550570871, 42.7274874425]}, "type": "Feature", "properties": {"collection_times": [{"days": "Mon-Fri", "time": "3:00pm"}, {"days": "Sat", "time": "1:00pm"}, {"days": "Sun", "time": "Closed"}], "id": "4882300002", "name": "USPS COLLECTION BOX - BLUE BOX", "address": {"city": "EAST LANSING", "state": "MI", "street": "2840 E GRAND RIVER AVE", "postcode": "48823"}}},
{"geometry": {"type": "Point", "coordinates": [-84.4549166804, 42.7273284591]}, "type": "Feature", "properties": {"collection_times": [{"days": "Mon-Fri", "time": "3:00pm"}, {"days": "Sat", "time": "1:00pm"}, {"days": "Sun", "time": "Closed"}], "id": "4882300003", "name": "USPS COLLECTION BOX - BLUE BOX", "address": {"city": "EAST LANSING", "state": "MI", "street": "2843 E GRAND RIVER AVE", "postcode": "48823"}}},
{"geometry": {"type": "Point", "coordinates": [-84.4619918276, 42.713775014]}, "type": "Feature", "properties": {"collection_times": [{"days": "Mon-Fri", "time": "3:00pm"}, {"days": "Sat", "time": "1:00pm"}, {"days": "Sun", "time": "Closed"}], "id": "4882300007", "name": "USPS COLLECTION BOX - BLUE BOX", "address": {"city": "EAST LANSING", "state": "MI", "street": "4572 S HAGADORN RD", "postcode": "48823"}}},
{"geometry": {"type": "Point", "coordinates": [-84.4620178662, 42.7167522499]}, "type": "Feature", "properties": {"collection_times": [{"days": "Mon-Fri", "time": "3:00pm"}, {"days": "Sat", "time": "1:00pm"}, {"days": "Sun", "time": "Closed"}], "id": "4882300008", "name": "USPS COLLECTION BOX - BLUE BOX", "address": {"city": "EAST LANSING", "state": "MI", "street": "4660 S HAGADORN RD", "postcode": "48823"}}},
{"geometry": {"type": "Point", "coordinates": [-84.462034633, 42.718827145]}, "type": "Feature", "properties": {"collection_times": [{"days": "Mon-Fri", "time": "3:00pm"}, {"days": "Sat", "time": "1:00pm"}, {"days": "Sun", "time": "Closed"}], "id": "4882300011", "name": "USPS COLLECTION BOX - BLUE BOX", "address": {"city": "EAST LANSING", "state": "MI", "street": "4700 S HAGADORN RD", "postcode": "48823"}}},
{"geometry": {"type": "Point", "coordinates": [-84.4811695054, 42.7472206246]}, "type": "Feature", "properties": {"collection_times": [{"days": "Mon-Sat", "time": "1:00pm"}, {"days": "Sun", "time": "Closed"}], "id": "4882300015", "name": "USPS COLLECTION BOX - BLUE BOX", "address": {"city": "EAST LANSING", "state": "MI", "street": "1216 KENDALE BLVD", "postcode": "48823"}}},
{"geometry": {"type": "Point", "coordinates": [-84.5003252348, 42.7609314761]}, "type": "Feature", "properties": {"collection_times": [{"days": "Mon-Fri", "time": "3:00pm"}, {"days": "Sat", "time": "1:00pm"}, {"days": "Sun", "time": "Closed"}], "id": "4882300017", "name": "USPS COLLECTION BOX - BLUE BOX", "address": {"city": "EAST LANSING", "state": "MI", "street": "1350 W LAKE LANSING RD", "postcode": "48823"}}},
{"geometry": {"type": "Point", "coordinates": [-84.4819203898, 42.7347784289]}, "type": "Feature", "properties": {"collection_times": [{"days": "Mon-Sat", "time": "1:00pm"}, {"days": "Sun", "time": "Closed"}], "id": "4882300019", "name": "USPS COLLECTION BOX - BLUE BOX", "address": {"city": "EAST LANSING", "state": "MI", "street": "225 E GRAND RIVER AVE", "postcode": "48823"}}},
{"geometry": {"type": "Point", "coordinates": [-84.4912914433, 42.7342371237]}, "type": "Feature", "properties": {"collection_times": [{"days": "Mon-Sat", "time": "1:00pm"}, {"days": "Sun", "time": "Closed"}], "id": "4882300021", "name": "USPS COLLECTION BOX - BLUE BOX", "address": {"city": "EAST LANSING", "state": "MI", "street": "604 MICHIGAN AVE", "postcode": "48823"}}},
{"geometry": {"type": "Point", "coordinates": [-84.4979734586, 42.7332438603]}, "type": "Feature", "properties": {"collection_times": [{"days": "Mon-Fri", "time": "3:00pm"}, {"days": "Sat", "time": "1:00pm"}, {"days": "Sun", "time": "Closed"}], "id": "4882300022", "name": "USPS COLLECTION BOX - BLUE BOX", "address": {"city": "EAST LANSING", "state": "MI", "street": "1111 MICHIGAN AVE", "postcode": "48823"}}},
{"geometry": {"type": "Point", "coordinates": [-84.4836538243, 42.7416240069]}, "type": "Feature", "properties": {"collection_times": [{"days": "Mon-Fri", "time": "3:00pm"}, {"days": "Sat", "time": "1:00pm"}, {"days": "Sun", "time": "Closed"}], "id": "4882300024", "name": "USPS COLLECTION BOX - BLUE BOX", "address": {"city": "EAST LANSING", "state": "MI", "street": "800 ABBOT RD", "postcode": "48823"}}},
{"geometry": {"type": "Point", "coordinates": [-84.4836882518, 42.7362050825]}, "type": "Feature", "properties": {"collection_times": [{"days": "Mon-Fri", "time": "3:00pm"}, {"days": "Sat", "time": "1:00pm"}, {"days": "Sun", "time": "Closed"}], "id": "4882300025", "name": "USPS COLLECTION BOX - BLUE BOX", "address": {"city": "EAST LANSING", "state": "MI", "street": "322 ABBOT RD", "postcode": "48823"}}},
{"geometry": {"type": "Point", "coordinates": [-84.483719718, 42.745809716]}, "type": "Feature", "properties": {"collection_times": [{"days": "Mon-Fri", "time": "4:10pm"}, {"days": "Sat", "time": "3:30pm"}, {"days": "Sun", "time": "Closed"}], "id": "4882300028", "name": "USPS COLLECTION BOX - BLUE BOX", "address": {"city": "EAST LANSING", "state": "MI", "street": "1140 ABBOT RD", "postcode": "48823"}}},
{"geometry": {"type": "Point", "coordinates": [-84.483719718, 42.745809716]}, "type": "Feature", "properties": {"collection_times": [{"days": "Mon-Fri", "time": "4:10pm"}, {"days": "Sat", "time": "3:30pm"}, {"days": "Sun", "time": "Closed"}], "id": "4882300029", "name": "USPS COLLECTION BOX - BLUE BOX", "address": {"city": "EAST LANSING", "state": "MI", "street": "1140 ABBOT RD", "postcode": "48823"}}},
{"geometry": {"type": "Point", "coordinates": [-84.483719718, 42.745809716]}, "type": "Feature", "properties": {"collection_times": [{"days": "Mon-Fri", "time": "4:10pm"}, {"days": "Sat", "time": "3:30pm"}, {"days": "Sun", "time": "Closed"}], "id": "4882300031", "name": "USPS COLLECTION BOX - PO LOBBY", "address": {"city": "EAST LANSING", "state": "MI", "street": "1140 ABBOT RD", "postcode": "48823"}}},
{"geometry": {"type": "Point", "coordinates": [-84.4836490262, 42.7502591347]}, "type": "Feature", "properties": {"collection_times": [{"days": "Mon-Fri", "time": "3:00pm"}, {"days": "Sat", "time": "1:00pm"}, {"days": "Sun", "time": "Closed"}], "id": "4882300033", "name": "USPS COLLECTION BOX - BLUE BOX", "address": {"city": "EAST LANSING", "state": "MI", "street": "1500 ABBOT RD", "postcode": "48823"}}},
{"geometry": {"type": "Point", "coordinates": [-84.4641797328, 42.7299885565]}, "type": "Feature", "properties": {"collection_times": [{"days": "Mon-Fri", "time": "3:00pm"}, {"days": "Sat", "time": "1:00pm"}, {"days": "Sun", "time": "Closed"}], "id": "4882300036", "name": "USPS COLLECTION BOX - BLUE BOX", "address": {"city": "EAST LANSING", "state": "MI", "street": "1385 E GRAND RIVER AVE", "postcode": "48823"}}},
{"geometry": {"type": "Point", "coordinates": [-84.4441874433, 42.7408079083]}, "type": "Feature", "properties": {"collection_times": [{"days": "Mon-Sat", "time": "1:00pm"}, {"days": "Sun", "time": "Closed"}], "id": "4882300037", "name": "USPS COLLECTION BOX - BLUE BOX", "address": {"city": "EAST LANSING", "state": "MI", "street": "2470 BURCHAM DR", "postcode": "48823"}}},
{"geometry": {"type": "Point", "coordinates": [-84.4696447776, 42.7400353835]}, "type": "Feature", "properties": {"collection_times": [{"days": "Mon-Sat", "time": "1:00pm"}, {"days": "Sun", "time": "Closed"}], "id": "4882300040", "name": "USPS COLLECTION BOX - BLUE BOX", "address": {"city": "EAST LANSING", "state": "MI", "street": "675 GUNSON ST", "postcode": "48823"}}},
{"geometry": {"type": "Point", "coordinates": [-84.4795421323, 42.7341420929]}, "type": "Feature", "properties": {"collection_times": [{"days": "Mon-Fri", "time": "3:00pm"}, {"days": "Sat", "time": "1:00pm"}, {"days": "Sun", "time": "Closed"}], "id": "4882300042", "name": "USPS COLLECTION BOX - BLUE BOX", "address": {"city": "EAST LANSING", "state": "MI", "street": "421 E GRAND RIVER AVE", "postcode": "48823"}}},
{"geometry": {"type": "Point", "coordinates": [-84.4711232993, 42.7323003735]}, "type": "Feature", "properties": {"collection_times": [{"days": "Mon-Sat", "time": "1:00pm"}, {"days": "Sun", "time": "Closed"}], "id": "4882300043", "name": "USPS COLLECTION BOX - BLUE BOX", "address": {"city": "EAST LANSING", "state": "MI", "street": "133 DURAND ST", "postcode": "48823"}}},
{"geometry": {"type": "Point", "coordinates": [-84.4807692039, 42.7361143715]}, "type": "Feature", "properties": {"collection_times": [{"days": "Mon-Fri", "time": "3:00pm"}, {"days": "Sat", "time": "1:00pm"}, {"days": "Sun", "time": "Closed"}], "id": "4882300048", "name": "USPS COLLECTION BOX - BLUE BOX", "address": {"city": "EAST LANSING", "state": "MI", "street": "309 MAC AVE", "postcode": "48823"}}},
{"geometry": {"type": "Point", "coordinates": [-84.457759536, 42.7281404722]}, "type": "Feature", "properties": {"collection_times": [{"days": "Mon-Fri", "time": "3:00pm"}, {"days": "Sat", "time": "1:00pm"}, {"days": "Sun", "time": "Closed"}], "id": "4882300052", "name": "USPS COLLECTION BOX - BLUE BOX", "address": {"city": "EAST LANSING", "state": "MI", "street": "1760 E GRAND RIVER AVE", "postcode": "48823"}}},
{"geometry": {"type": "Point", "coordinates": [-84.4896614681, 42.7476041053]}, "type": "Feature", "properties": {"collection_times": [{"days": "Mon-Sat", "time": "1:00pm"}, {"days": "Sun", "time": "Closed"}], "id": "4882300061", "name": "USPS COLLECTION BOX - BLUE BOX", "address": {"city": "EAST LANSING", "state": "MI", "street": "420 SPRUCE HILL CIR", "postcode": "48823"}}},
{"geometry": {"type": "Point", "coordinates": [-84.4750072175, 42.7469629232]}, "type": "Feature", "properties": {"collection_times": [{"days": "Mon-Fri", "time": "3:00pm"}, {"days": "Sat", "time": "1:00pm"}, {"days": "Sun", "time": "Closed"}], "id": "4882300063", "name": "USPS COLLECTION BOX - BLUE BOX", "address": {"city": "EAST LANSING", "state": "MI", "street": "166 SERVICE RD RM A RM 0", "postcode": "48823"}}},
{"geometry": {"type": "Point", "coordinates": [-84.475218434, 42.761380453]}, "type": "Feature", "properties": {"collection_times": [{"days": "Mon-Sat", "time": "1:00pm"}, {"days": "Sun", "time": "Closed"}], "id": "4882300065", "name": "USPS COLLECTION BOX - BLUE BOX", "address": {"city": "EAST LANSING", "state": "MI", "street": "6213 TOWAR GARDEN CIR", "postcode": "48823"}}},
{"geometry": {"type": "Point", "coordinates": [-84.4952157711, 42.7199039326]}, "type": "Feature", "properties": {"collection_times": [{"days": "Mon-Fri", "time": "3:00pm"}, {"days": "Sat", "time": "1:00pm"}, {"days": "Sun", "time": "Closed"}], "id": "4882300066", "name": "USPS COLLECTION BOX - BLUE BOX", "address": {"city": "EAST LANSING", "state": "MI", "street": "952 TROWBRIDGE RD", "postcode": "48823"}}},
{"geometry": {"type": "Point", "coordinates": [-84.4557650062, 42.7190947379]}, "type": "Feature", "properties": {"collection_times": [{"days": "Mon-Fri", "time": "3:00pm"}, {"days": "Sat", "time": "1:00pm"}, {"days": "Sun", "time": "Closed"}], "id": "4882300074", "name": "USPS COLLECTION BOX - BLUE BOX", "address": {"city": "EAST LANSING", "state": "MI", "street": "2900 HANNAH BLVD", "postcode": "48823"}}},
{"geometry": {"type": "Point", "coordinates": [-84.5043766678, 42.760867145]}, "type": "Feature", "properties": {"collection_times": [{"days": "Mon-Fri", "time": "3:00pm"}, {"days": "Sat", "time": "1:00pm"}, {"days": "Sun", "time": "Closed"}], "id": "4882300075", "name": "USPS COLLECTION BOX - BLUE BOX", "address": {"city": "EAST LANSING", "state": "MI", "street": "1550 W LAKE LANSING RD", "postcode": "48823"}}},
{"geometry": {"type": "Point", "coordinates": [-84.4851639899, 42.7592486108]}, "type": "Feature", "properties": {"collection_times": [{"days": "Mon-Fri", "time": "3:00pm"}, {"days": "Sat", "time": "1:00pm"}, {"days": "Sun", "time": "Closed"}], "id": "4882300076", "name": "USPS COLLECTION BOX - BLUE BOX", "address": {"city": "EAST LANSING", "state": "MI", "street": "139 W LAKE LANSING RD", "postcode": "48823"}}},
{"geometry": {"type": "Point", "coordinates": [-84.4883705213, 42.7593074501]}, "type": "Feature", "properties": {"collection_times": [{"days": "Mon-Fri", "time": "3:00pm"}, {"days": "Sat", "time": "1:00pm"}, {"days": "Sun", "time": "Closed"}], "id": "4882300077", "name": "USPS COLLECTION BOX - BLUE BOX", "address": {"city": "EAST LANSING", "state": "MI", "street": "411 W LAKE LANSING RD", "postcode": "48823"}}},
{"geometry": {"type": "Point", "coordinates": [-84.4927847396, 42.7595803441]}, "type": "Feature", "properties": {"collection_times": [{"days": "Mon-Fri", "time": "3:00pm"}, {"days": "Sat", "time": "1:00pm"}, {"days": "Sun", "time": "Closed"}], "id": "4882300078", "name": "USPS COLLECTION BOX - BLUE BOX", "address": {"city": "EAST LANSING", "state": "MI", "street": "735 W LAKE LANSING RD", "postcode": "48823"}}},
{"geometry": {"type": "Point", "coordinates": [-84.4620151025, 42.7162288264]}, "type": "Feature", "properties": {"collection_times": [{"days": "Mon-Fri", "time": "3:00pm"}, {"days": "Sat", "time": "1:00pm"}, {"days": "Sun", "time": "Closed"}], "id": "4882300080", "name": "USPS COLLECTION BOX - BLUE BOX", "address": {"city": "EAST LANSING", "state": "MI", "street": "4650 S HAGADORN RD", "postcode": "48823"}}},
{"geometry": {"type": "Point", "coordinates": [-84.483493405, 42.7593182519]}, "type": "Feature", "properties": {"collection_times": [{"days": "Mon-Fri", "time": "3:00pm"}, {"days": "Sat", "time": "1:00pm"}, {"days": "Sun", "time": "Closed"}], "id": "4882300084", "name": "USPS COLLECTION BOX - BLUE BOX", "address": {"city": "EAST LANSING", "state": "MI", "street": "3496 E LAKE LANSING RD", "postcode": "48823"}}},
{"geometry": {"type": "Point", "coordinates": [-84.4647864427, 42.758884064]}, "type": "Feature", "properties": {"collection_times": [{"days": "Mon-Sat", "time": "1:00pm"}, {"days": "Sun", "time": "Closed"}], "id": "4882300086", "name": "USPS COLLECTION BOX - BLUE BOX", "address": {"city": "EAST LANSING", "state": "MI", "street": "6125 FARRINGTON CT", "postcode": "48823"}}},
{"geometry": {"type": "Point", "coordinates": [-84.485784069, 42.7493935265]}, "type": "Feature", "properties": {"collection_times": [{"days": "Mon-Sat", "time": "1:00pm"}, {"days": "Sun", "time": "Closed"}], "id": "4882300087", "name": "USPS COLLECTION BOX - BLUE BOX", "address": {"city": "EAST LANSING", "state": "MI", "street": "204 E POINTE LN", "postcode": "48823"}}},
{"geometry": {"type": "Point", "coordinates": [-84.5032496121, 42.7617767609]}, "type": "Feature", "properties": {"collection_times": [{"days": "Mon-Fri", "time": "3:00pm"}, {"days": "Sat", "time": "1:00pm"}, {"days": "Sun", "time": "Closed"}], "id": "4882300088", "name": "USPS COLLECTION BOX - BLUE BOX", "address": {"city": "EAST LANSING", "state": "MI", "street": "2500 COOLIDGE RD", "postcode": "48823"}}},
{"geometry": {"type": "Point", "coordinates": [-84.5092357936, 42.7652484756]}, "type": "Feature", "properties": {"collection_times": [{"days": "Mon-Fri", "time": "3:00pm"}, {"days": "Sat", "time": "1:00pm"}, {"days": "Sun", "time": "Closed"}], "id": "4882300091", "name": "USPS COLLECTION BOX - BLUE BOX", "address": {"city": "EAST LANSING", "state": "MI", "street": "1755 ABBEY RD", "postcode": "48823"}}},
{"geometry": {"type": "Point", "coordinates": [-84.483572372, 42.7754403334]}, "type": "Feature", "properties": {"collection_times": [{"days": "Mon-Sat", "time": "1:00pm"}, {"days": "Sun", "time": "Closed"}], "id": "4882300095", "name": "USPS COLLECTION BOX - BLUE BOX", "address": {"city": "EAST LANSING", "state": "MI", "street": "16789 CHANDLER RD", "postcode": "48823"}}},
{"geometry": {"type": "Point", "coordinates": [-84.483719718, 42.745809716]}, "type": "Feature", "properties": {"collection_times": [{"days": "Mon-Fri", "time": "4:10pm"}, {"days": "Sat", "time": "3:30pm"}, {"days": "Sun", "time": "Closed"}], "id": "4882300096", "name": "USPS COLLECTION BOX - APC", "address": {"city": "EAST LANSING", "state": "MI", "street": "1140 ABBOT RD", "postcode": "48823"}}},
{"geometry": {"type": "Point", "coordinates": [-84.4996825937, 42.7176205072]}, "type": "Feature", "properties": {"collection_times": [{"days": "Mon-Sat", "time": "1:00pm"}, {"days": "Sun", "time": "Closed"}], "id": "4882300098", "name": "USPS COLLECTION BOX - BLUE BOX", "address": {"city": "EAST LANSING", "state": "MI", "street": "1460 MIDDLEVALE RD", "postcode": "48823"}}},
{"geometry": {"type": "Point", "coordinates": [-84.4750072175, 42.7469629232]}, "type": "Feature", "properties": {"collection_times": [{"days": "Mon-Fri", "time": "3:00pm"}, {"days": "Sat", "time": "12:00pm"}, {"days": "Sun", "time": "Closed"}], "id": "4882300099", "name": "USPS COLLECTION BOX - BLUE BOX", "address": {"city": "EAST LANSING", "state": "MI", "street": "49 ABBOT RD", "postcode": "48823"}}},
{"geometry": {"type": "Point", "coordinates": [-84.6558921342, 42.5101026745]}, "type": "Feature", "properties": {"collection_times": [{"days": "Mon-Sat", "time": "4:15pm"}, {"days": "Sun", "time": "Closed"}], "id": "4882700001", "name": "USPS COLLECTION BOX - BLUE BOX", "address": {"city": "EATON RAPIDS", "state": "MI", "street": "300 S MAIN ST", "postcode": "48827"}}},
{"geometry": {"type": "Point", "coordinates": [-84.6570443362, 42.4973586576]}, "type": "Feature", "properties": {"collection_times": [{"days": "Mon-Sat", "time": "10:00am"}, {"days": "Sun", "time": "Closed"}], "id": "4882700004", "name": "USPS COLLECTION BOX - BLUE BOX", "address": {"city": "EATON RAPIDS", "state": "MI", "street": "1411 S MAIN ST", "postcode": "48827"}}},
{"geometry": {"type": "Point", "coordinates": [-84.6557028608, 42.5124946175]}, "type": "Feature", "properties": {"collection_times": [{"days": "Mon-Sat", "time": "9:00am"}, {"days": "Sun", "time": "Closed"}], "id": "4882700008", "name": "USPS COLLECTION BOX - BLUE BOX", "address": {"city": "EATON RAPIDS", "state": "MI", "street": "119 S MAIN ST", "postcode": "48827"}}},
{"geometry": {"type": "Point", "coordinates": [-84.65584404, 42.510476834]}, "type": "Feature", "properties": {"collection_times": [{"days": "Mon-Sat", "time": "4:15pm"}, {"days": "Sun", "time": "Closed"}], "id": "4882700009", "name": "USPS COLLECTION BOX - BLUE BOX", "address": {"city": "EATON RAPIDS", "state": "MI", "street": "245 S MAIN ST", "postcode": "48827"}}},
{"geometry": {"type": "Point", "coordinates": [-84.65584404, 42.510476834]}, "type": "Feature", "properties": {"collection_times": [{"days": "Mon-Sat", "time": "4:30pm"}, {"days": "Sun", "time": "Closed"}], "id": "4882700011", "name": "USPS COLLECTION BOX - PO LOBBY", "address": {"city": "EATON RAPIDS", "state": "MI", "street": "245 S MAIN ST", "postcode": "48827"}}},
{"geometry": {"type": "Point", "coordinates": [-85.04096082, 43.408087083]}, "type": "Feature", "properties": {"collection_times": [{"days": "Mon-Fri", "time": "2:10pm"}, {"days": "Sat", "time": "11:15am"}, {"days": "Sun", "time": "Closed"}], "id": "4882900001", "name": "USPS COLLECTION BOX - BLUE BOX", "address": {"city": "EDMORE", "state": "MI", "street": "317 E MAIN ST", "postcode": "48829"}}},
{"geometry": {"type": "Point", "coordinates": [-85.04096082, 43.408087083]}, "type": "Feature", "properties": {"collection_times": [{"days": "Mon-Fri", "time": "2:10pm"}, {"days": "Sat", "time": "11:30am"}, {"days": "Sun", "time": "Closed"}], "id": "4882900002", "name": "USPS COLLECTION BOX - PO LOBBY", "address": {"city": "EDMORE", "state": "MI", "street": "317 E MAIN ST", "postcode": "48829"}}},
{"geometry": {"type": "Point", "coordinates": [-84.834717188, 43.366167896]}, "type": "Feature", "properties": {"collection_times": [{"days": "Mon-Sat", "time": "12:15pm"}, {"days": "Sun", "time": "Closed"}], "id": "4883000001", "name": "USPS COLLECTION BOX - BLUE BOX", "address": {"city": "ELM HALL", "state": "MI", "street": "5025 N LUMBERJACK RD", "postcode": "48830"}}},
{"geometry": {"type": "Point", "coordinates": [-84.834717188, 43.366167896]}, "type": "Feature", "properties": {"collection_times": [{"days": "Mon-Sat", "time": "12:15pm"}, {"days": "Sun", "time": "Closed"}], "id": "4883000002", "name": "USPS COLLECTION BOX - PO LOBBY", "address": {"city": "ELM HALL", "state": "MI", "street": "5025 N LUMBERJACK RD", "postcode": "48830"}}},
{"geometry": {"type": "Point", "coordinates": [-84.385220285, 43.088726417]}, "type": "Feature", "properties": {"collection_times": [{"days": "Mon-Fri", "time": "3:10pm"}, {"days": "Sat", "time": "10:45am"}, {"days": "Sun", "time": "Closed"}], "id": "4883100002", "name": "USPS COLLECTION BOX - BLUE BOX", "address": {"city": "ELSIE", "state": "MI", "street": "153 E MAIN ST", "postcode": "48831"}}},
{"geometry": {"type": "Point", "coordinates": [-84.385220285, 43.088726417]}, "type": "Feature", "properties": {"collection_times": [{"days": "Mon-Fri", "time": "3:10pm"}, {"days": "Sat", "time": "10:45am"}, {"days": "Sun", "time": "Closed"}], "id": "4883100003", "name": "USPS COLLECTION BOX - PO LOBBY", "address": {"city": "ELSIE", "state": "MI", "street": "153 E MAIN ST", "postcode": "48831"}}},
{"geometry": {"type": "Point", "coordinates": [-84.746594018, 43.386282494]}, "type": "Feature", "properties": {"collection_times": [{"days": "Mon-Fri", "time": "12:00pm"}, {"days": "Sat", "time": "9:00am"}, {"days": "Sun", "time": "Closed"}], "id": "4883200001", "name": "USPS COLLECTION BOX - BLUE BOX", "address": {"city": "ELWELL", "state": "MI", "street": "6477 PINGREE RD", "postcode": "48832"}}},
{"geometry": {"type": "Point", "coordinates": [-84.746594018, 43.386282494]}, "type": "Feature", "properties": {"collection_times": [{"days": "Mon-Fri", "time": "12:00pm"}, {"days": "Sat", "time": "9:00am"}, {"days": "Sun", "time": "Closed"}], "id": "4883200002", "name": "USPS COLLECTION BOX - PO LOBBY", "address": {"city": "ELWELL", "state": "MI", "street": "6477 PINGREE RD", "postcode": "48832"}}},
{"geometry": {"type": "Point", "coordinates": [-84.513799427, 43.103599214]}, "type": "Feature", "properties": {"collection_times": [{"days": "Mon-Fri", "time": "1:00pm"}, {"days": "Sat", "time": "10:15am"}, {"days": "Sun", "time": "Closed"}], "id": "4883300001", "name": "USPS COLLECTION BOX - BLUE BOX", "address": {"city": "EUREKA", "state": "MI", "street": "7907 N WELLING RD", "postcode": "48833"}}},
{"geometry": {"type": "Point", "coordinates": [-84.513799427, 43.103599214]}, "type": "Feature", "properties": {"collection_times": [{"days": "Mon-Fri", "time": "1:00pm"}, {"days": "Sat", "time": "10:15am"}, {"days": "Sun", "time": "Closed"}], "id": "4883300002", "name": "USPS COLLECTION BOX - PO LOBBY", "address": {"city": "EUREKA", "state": "MI", "street": "7907 N WELLING RD", "postcode": "48833"}}},
{"geometry": {"type": "Point", "coordinates": [-85.080944097, 43.14926415]}, "type": "Feature", "properties": {"collection_times": [{"days": "Mon-Fri", "time": "12:00pm"}, {"days": "Sat", "time": "8:30am"}, {"days": "Sun", "time": "Closed"}], "id": "4883400001", "name": "USPS COLLECTION BOX - BLUE BOX", "address": {"city": "FENWICK", "state": "MI", "street": "382 W FENWICK RD", "postcode": "48834"}}},
{"geometry": {"type": "Point", "coordinates": [-85.080944097, 43.14926415]}, "type": "Feature", "properties": {"collection_times": [{"days": "Mon-Fri", "time": "12:00pm"}, {"days": "Sat", "time": "1:00pm"}, {"days": "Sun", "time": "Closed"}], "id": "4883400002", "name": "USPS COLLECTION BOX - PO LOBBY", "address": {"city": "FENWICK", "state": "MI", "street": "382 W FENWICK RD", "postcode": "48834"}}},
{"geometry": {"type": "Point", "coordinates": [-84.739697892, 43.003278958]}, "type": "Feature", "properties": {"collection_times": [{"days": "Mon-Fri", "time": "3:10pm"}, {"days": "Sat", "time": "10:00am"}, {"days": "Sun", "time": "Closed"}], "id": "4883500002", "name": "USPS COLLECTION BOX - PO LOBBY", "address": {"city": "FOWLER", "state": "MI", "street": "135 N MAIN ST", "postcode": "48835"}}},
{"geometry": {"type": "Point", "coordinates": [-84.072367885, 42.6619291018]}, "type": "Feature", "properties": {"collection_times": [{"days": "Mon-Sat", "time": "12:00pm"}, {"days": "Sun", "time": "Closed"}], "id": "4883600005", "name": "USPS COLLECTION BOX - BLUE BOX", "address": {"city": "FOWLERVILLE", "state": "MI", "street": "131 MILL ST", "postcode": "48836"}}},
{"geometry": {"type": "Point", "coordinates": [-84.0706374306, 42.5992895119]}, "type": "Feature", "properties": {"collection_times": [{"days": "Mon-Fri", "time": "11:00am"}, {"days": "Sat", "time": "10:30am"}, {"days": "Sun", "time": "Closed"}], "id": "4883600008", "name": "USPS COLLECTION BOX - BLUE BOX", "address": {"city": "FOWLERVILLE", "state": "MI", "street": "7999 MASON RD", "postcode": "48836"}}},
{"geometry": {"type": "Point", "coordinates": [-84.1193076137, 42.664942532]}, "type": "Feature", "properties": {"collection_times": [{"days": "Mon-Sat", "time": "12:00pm"}, {"days": "Sun", "time": "Closed"}], "id": "4883600011", "name": "USPS COLLECTION BOX - BLUE BOX", "address": {"city": "FOWLERVILLE", "state": "MI", "street": "10030 W GRAND RIVER RD", "postcode": "48836"}}},
{"geometry": {"type": "Point", "coordinates": [-84.0547423914, 42.6608082388]}, "type": "Feature", "properties": {"collection_times": [{"days": "Mon-Sat", "time": "2:50pm"}, {"days": "Sun", "time": "Closed"}], "id": "4883600013", "name": "USPS COLLECTION BOX - BLUE BOX", "address": {"city": "FOWLERVILLE", "state": "MI", "street": "7030 W GRAND RIVER RD", "postcode": "48836"}}},
{"geometry": {"type": "Point", "coordinates": [-84.054742391, 42.660808239]}, "type": "Feature", "properties": {"collection_times": [{"days": "Mon-Sat", "time": "2:50pm"}, {"days": "Sun", "time": "Closed"}], "id": "4883600014", "name": "USPS COLLECTION BOX - PO LOBBY", "address": {"city": "FOWLERVILLE", "state": "MI", "street": "7030 W GRAND RIVER RD", "postcode": "48836"}}},
{"geometry": {"type": "Point", "coordinates": [-84.0766875284, 42.6615705761]}, "type": "Feature", "properties": {"collection_times": [{"days": "Mon-Sat", "time": "12:00pm"}, {"days": "Sun", "time": "Closed"}], "id": "4883600015", "name": "USPS COLLECTION BOX - BLUE BOX", "address": {"city": "FOWLERVILLE", "state": "MI", "street": "970 GEHRINGER DR", "postcode": "48836"}}},
{"geometry": {"type": "Point", "coordinates": [-84.7460786389, 42.7530785386]}, "type": "Feature", "properties": {"collection_times": [{"days": "Mon-Fri", "time": "4:45pm"}, {"days": "Sat", "time": "3:00pm"}, {"days": "Sun", "time": "Closed"}], "id": "4883700001", "name": "USPS COLLECTION BOX - BLUE BOX", "address": {"city": "GRAND LEDGE", "state": "MI", "street": "118 E JEFFERSON ST", "postcode": "48837"}}},
{"geometry": {"type": "Point", "coordinates": [-84.746078639, 42.753078539]}, "type": "Feature", "properties": {"collection_times": [{"days": "Mon-Fri", "time": "4:45pm"}, {"days": "Sat", "time": "3:00pm"}, {"days": "Sun", "time": "Closed"}], "id": "4883700021", "name": "USPS COLLECTION BOX - PO LOBBY", "address": {"city": "GRAND LEDGE", "state": "MI", "street": "118 E JEFFERSON ST", "postcode": "48837"}}},
{"geometry": {"type": "Point", "coordinates": [-84.7351659423, 42.7417519463]}, "type": "Feature", "properties": {"collection_times": [{"days": "Mon-Sat", "time": "11:30am"}, {"days": "Sun", "time": "Closed"}], "id": "4883700023", "name": "USPS COLLECTION BOX - BLUE BOX", "address": {"city": "GRAND LEDGE", "state": "MI", "street": "914 CHARLEVOIX DR", "postcode": "48837"}}},
{"geometry": {"type": "Point", "coordinates": [-84.7396385312, 42.7353274148]}, "type": "Feature", "properties": {"collection_times": [{"days": "Mon-Sat", "time": "9:00am"}, {"days": "Sun", "time": "Closed"}], "id": "4883700025", "name": "USPS COLLECTION BOX - BLUE BOX", "address": {"city": "GRAND LEDGE", "state": "MI", "street": "11615 HARTEL RD", "postcode": "48837"}}},
{"geometry": {"type": "Point", "coordinates": [-84.7471325937, 42.7524159177]}, "type": "Feature", "properties": {"collection_times": [{"days": "Mon-Fri", "time": "3:00pm"}, {"days": "Sat", "time": "12:00pm"}, {"days": "Sun", "time": "Closed"}], "id": "4883700026", "name": "USPS COLLECTION BOX - BLUE BOX", "address": {"city": "GRAND LEDGE", "state": "MI", "street": "117 E SCOTT ST", "postcode": "48837"}}},
{"geometry": {"type": "Point", "coordinates": [-84.6785205108, 42.7867806478]}, "type": "Feature", "properties": {"collection_times": [{"days": "Mon-Sat", "time": "9:15am"}, {"days": "Sun", "time": "Closed"}], "id": "4883700027", "name": "USPS COLLECTION BOX - BLUE BOX", "address": {"city": "GRAND LEDGE", "state": "MI", "street": "7800 W GRAND RIVER HWY", "postcode": "48837"}}},
{"geometry": {"type": "Point", "coordinates": [-85.2795473966, 43.1750677505]}, "type": "Feature", "properties": {"collection_times": [{"days": "Mon-Sat", "time": "11:30am"}, {"days": "Sun", "time": "Closed"}], "id": "4883800011", "name": "USPS COLLECTION BOX - BLUE BOX", "address": {"city": "GREENVILLE", "state": "MI", "street": "606 S GREENVILLE WEST DR", "postcode": "48838"}}},
{"geometry": {"type": "Point", "coordinates": [-85.266665776, 43.1755326235]}, "type": "Feature", "properties": {"collection_times": [{"days": "Mon-Sat", "time": "10:30am"}, {"days": "Sun", "time": "Closed"}], "id": "4883800015", "name": "USPS COLLECTION BOX - BLUE BOX", "address": {"city": "GREENVILLE", "state": "MI", "street": "917 W OAK ST", "postcode": "48838"}}},
{"geometry": {"type": "Point", "coordinates": [-85.2756947831, 43.1780973556]}, "type": "Feature", "properties": {"collection_times": [{"days": "Mon-Sat", "time": "9:30am"}, {"days": "Sun", "time": "Closed"}], "id": "4883800018", "name": "USPS COLLECTION BOX - BLUE BOX", "address": {"city": "GREENVILLE", "state": "MI", "street": "301 S MAPLEWOOD ST", "postcode": "48838"}}},
{"geometry": {"type": "Point", "coordinates": [-85.254400286, 43.178531804]}, "type": "Feature", "properties": {"collection_times": [{"days": "Mon-Fri", "time": "5:00pm"}, {"days": "Sat", "time": "12:00pm"}, {"days": "Sun", "time": "Closed"}], "id": "4883800025", "name": "USPS COLLECTION BOX - PO LOBBY", "address": {"city": "GREENVILLE", "state": "MI", "street": "119 W CASS ST", "postcode": "48838"}}},
{"geometry": {"type": "Point", "coordinates": [-85.253108978, 43.1772747859]}, "type": "Feature", "properties": {"collection_times": [{"days": "Mon-Sat", "time": "12:00pm"}, {"days": "Sun", "time": "Closed"}], "id": "4883800026", "name": "USPS COLLECTION BOX - BLUE BOX", "address": {"city": "GREENVILLE", "state": "MI", "street": "411 S LAFAYETTE ST", "postcode": "48838"}}},
{"geometry": {"type": "Point", "coordinates": [-85.253108978, 43.1772747859]}, "type": "Feature", "properties": {"collection_times": [{"days": "Mon-Sat", "time": "12:00pm"}, {"days": "Sun", "time": "Closed"}], "id": "4883800027", "name": "USPS COLLECTION BOX - BLUE BOX", "address": {"city": "GREENVILLE", "state": "MI", "street": "411 S LAFAYETTE ST", "postcode": "48838"}}},
{"geometry": {"type": "Point", "coordinates": [-85.2547253696, 43.1784739953]}, "type": "Feature", "properties": {"collection_times": [{"days": "Mon-Fri", "time": "5:00pm"}, {"days": "Sat", "time": "12:00pm"}, {"days": "Sun", "time": "Closed"}], "id": "4883800028", "name": "USPS COLLECTION BOX - BLUE BOX", "address": {"city": "GREENVILLE", "state": "MI", "street": "305 S FRANKLIN ST", "postcode": "48838"}}},
{"geometry": {"type": "Point", "coordinates": [-85.2547253696, 43.1784739953]}, "type": "Feature", "properties": {"collection_times": [{"days": "Mon-Fri", "time": "5:00pm"}, {"days": "Sat", "time": "12:00pm"}, {"days": "Sun", "time": "Closed"}], "id": "4883800029", "name": "USPS COLLECTION BOX - BLUE BOX", "address": {"city": "GREENVILLE", "state": "MI", "street": "305 S FRANKLIN ST", "postcode": "48838"}}},
{"geometry": {"type": "Point", "coordinates": [-84.40351852, 42.74711634]}, "type": "Feature", "properties": {"collection_times": [{"days": "Mon-Fri", "time": "4:45pm"}, {"days": "Sat", "time": "11:45am"}, {"days": "Sun", "time": "Closed"}], "id": "4884000002", "name": "USPS COLLECTION BOX - BLUE BOX", "address": {"city": "HASLETT", "state": "MI", "street": "1518 HASLETT RD", "postcode": "48840"}}},
{"geometry": {"type": "Point", "coordinates": [-84.40351852, 42.74711634]}, "type": "Feature", "properties": {"collection_times": [{"days": "Mon-Fri", "time": "4:45pm"}, {"days": "Sat", "time": "11:45am"}, {"days": "Sun", "time": "Closed"}], "id": "4884000007", "name": "USPS COLLECTION BOX - PO LOBBY", "address": {"city": "HASLETT", "state": "MI", "street": "1518 HASLETT RD", "postcode": "48840"}}},
{"geometry": {"type": "Point", "coordinates": [-84.4276089173, 42.748281795]}, "type": "Feature", "properties": {"collection_times": [{"days": "Mon-Sat", "time": "11:00am"}, {"days": "Sun", "time": "Closed"}], "id": "4884000008", "name": "USPS COLLECTION BOX - BLUE BOX", "address": {"city": "HASLETT", "state": "MI", "street": "2106 BLUE LAC DR", "postcode": "48840"}}},
{"geometry": {"type": "Point", "coordinates": [-84.3965494527, 42.7517120602]}, "type": "Feature", "properties": {"collection_times": [{"days": "Mon-Sat", "time": "11:30am"}, {"days": "Sun", "time": "Closed"}], "id": "4884000009", "name": "USPS COLLECTION BOX - BLUE BOX", "address": {"city": "HASLETT", "state": "MI", "street": "1561 HASLETT RD", "postcode": "48840"}}},
{"geometry": {"type": "Point", "coordinates": [-84.3965494527, 42.7517120602]}, "type": "Feature", "properties": {"collection_times": [{"days": "Mon-Sat", "time": "1:00pm"}, {"days": "Sun", "time": "Closed"}], "id": "4884000010", "name": "USPS COLLECTION BOX - BLUE BOX", "address": {"city": "HASLETT", "state": "MI", "street": "1671 HASLETT RD", "postcode": "48840"}}},
{"geometry": {"type": "Point", "coordinates": [-84.3635075612, 42.7444512128]}, "type": "Feature", "properties": {"collection_times": [{"days": "Mon-Sat", "time": "11:30am"}, {"days": "Sun", "time": "Closed"}], "id": "4884000011", "name": "USPS COLLECTION BOX - BLUE BOX", "address": {"city": "HASLETT", "state": "MI", "street": "1602 HASLETT RD", "postcode": "48840"}}},
{"geometry": {"type": "Point", "coordinates": [-84.3635075612, 42.7444512128]}, "type": "Feature", "properties": {"collection_times": [{"days": "Mon-Fri", "time": "1:00pm"}, {"days": "Sat", "time": "12:00pm"}, {"days": "Sun", "time": "Closed"}], "id": "4884000012", "name": "USPS COLLECTION BOX - BLUE BOX", "address": {"city": "HASLETT", "state": "MI", "street": "1640 HASLETT RD", "postcode": "48840"}}},
{"geometry": {"type": "Point", "coordinates": [-84.3965494527, 42.7517120602]}, "type": "Feature", "properties": {"collection_times": [{"days": "Mon-Sat", "time": "11:00am"}, {"days": "Sun", "time": "Closed"}], "id": "4884000013", "name": "USPS COLLECTION BOX - BLUE BOX", "address": {"city": "HASLETT", "state": "MI", "street": "5911 BOIS ILE DR", "postcode": "48840"}}},
{"geometry": {"type": "Point", "coordinates": [-84.195615031, 43.086141546]}, "type": "Feature", "properties": {"collection_times": [{"days": "Mon-Fri", "time": "11:45am"}, {"days": "Sat", "time": "10:00am"}, {"days": "Sun", "time": "Closed"}], "id": "4884100001", "name": "USPS COLLECTION BOX - BLUE BOX", "address": {"city": "HENDERSON", "state": "MI", "street": "121 W MAIN", "postcode": "48841"}}},
{"geometry": {"type": "Point", "coordinates": [-84.195615031, 43.086141546]}, "type": "Feature", "properties": {"collection_times": [{"days": "Mon-Fri", "time": "11:45am"}, {"days": "Sat", "time": "10:00am"}, {"days": "Sun", "time": "Closed"}], "id": "4884100002", "name": "USPS COLLECTION BOX - PO LOBBY", "address": {"city": "HENDERSON", "state": "MI", "street": "121 W MAIN", "postcode": "48841"}}},
{"geometry": {"type": "Point", "coordinates": [-84.5142011075, 42.6393995313]}, "type": "Feature", "properties": {"collection_times": [{"days": "Mon-Sat", "time": "9:00am"}, {"days": "Sun", "time": "Closed"}], "id": "4884200006", "name": "USPS COLLECTION BOX - BLUE BOX", "address": {"city": "HOLT", "state": "MI", "street": "1974 CEDAR ST", "postcode": "48842"}}},
{"geometry": {"type": "Point", "coordinates": [-84.5283986916, 42.6508895997]}, "type": "Feature", "properties": {"collection_times": [{"days": "Mon-Sat", "time": "11:45am"}, {"days": "Sun", "time": "Closed"}], "id": "4884200007", "name": "USPS COLLECTION BOX - BLUE BOX", "address": {"city": "HOLT", "state": "MI", "street": "2380 CEDAR ST", "postcode": "48842"}}},
{"geometry": {"type": "Point", "coordinates": [-84.5065860243, 42.6402110006]}, "type": "Feature", "properties": {"collection_times": [{"days": "Mon-Sat", "time": "10:00am"}, {"days": "Sun", "time": "Closed"}], "id": "4884200010", "name": "USPS COLLECTION BOX - BLUE BOX", "address": {"city": "HOLT", "state": "MI", "street": "4075 HOLT RD", "postcode": "48842"}}},
{"geometry": {"type": "Point", "coordinates": [-84.532228392, 42.6542929268]}, "type": "Feature", "properties": {"collection_times": [{"days": "Mon-Sat", "time": "11:45am"}, {"days": "Sun", "time": "Closed"}], "id": "4884200014", "name": "USPS COLLECTION BOX - BLUE BOX", "address": {"city": "HOLT", "state": "MI", "street": "2495 CEDAR ST", "postcode": "48842"}}},
{"geometry": {"type": "Point", "coordinates": [-84.523443403, 42.64567982]}, "type": "Feature", "properties": {"collection_times": [{"days": "Mon-Fri", "time": "4:30pm"}, {"days": "Sat", "time": "3:15pm"}, {"days": "Sun", "time": "Closed"}], "id": "4884200016", "name": "USPS COLLECTION BOX - BLUE BOX", "address": {"city": "HOLT", "state": "MI", "street": "2190 AURELIUS RD", "postcode": "48842"}}},
{"geometry": {"type": "Point", "coordinates": [-84.523443403, 42.64567982]}, "type": "Feature", "properties": {"collection_times": [{"days": "Mon-Fri", "time": "4:30pm"}, {"days": "Sat", "time": "3:15pm"}, {"days": "Sun", "time": "Closed"}], "id": "4884200018", "name": "USPS COLLECTION BOX - EXPRESS", "address": {"city": "HOLT", "state": "MI", "street": "2190 AURELIUS RD", "postcode": "48842"}}},
{"geometry": {"type": "Point", "coordinates": [-84.523443403, 42.64567982]}, "type": "Feature", "properties": {"collection_times": [{"days": "Mon-Fri", "time": "4:30pm"}, {"days": "Sat", "time": "3:15pm"}, {"days": "Sun", "time": "Closed"}], "id": "4884200019", "name": "USPS COLLECTION BOX - PO LOBBY", "address": {"city": "HOLT", "state": "MI", "street": "2190 AURELIUS RD", "postcode": "48842"}}},
{"geometry": {"type": "Point", "coordinates": [-83.930972358, 42.604970856]}, "type": "Feature", "properties": {"collection_times": [{"days": "Mon-Sat", "time": "2:15pm"}, {"days": "Sun", "time": "Closed"}], "id": "4884300003", "name": "USPS COLLECTION BOX - BLUE BOX", "address": {"city": "HOWELL", "state": "MI", "street": "325 S MICHIGAN AVE", "postcode": "48843"}}},
{"geometry": {"type": "Point", "coordinates": [-83.9288777212, 42.606962225]}, "type": "Feature", "properties": {"collection_times": [{"days": "Mon-Sat", "time": "1:15pm"}, {"days": "Sun", "time": "Closed"}], "id": "4884300005", "name": "USPS COLLECTION BOX - BLUE BOX", "address": {"city": "HOWELL", "state": "MI", "street": "200 E GRAND RIVER AVE", "postcode": "48843"}}},
{"geometry": {"type": "Point", "coordinates": [-83.9626125267, 42.6155904643]}, "type": "Feature", "properties": {"collection_times": [{"days": "Mon-Sat", "time": "1:00pm"}, {"days": "Sun", "time": "Closed"}], "id": "4884300010", "name": "USPS COLLECTION BOX - BLUE BOX", "address": {"city": "HOWELL", "state": "MI", "street": "2400 W GRAND RIVER AVE", "postcode": "48843"}}},
{"geometry": {"type": "Point", "coordinates": [-83.9235589107, 42.6049748005]}, "type": "Feature", "properties": {"collection_times": [{"days": "Mon-Sat", "time": "1:20pm"}, {"days": "Sun", "time": "Closed"}], "id": "4884300013", "name": "USPS COLLECTION BOX - BLUE BOX", "address": {"city": "HOWELL", "state": "MI", "street": "611 E GRAND RIVER AVE", "postcode": "48843"}}},
{"geometry": {"type": "Point", "coordinates": [-83.9394377689, 42.6155918573]}, "type": "Feature", "properties": {"collection_times": [{"days": "Mon-Sat", "time": "9:30am"}, {"days": "Sun", "time": "Closed"}], "id": "4884300017", "name": "USPS COLLECTION BOX - BLUE BOX", "address": {"city": "HOWELL", "state": "MI", "street": "620 BYRON RD", "postcode": "48843"}}},
{"geometry": {"type": "Point", "coordinates": [-83.9353082689, 42.6217990135]}, "type": "Feature", "properties": {"collection_times": [{"days": "Mon-Sat", "time": "11:30am"}, {"days": "Sun", "time": "Closed"}], "id": "4884300018", "name": "USPS COLLECTION BOX - BLUE BOX", "address": {"city": "HOWELL", "state": "MI", "street": "408 CURZON ST", "postcode": "48843"}}},
{"geometry": {"type": "Point", "coordinates": [-83.9079704493, 42.5992394828]}, "type": "Feature", "properties": {"collection_times": [{"days": "Mon-Sat", "time": "1:25pm"}, {"days": "Sun", "time": "Closed"}], "id": "4884300019", "name": "USPS COLLECTION BOX - BLUE BOX", "address": {"city": "HOWELL", "state": "MI", "street": "2300 E GRAND RIVER AVE", "postcode": "48843"}}},
{"geometry": {"type": "Point", "coordinates": [-83.9065491437, 42.598648336]}, "type": "Feature", "properties": {"collection_times": [{"days": "Mon-Sat", "time": "1:25pm"}, {"days": "Sun", "time": "Closed"}], "id": "4884300024", "name": "USPS COLLECTION BOX - BLUE BOX", "address": {"city": "HOWELL", "state": "MI", "street": "2350 E GRAND RIVER AVE", "postcode": "48843"}}},
{"geometry": {"type": "Point", "coordinates": [-83.930972358, 42.604970856]}, "type": "Feature", "properties": {"collection_times": [{"days": "Mon-Sat", "time": "2:15pm"}, {"days": "Sun", "time": "Closed"}], "id": "4884300025", "name": "USPS COLLECTION BOX - PO LOBBY", "address": {"city": "HOWELL", "state": "MI", "street": "325 S MICHIGAN AVE", "postcode": "48843"}}},
{"geometry": {"type": "Point", "coordinates": [-83.8814746059, 42.5895058617]}, "type": "Feature", "properties": {"collection_times": [{"days": "Mon-Sat", "time": "1:35pm"}, {"days": "Sun", "time": "Closed"}], "id": "4884300031", "name": "USPS COLLECTION BOX - BLUE BOX", "address": {"city": "HOWELL", "state": "MI", "street": "3659 E GRAND RIVER AVE", "postcode": "48843"}}},
{"geometry": {"type": "Point", "coordinates": [-83.8622042956, 42.5273012054]}, "type": "Feature", "properties": {"collection_times": [{"days": "Mon-Sat", "time": "9:30am"}, {"days": "Sun", "time": "Closed"}], "id": "4884300032", "name": "USPS COLLECTION BOX - BLUE BOX", "address": {"city": "HOWELL", "state": "MI", "street": "4986 CHILSON RD", "postcode": "48843"}}},
{"geometry": {"type": "Point", "coordinates": [-83.876069023, 42.5874871182]}, "type": "Feature", "properties": {"collection_times": [{"days": "Mon-Sat", "time": "1:40pm"}, {"days": "Sun", "time": "Closed"}], "id": "4884300033", "name": "USPS COLLECTION BOX - BLUE BOX", "address": {"city": "HOWELL", "state": "MI", "street": "3850 E GRAND RIVER AVE", "postcode": "48843"}}},
{"geometry": {"type": "Point", "coordinates": [-83.9079704493, 42.5992394828]}, "type": "Feature", "properties": {"collection_times": [{"days": "Mon-Sat", "time": "1:25pm"}, {"days": "Sun", "time": "Closed"}], "id": "4884300035", "name": "USPS COLLECTION BOX - BLUE BOX", "address": {"city": "HOWELL", "state": "MI", "street": "2300 E GRAND RIVER AVE", "postcode": "48843"}}},
{"geometry": {"type": "Point", "coordinates": [-83.8779593915, 42.5881661366]}, "type": "Feature", "properties": {"collection_times": [{"days": "Mon-Sat", "time": "1:55pm"}, {"days": "Sun", "time": "Closed"}], "id": "4884300037", "name": "USPS COLLECTION BOX - BLUE BOX", "address": {"city": "HOWELL", "state": "MI", "street": "3883 E GRAND RIVER AVE", "postcode": "48843"}}},
{"geometry": {"type": "Point", "coordinates": [-83.930972358, 42.604970856]}, "type": "Feature", "properties": {"collection_times": [{"days": "Mon-Sat", "time": "2:15pm"}, {"days": "Sun", "time": "Closed"}], "id": "4884300039", "name": "USPS COLLECTION BOX - APC", "address": {"city": "HOWELL", "state": "MI", "street": "325 S MICHIGAN AVE", "postcode": "48843"}}},
{"geometry": {"type": "Point", "coordinates": [-83.9270657978, 42.6226491026]}, "type": "Feature", "properties": {"collection_times": [{"days": "Mon-Sat", "time": "1:10pm"}, {"days": "Sun", "time": "Closed"}], "id": "4884300040", "name": "USPS COLLECTION BOX - BLUE BOX", "address": {"city": "HOWELL", "state": "MI", "street": "108 W HIGHLAND RD", "postcode": "48843"}}},
{"geometry": {"type": "Point", "coordinates": [-84.84200669, 43.092015029]}, "type": "Feature", "properties": {"collection_times": [{"days": "Mon-Fri", "time": "3:45pm"}, {"days": "Sat", "time": "9:00am"}, {"days": "Sun", "time": "Closed"}], "id": "4884500001", "name": "USPS COLLECTION BOX - BLUE BOX", "address": {"city": "HUBBARDSTON", "state": "MI", "street": "101 E MAIN ST", "postcode": "48845"}}},
{"geometry": {"type": "Point", "coordinates": [-84.84200669, 43.092015029]}, "type": "Feature", "properties": {"collection_times": [{"days": "Mon-Fri", "time": "3:45pm"}, {"days": "Sat", "time": "9:00am"}, {"days": "Sun", "time": "Closed"}], "id": "4884500002", "name": "USPS COLLECTION BOX - PO LOBBY", "address": {"city": "HUBBARDSTON", "state": "MI", "street": "101 E MAIN ST", "postcode": "48845"}}},
{"geometry": {"type": "Point", "coordinates": [-85.0748126726, 42.9470230882]}, "type": "Feature", "properties": {"collection_times": [{"days": "Mon-Sat", "time": "12:00pm"}, {"days": "Sun", "time": "Closed"}], "id": "4884600001", "name": "USPS COLLECTION BOX - BLUE BOX", "address": {"city": "IONIA", "state": "MI", "street": "2770 S STATE RD", "postcode": "48846"}}},
{"geometry": {"type": "Point", "coordinates": [-85.0675493892, 42.9823295279]}, "type": "Feature", "properties": {"collection_times": [{"days": "Mon-Sat", "time": "12:00pm"}, {"days": "Sun", "time": "Closed"}], "id": "4884600011", "name": "USPS COLLECTION BOX - BLUE BOX", "address": {"city": "IONIA", "state": "MI", "street": "351 W MAIN ST", "postcode": "48846"}}},
{"geometry": {"type": "Point", "coordinates": [-85.0474201347, 42.9898559787]}, "type": "Feature", "properties": {"collection_times": [{"days": "Mon-Sat", "time": "10:30am"}, {"days": "Sun", "time": "Closed"}], "id": "4884600017", "name": "USPS COLLECTION BOX - BLUE BOX", "address": {"city": "IONIA", "state": "MI", "street": "630 JOHNSON ST", "postcode": "48846"}}},
{"geometry": {"type": "Point", "coordinates": [-85.064266873, 42.983283412]}, "type": "Feature", "properties": {"collection_times": [{"days": "Mon-Sat", "time": "2:55pm"}, {"days": "Sun", "time": "Closed"}], "id": "4884600018", "name": "USPS COLLECTION BOX - BLUE BOX", "address": {"city": "IONIA", "state": "MI", "street": "117 N KIDD ST", "postcode": "48846"}}},
{"geometry": {"type": "Point", "coordinates": [-85.064266873, 42.983283412]}, "type": "Feature", "properties": {"collection_times": [{"days": "Mon-Sat", "time": "2:55pm"}, {"days": "Sun", "time": "Closed"}], "id": "4884600019", "name": "USPS COLLECTION BOX - BLUE BOX", "address": {"city": "IONIA", "state": "MI", "street": "117 N KIDD ST", "postcode": "48846"}}},
{"geometry": {"type": "Point", "coordinates": [-85.0654102338, 42.9826142237]}, "type": "Feature", "properties": {"collection_times": [{"days": "Mon-Sat", "time": "12:00pm"}, {"days": "Sun", "time": "Closed"}], "id": "4884600022", "name": "USPS COLLECTION BOX - BLUE BOX", "address": {"city": "IONIA", "state": "MI", "street": "230 W MAIN ST", "postcode": "48846"}}},
{"geometry": {"type": "Point", "coordinates": [-85.0704879862, 42.983109748]}, "type": "Feature", "properties": {"collection_times": [{"days": "Mon-Sat", "time": "12:00pm"}, {"days": "Sun", "time": "Closed"}], "id": "4884600023", "name": "USPS COLLECTION BOX - BLUE BOX", "address": {"city": "IONIA", "state": "MI", "street": "202 N DEXTER ST", "postcode": "48846"}}},
{"geometry": {"type": "Point", "coordinates": [-85.0748174551, 42.9477858945]}, "type": "Feature", "properties": {"collection_times": [{"days": "Mon-Sat", "time": "10:30am"}, {"days": "Sun", "time": "Closed"}], "id": "4884600024", "name": "USPS COLLECTION BOX - BLUE BOX", "address": {"city": "IONIA", "state": "MI", "street": "2600 S STATE RD", "postcode": "48846"}}},
{"geometry": {"type": "Point", "coordinates": [-85.0750807582, 42.8853605948]}, "type": "Feature", "properties": {"collection_times": [{"days": "Mon-Sat", "time": "11:00am"}, {"days": "Sun", "time": "Closed"}], "id": "4884600025", "name": "USPS COLLECTION BOX - BLUE BOX", "address": {"city": "IONIA", "state": "MI", "street": "7258 S STATE RD", "postcode": "48846"}}},
{"geometry": {"type": "Point", "coordinates": [-85.0675766894, 42.9510869023]}, "type": "Feature", "properties": {"collection_times": [{"days": "Mon-Sat", "time": "10:00am"}, {"days": "Sun", "time": "Closed"}], "id": "4884600026", "name": "USPS COLLECTION BOX - BLUE BOX", "address": {"city": "IONIA", "state": "MI", "street": "360 E TUTTLE RD", "postcode": "48846"}}},
{"geometry": {"type": "Point", "coordinates": [-85.064266873, 42.983283412]}, "type": "Feature", "properties": {"collection_times": [{"days": "Mon-Sat", "time": "2:55pm"}, {"days": "Sun", "time": "Closed"}], "id": "4884600027", "name": "USPS COLLECTION BOX - PO LOBBY", "address": {"city": "IONIA", "state": "MI", "street": "117 N KIDD ST", "postcode": "48846"}}},
{"geometry": {"type": "Point", "coordinates": [-85.0698405122, 42.9873310315]}, "type": "Feature", "properties": {"collection_times": [{"days": "Mon-Sat", "time": "12:00pm"}, {"days": "Sun", "time": "Closed"}], "id": "4884600028", "name": "USPS COLLECTION BOX - BLUE BOX", "address": {"city": "IONIA", "state": "MI", "street": "431 W LINCOLN AVE", "postcode": "48846"}}},
{"geometry": {"type": "Point", "coordinates": [-84.60755163, 43.291971767]}, "type": "Feature", "properties": {"collection_times": [{"days": "Mon-Fri", "time": "2:50pm"}, {"days": "Sat", "time": "10:00am"}, {"days": "Sun", "time": "Closed"}], "id": "4884700001", "name": "USPS COLLECTION BOX - BLUE BOX", "address": {"city": "ITHACA", "state": "MI", "street": "120 N PINE RIVER ST", "postcode": "48847"}}},
{"geometry": {"type": "Point", "coordinates": [-84.60755163, 43.291971767]}, "type": "Feature", "properties": {"collection_times": [{"days": "Mon-Fri", "time": "2:50pm"}, {"days": "Sat", "time": "10:00am"}, {"days": "Sun", "time": "Closed"}], "id": "4884700012", "name": "USPS COLLECTION BOX - PO LOBBY", "address": {"city": "ITHACA", "state": "MI", "street": "120 N PINE RIVER ST", "postcode": "48847"}}},
{"geometry": {"type": "Point", "coordinates": [-84.60755163, 43.291971767]}, "type": "Feature", "properties": {"collection_times": [{"days": "Mon-Fri", "time": "2:50pm"}, {"days": "Sat", "time": "10:00am"}, {"days": "Sun", "time": "Closed"}], "id": "4884700013", "name": "USPS COLLECTION BOX - BLUE BOX", "address": {"city": "ITHACA", "state": "MI", "street": "120 N PINE RIVER ST", "postcode": "48847"}}},
{"geometry": {"type": "Point", "coordinates": [-84.350970071, 42.890371299]}, "type": "Feature", "properties": {"collection_times": [{"days": "Mon-Fri", "time": "3:10pm"}, {"days": "Sat", "time": "11:00am"}, {"days": "Sun", "time": "Closed"}], "id": "4884800002", "name": "USPS COLLECTION BOX - BLUE BOX", "address": {"city": "LAINGSBURG", "state": "MI", "street": "221 E GRAND RIVER RD", "postcode": "48848"}}},
{"geometry": {"type": "Point", "coordinates": [-84.350970071, 42.890371299]}, "type": "Feature", "properties": {"collection_times": [{"days": "Mon-Fri", "time": "3:10pm"}, {"days": "Sat", "time": "11:00am"}, {"days": "Sun", "time": "Closed"}], "id": "4884800003", "name": "USPS COLLECTION BOX - PO LOBBY", "address": {"city": "LAINGSBURG", "state": "MI", "street": "221 E GRAND RIVER RD", "postcode": "48848"}}},
{"geometry": {"type": "Point", "coordinates": [-84.3403509579, 42.8838505691]}, "type": "Feature", "properties": {"collection_times": [{"days": "Mon-Sat", "time": "10:00am"}, {"days": "Sun", "time": "Closed"}], "id": "4884800004", "name": "USPS COLLECTION BOX - BLUE BOX", "address": {"city": "LAINGSBURG", "state": "MI", "street": "7400 WOODBURY RD", "postcode": "48848"}}},
{"geometry": {"type": "Point", "coordinates": [-85.138188056, 42.781289563]}, "type": "Feature", "properties": {"collection_times": [{"days": "Mon-Fri", "time": "3:40pm"}, {"days": "Sat", "time": "10:00am"}, {"days": "Sun", "time": "Closed"}], "id": "4884900002", "name": "USPS COLLECTION BOX - BLUE BOX", "address": {"city": "LAKE ODESSA", "state": "MI", "street": "907 4TH AVE", "postcode": "48849"}}},
{"geometry": {"type": "Point", "coordinates": [-85.138188056, 42.781289563]}, "type": "Feature", "properties": {"collection_times": [{"days": "Mon-Fri", "time": "3:40pm"}, {"days": "Sat", "time": "10:00am"}, {"days": "Sun", "time": "Closed"}], "id": "4884900004", "name": "USPS COLLECTION BOX - PO LOBBY", "address": {"city": "LAKE ODESSA", "state": "MI", "street": "907 4TH AVE", "postcode": "48849"}}},
{"geometry": {"type": "Point", "coordinates": [-85.2631830109, 43.4281845001]}, "type": "Feature", "properties": {"collection_times": [{"days": "Mon-Fri", "time": "11:00am"}, {"days": "Sat", "time": "10:00am"}, {"days": "Sun", "time": "Closed"}], "id": "4885000004", "name": "USPS COLLECTION BOX - BLUE BOX", "address": {"city": "LAKEVIEW", "state": "MI", "street": "9700 N GREENVILLE RD", "postcode": "48850"}}},
{"geometry": {"type": "Point", "coordinates": [-85.27963641, 43.441754453]}, "type": "Feature", "properties": {"collection_times": [{"days": "Mon-Fri", "time": "1:40pm"}, {"days": "Sat", "time": "10:00am"}, {"days": "Sun", "time": "Closed"}], "id": "4885000005", "name": "USPS COLLECTION BOX - BLUE BOX", "address": {"city": "LAKEVIEW", "state": "MI", "street": "319 WASHINGTON ST", "postcode": "48850"}}},
{"geometry": {"type": "Point", "coordinates": [-85.27963641, 43.441754453]}, "type": "Feature", "properties": {"collection_times": [{"days": "Mon-Fri", "time": "1:40pm"}, {"days": "Sat", "time": "10:00am"}, {"days": "Sun", "time": "Closed"}], "id": "4885000007", "name": "USPS COLLECTION BOX - PO LOBBY", "address": {"city": "LAKEVIEW", "state": "MI", "street": "319 WASHINGTON ST", "postcode": "48850"}}},
{"geometry": {"type": "Point", "coordinates": [-84.953140815, 42.981996313]}, "type": "Feature", "properties": {"collection_times": [{"days": "Mon-Fri", "time": "1:00pm"}, {"days": "Sat", "time": "9:45am"}, {"days": "Sun", "time": "Closed"}], "id": "4885100001", "name": "USPS COLLECTION BOX - BLUE BOX", "address": {"city": "LYONS", "state": "MI", "street": "308 E BRIDGE ST", "postcode": "48851"}}},
{"geometry": {"type": "Point", "coordinates": [-84.953140815, 42.981996313]}, "type": "Feature", "properties": {"collection_times": [{"days": "Mon-Fri", "time": "1:00pm"}, {"days": "Sat", "time": "9:30am"}, {"days": "Sun", "time": "Closed"}], "id": "4885100002", "name": "USPS COLLECTION BOX - PO LOBBY", "address": {"city": "LYONS", "state": "MI", "street": "308 E BRIDGE ST", "postcode": "48851"}}},
{"geometry": {"type": "Point", "coordinates": [-85.044095145, 43.354159297]}, "type": "Feature", "properties": {"collection_times": [{"days": "Mon-Fri", "time": "12:55pm"}, {"days": "Sat", "time": "9:00am"}, {"days": "Sun", "time": "Closed"}], "id": "4885200001", "name": "USPS COLLECTION BOX - BLUE BOX", "address": {"city": "MC BRIDES", "state": "MI", "street": "4321 DIVISION ST", "postcode": "48852"}}},
{"geometry": {"type": "Point", "coordinates": [-85.044095145, 43.354159297]}, "type": "Feature", "properties": {"collection_times": [{"days": "Mon-Fri", "time": "12:55pm"}, {"days": "Sat", "time": "9:00am"}, {"days": "Sun", "time": "Closed"}], "id": "4885200002", "name": "USPS COLLECTION BOX - PO LOBBY", "address": {"city": "MC BRIDES", "state": "MI", "street": "4321 DIVISION ST", "postcode": "48852"}}},
{"geometry": {"type": "Point", "coordinates": [-84.692491049, 43.104740794]}, "type": "Feature", "properties": {"collection_times": [{"days": "Mon-Fri", "time": "1:20pm"}, {"days": "Sat", "time": "9:00am"}, {"days": "Sun", "time": "Closed"}], "id": "4885300001", "name": "USPS COLLECTION BOX - BLUE BOX", "address": {"city": "MAPLE RAPIDS", "state": "MI", "street": "106 W MAIN ST", "postcode": "48853"}}},
{"geometry": {"type": "Point", "coordinates": [-84.692491049, 43.104740794]}, "type": "Feature", "properties": {"collection_times": [{"days": "Mon-Fri", "time": "1:20pm"}, {"days": "Sat", "time": "9:00am"}, {"days": "Sun", "time": "Closed"}], "id": "4885300002", "name": "USPS COLLECTION BOX - PO LOBBY", "address": {"city": "MAPLE RAPIDS", "state": "MI", "street": "106 W MAIN ST", "postcode": "48853"}}},
{"geometry": {"type": "Point", "coordinates": [-84.444400327, 42.579236946]}, "type": "Feature", "properties": {"collection_times": [{"days": "Mon-Fri", "time": "4:05pm"}, {"days": "Sat", "time": "3:00pm"}, {"days": "Sun", "time": "Closed"}], "id": "4885400004", "name": "USPS COLLECTION BOX - BLUE BOX", "address": {"city": "MASON", "state": "MI", "street": "144 W ASH ST", "postcode": "48854"}}},
{"geometry": {"type": "Point", "coordinates": [-84.444400327, 42.579236946]}, "type": "Feature", "properties": {"collection_times": [{"days": "Mon-Fri", "time": "4:05pm"}, {"days": "Sat", "time": "3:00pm"}, {"days": "Sun", "time": "Closed"}], "id": "4885400006", "name": "USPS COLLECTION BOX - BLUE BOX", "address": {"city": "MASON", "state": "MI", "street": "144 W ASH ST", "postcode": "48854"}}},
{"geometry": {"type": "Point", "coordinates": [-84.4815335651, 42.6053258467]}, "type": "Feature", "properties": {"collection_times": [{"days": "Mon-Sat", "time": "9:00am"}, {"days": "Sun", "time": "Closed"}], "id": "4885400009", "name": "USPS COLLECTION BOX - BLUE BOX", "address": {"city": "MASON", "state": "MI", "street": "806 HOGSBACK RD", "postcode": "48854"}}},
{"geometry": {"type": "Point", "coordinates": [-84.4632678999, 42.5866506905]}, "type": "Feature", "properties": {"collection_times": [{"days": "Mon-Sat", "time": "11:30am"}, {"days": "Sun", "time": "Closed"}], "id": "4885400019", "name": "USPS COLLECTION BOX - BLUE BOX", "address": {"city": "MASON", "state": "MI", "street": "151 LOCUST LN", "postcode": "48854"}}},
{"geometry": {"type": "Point", "coordinates": [-84.444400327, 42.579236946]}, "type": "Feature", "properties": {"collection_times": [{"days": "Mon-Fri", "time": "4:05pm"}, {"days": "Sat", "time": "3:00pm"}, {"days": "Sun", "time": "Closed"}], "id": "4885400020", "name": "USPS COLLECTION BOX - PO LOBBY", "address": {"city": "MASON", "state": "MI", "street": "144 W ASH ST", "postcode": "48854"}}},
{"geometry": {"type": "Point", "coordinates": [-84.4529283135, 42.5818666677]}, "type": "Feature", "properties": {"collection_times": [{"days": "Mon-Sat", "time": "11:00am"}, {"days": "Sun", "time": "Closed"}], "id": "4885400022", "name": "USPS COLLECTION BOX - BLUE BOX", "address": {"city": "MASON", "state": "MI", "street": "132 S CEDAR ST", "postcode": "48854"}}},
{"geometry": {"type": "Point", "coordinates": [-84.442460404, 42.579191777]}, "type": "Feature", "properties": {"collection_times": [{"days": "Mon-Sat", "time": "8:30am"}, {"days": "Sun", "time": "Closed"}], "id": "4885400028", "name": "USPS COLLECTION BOX - BLUE BOX", "address": {"city": "MASON", "state": "MI", "street": "140 E ASH ST", "postcode": "48854"}}},
{"geometry": {"type": "Point", "coordinates": [-84.4430670946, 42.5676366752]}, "type": "Feature", "properties": {"collection_times": [{"days": "Mon-Sat", "time": "11:00am"}, {"days": "Sun", "time": "Closed"}], "id": "4885400029", "name": "USPS COLLECTION BOX - BLUE BOX", "address": {"city": "MASON", "state": "MI", "street": "500 HULL RD", "postcode": "48854"}}},
{"geometry": {"type": "Point", "coordinates": [-84.444400327, 42.579236946]}, "type": "Feature", "properties": {"collection_times": [{"days": "Mon-Fri", "time": "4:05pm"}, {"days": "Sat", "time": "3:00pm"}, {"days": "Sun", "time": "Closed"}], "id": "4885400032", "name": "USPS COLLECTION BOX - BLUE BOX", "address": {"city": "MASON", "state": "MI", "street": "144 W ASH ST", "postcode": "48854"}}},
{"geometry": {"type": "Point", "coordinates": [-84.4553484482, 42.5877965612]}, "type": "Feature", "properties": {"collection_times": [{"days": "Mon-Sat", "time": "10:00am"}, {"days": "Sun", "time": "Closed"}], "id": "4885400033", "name": "USPS COLLECTION BOX - BLUE BOX", "address": {"city": "MASON", "state": "MI", "street": "558 N CEDAR ST", "postcode": "48854"}}},
{"geometry": {"type": "Point", "coordinates": [-84.708852714, 43.182372809]}, "type": "Feature", "properties": {"collection_times": [{"days": "Mon-Fri", "time": "1:35pm"}, {"days": "Sat", "time": "10:30am"}, {"days": "Sun", "time": "Closed"}], "id": "4885600001", "name": "USPS COLLECTION BOX - BLUE BOX", "address": {"city": "MIDDLETON", "state": "MI", "street": "116 S NEWTON ST", "postcode": "48856"}}},
{"geometry": {"type": "Point", "coordinates": [-84.708852714, 43.182372809]}, "type": "Feature", "properties": {"collection_times": [{"days": "Mon-Fri", "time": "1:35pm"}, {"days": "Sat", "time": "10:30am"}, {"days": "Sun", "time": "Closed"}], "id": "4885600002", "name": "USPS COLLECTION BOX - PO LOBBY", "address": {"city": "MIDDLETON", "state": "MI", "street": "116 S NEWTON ST", "postcode": "48856"}}},
{"geometry": {"type": "Point", "coordinates": [-84.17780872, 42.837837739]}, "type": "Feature", "properties": {"collection_times": [{"days": "Mon-Fri", "time": "2:05pm"}, {"days": "Sat", "time": "10:00am"}, {"days": "Sun", "time": "Closed"}], "id": "4885700000", "name": "USPS COLLECTION BOX - BLUE BOX", "address": {"city": "MORRICE", "state": "MI", "street": "316 MAIN ST", "postcode": "48857"}}},
{"geometry": {"type": "Point", "coordinates": [-84.17780872, 42.837837739]}, "type": "Feature", "properties": {"collection_times": [{"days": "Mon-Fri", "time": "2:05pm"}, {"days": "Sat", "time": "10:00am"}, {"days": "Sun", "time": "Closed"}], "id": "4885700002", "name": "USPS COLLECTION BOX - PO LOBBY", "address": {"city": "MORRICE", "state": "MI", "street": "316 MAIN ST", "postcode": "48857"}}},
{"geometry": {"type": "Point", "coordinates": [-84.776780976, 43.611059885]}, "type": "Feature", "properties": {"collection_times": [{"days": "Mon-Sat", "time": "2:50pm"}, {"days": "Sun", "time": "Closed"}], "id": "4885800002", "name": "USPS COLLECTION BOX - BLUE BOX", "address": {"city": "MOUNT PLEASANT", "state": "MI", "street": "813 N MAIN ST", "postcode": "48858"}}},
{"geometry": {"type": "Point", "coordinates": [-84.776780976, 43.611059885]}, "type": "Feature", "properties": {"collection_times": [{"days": "Mon-Sat", "time": "2:50pm"}, {"days": "Sun", "time": "Closed"}], "id": "4885800004", "name": "USPS COLLECTION BOX - BLUE BOX", "address": {"city": "MOUNT PLEASANT", "state": "MI", "street": "813 N MAIN ST", "postcode": "48858"}}},
{"geometry": {"type": "Point", "coordinates": [-84.7765211564, 43.6043893]}, "type": "Feature", "properties": {"collection_times": [{"days": "Mon-Fri", "time": "2:50pm"}, {"days": "Sat", "time": "2:00pm"}, {"days": "Sun", "time": "Closed"}], "id": "4885800008", "name": "USPS COLLECTION BOX - BLUE BOX", "address": {"city": "MOUNT PLEASANT", "state": "MI", "street": "102 S MAIN ST", "postcode": "48858"}}},
{"geometry": {"type": "Point", "coordinates": [-84.7742047732, 43.614272502]}, "type": "Feature", "properties": {"collection_times": [{"days": "Mon-Sat", "time": "11:30am"}, {"days": "Sun", "time": "Closed"}], "id": "4885800009", "name": "USPS COLLECTION BOX - BLUE BOX", "address": {"city": "MOUNT PLEASANT", "state": "MI", "street": "1220 S FRANKLIN ST", "postcode": "48858"}}},
{"geometry": {"type": "Point", "coordinates": [-84.7766912894, 43.6052985092]}, "type": "Feature", "properties": {"collection_times": [{"days": "Mon-Sat", "time": "10:00am"}, {"days": "Sun", "time": "Closed"}], "id": "4885800010", "name": "USPS COLLECTION BOX - BLUE BOX", "address": {"city": "MOUNT PLEASANT", "state": "MI", "street": "1 W MOSHER ST", "postcode": "48858"}}},
{"geometry": {"type": "Point", "coordinates": [-84.7881317931, 43.5969913843]}, "type": "Feature", "properties": {"collection_times": [{"days": "Mon-Sat", "time": "10:00am"}, {"days": "Sun", "time": "Closed"}], "id": "4885800011", "name": "USPS COLLECTION BOX - BLUE BOX", "address": {"city": "MOUNT PLEASANT", "state": "MI", "street": "1106 W HIGH ST", "postcode": "48858"}}},
{"geometry": {"type": "Point", "coordinates": [-84.7765413047, 43.6052893337]}, "type": "Feature", "properties": {"collection_times": [{"days": "Mon-Fri", "time": "12:00pm"}, {"days": "Sat", "time": "11:30am"}, {"days": "Sun", "time": "Closed"}], "id": "4885800015", "name": "USPS COLLECTION BOX - BLUE BOX", "address": {"city": "MOUNT PLEASANT", "state": "MI", "street": "200 N MAIN ST", "postcode": "48858"}}},
{"geometry": {"type": "Point", "coordinates": [-84.7675413418, 43.5980421033]}, "type": "Feature", "properties": {"collection_times": [{"days": "Mon-Sat", "time": "11:00am"}, {"days": "Sun", "time": "Closed"}], "id": "4885800022", "name": "USPS COLLECTION BOX - BLUE BOX", "address": {"city": "MOUNT PLEASANT", "state": "MI", "street": "705 S MISSION ST", "postcode": "48858"}}},
{"geometry": {"type": "Point", "coordinates": [-84.7775884625, 43.5916757684]}, "type": "Feature", "properties": {"collection_times": [{"days": "Mon-Sat", "time": "11:00am"}, {"days": "Sun", "time": "Closed"}], "id": "4885800023", "name": "USPS COLLECTION BOX - BLUE BOX", "address": {"city": "MOUNT PLEASANT", "state": "MI", "street": "1201 S WASHINGTON ST", "postcode": "48858"}}},
{"geometry": {"type": "Point", "coordinates": [-84.7609294744, 43.5985891923]}, "type": "Feature", "properties": {"collection_times": [{"days": "Mon-Fri", "time": "12:00pm"}, {"days": "Sat", "time": "11:30am"}, {"days": "Sun", "time": "Closed"}], "id": "4885800024", "name": "USPS COLLECTION BOX - BLUE BOX", "address": {"city": "MOUNT PLEASANT", "state": "MI", "street": "1221 SOUTH DR", "postcode": "48858"}}},
{"geometry": {"type": "Point", "coordinates": [-84.7773859689, 43.5898615778]}, "type": "Feature", "properties": {"collection_times": [{"days": "Mon-Sat", "time": "11:30am"}, {"days": "Sun", "time": "Closed"}], "id": "4885800027", "name": "USPS COLLECTION BOX - BLUE BOX", "address": {"city": "MOUNT PLEASANT", "state": "MI", "street": "101 E PRESTON RD", "postcode": "48858"}}},
{"geometry": {"type": "Point", "coordinates": [-84.7761325637, 43.6044889409]}, "type": "Feature", "properties": {"collection_times": [{"days": "Mon-Fri", "time": "11:00am"}, {"days": "Sat", "time": "10:00am"}, {"days": "Sun", "time": "Closed"}], "id": "4885800028", "name": "USPS COLLECTION BOX - BLUE BOX", "address": {"city": "MOUNT PLEASANT", "state": "MI", "street": "137 E BROADWAY ST", "postcode": "48858"}}},
{"geometry": {"type": "Point", "coordinates": [-84.7543534201, 43.6118606067]}, "type": "Feature", "properties": {"collection_times": [{"days": "Mon-Fri", "time": "12:00pm"}, {"days": "Sat", "time": "11:30am"}, {"days": "Sun", "time": "Closed"}], "id": "4885800029", "name": "USPS COLLECTION BOX - BLUE BOX", "address": {"city": "MOUNT PLEASANT", "state": "MI", "street": "4699 E PICKARD ST", "postcode": "48858"}}},
{"geometry": {"type": "Point", "coordinates": [-84.7689620068, 43.6045007443]}, "type": "Feature", "properties": {"collection_times": [{"days": "Mon-Fri", "time": "10:30am"}, {"days": "Sat", "time": "10:00am"}, {"days": "Sun", "time": "Closed"}], "id": "4885800030", "name": "USPS COLLECTION BOX - BLUE BOX", "address": {"city": "MOUNT PLEASANT", "state": "MI", "street": "705 E BROADWAY ST", "postcode": "48858"}}},
{"geometry": {"type": "Point", "coordinates": [-84.7652086125, 43.6118431282]}, "type": "Feature", "properties": {"collection_times": [{"days": "Mon-Fri", "time": "11:30am"}, {"days": "Sat", "time": "11:00am"}, {"days": "Sun", "time": "Closed"}], "id": "4885800032", "name": "USPS COLLECTION BOX - BLUE BOX", "address": {"city": "MOUNT PLEASANT", "state": "MI", "street": "1015 E PICKARD ST", "postcode": "48858"}}},
{"geometry": {"type": "Point", "coordinates": [-84.7776245645, 43.5822304931]}, "type": "Feature", "properties": {"collection_times": [{"days": "Mon-Sat", "time": "10:00am"}, {"days": "Sun", "time": "Closed"}], "id": "4885800046", "name": "USPS COLLECTION BOX - BLUE BOX", "address": {"city": "MOUNT PLEASANT", "state": "MI", "street": "200 W BROOMFIELD ST", "postcode": "48858"}}},
{"geometry": {"type": "Point", "coordinates": [-84.7673459296, 43.5823746262]}, "type": "Feature", "properties": {"collection_times": [{"days": "Mon-Sat", "time": "10:00am"}, {"days": "Sun", "time": "Closed"}], "id": "4885800056", "name": "USPS COLLECTION BOX - BLUE BOX", "address": {"city": "MOUNT PLEASANT", "state": "MI", "street": "2020 S MISSION ST", "postcode": "48858"}}},
{"geometry": {"type": "Point", "coordinates": [-84.7753668903, 43.595010185]}, "type": "Feature", "properties": {"collection_times": [{"days": "Mon-Sat", "time": "11:30am"}, {"days": "Sun", "time": "Closed"}], "id": "4885800067", "name": "USPS COLLECTION BOX - BLUE BOX", "address": {"city": "MOUNT PLEASANT", "state": "MI", "street": "1029 S UNIVERSITY ST", "postcode": "48858"}}},
{"geometry": {"type": "Point", "coordinates": [-84.710382115, 43.6093076925]}, "type": "Feature", "properties": {"collection_times": [{"days": "Mon-Sat", "time": "11:00am"}, {"days": "Sun", "time": "Closed"}], "id": "4885800072", "name": "USPS COLLECTION BOX - BLUE BOX", "address": {"city": "MOUNT PLEASANT", "state": "MI", "street": "6800 E SOARING EAGLE BLVD", "postcode": "48858"}}},
{"geometry": {"type": "Point", "coordinates": [-84.7673472664, 43.5865245277]}, "type": "Feature", "properties": {"collection_times": [{"days": "Mon-Sat", "time": "10:00am"}, {"days": "Sun", "time": "Closed"}], "id": "4885800074", "name": "USPS COLLECTION BOX - BLUE BOX", "address": {"city": "MOUNT PLEASANT", "state": "MI", "street": "1620 S MISSION ST", "postcode": "48858"}}},
{"geometry": {"type": "Point", "coordinates": [-84.7607433692, 43.5936037537]}, "type": "Feature", "properties": {"collection_times": [{"days": "Mon-Sat", "time": "10:00am"}, {"days": "Sun", "time": "Closed"}], "id": "4885800076", "name": "USPS COLLECTION BOX - BLUE BOX", "address": {"city": "MOUNT PLEASANT", "state": "MI", "street": "1309 E BELLOWS ST", "postcode": "48858"}}},
{"geometry": {"type": "Point", "coordinates": [-84.774799562, 43.5994921074]}, "type": "Feature", "properties": {"collection_times": [{"days": "Mon-Sat", "time": "10:00am"}, {"days": "Sun", "time": "Closed"}], "id": "4885800077", "name": "USPS COLLECTION BOX - BLUE BOX", "address": {"city": "MOUNT PLEASANT", "state": "MI", "street": "5232 E BROADWAY RD", "postcode": "48858"}}},
{"geometry": {"type": "Point", "coordinates": [-84.7812189271, 43.5679185472]}, "type": "Feature", "properties": {"collection_times": [{"days": "Mon-Sat", "time": "10:00am"}, {"days": "Sun", "time": "Closed"}], "id": "4885800079", "name": "USPS COLLECTION BOX - BLUE BOX", "address": {"city": "MOUNT PLEASANT", "state": "MI", "street": "3300 E DEERFIELD RD", "postcode": "48858"}}},
{"geometry": {"type": "Point", "coordinates": [-84.776780976, 43.611059885]}, "type": "Feature", "properties": {"collection_times": [{"days": "Mon-Sat", "time": "2:50pm"}, {"days": "Sun", "time": "Closed"}], "id": "4885800080", "name": "USPS COLLECTION BOX - PO LOBBY", "address": {"city": "MOUNT PLEASANT", "state": "MI", "street": "813 N MAIN ST", "postcode": "48858"}}},
{"geometry": {"type": "Point", "coordinates": [-84.7474188523, 43.5817641282]}, "type": "Feature", "properties": {"collection_times": [{"days": "Mon-Sat", "time": "10:00am"}, {"days": "Sun", "time": "Closed"}], "id": "4885800083", "name": "USPS COLLECTION BOX - BLUE BOX", "address": {"city": "MOUNT PLEASANT", "state": "MI", "street": "4075 S ISABELLA RD", "postcode": "48858"}}},
{"geometry": {"type": "Point", "coordinates": [-84.776780976, 43.611059885]}, "type": "Feature", "properties": {"collection_times": [{"days": "Mon-Sat", "time": "2:50pm"}, {"days": "Sun", "time": "Closed"}], "id": "4885800085", "name": "USPS COLLECTION BOX - BLUE BOX", "address": {"city": "MOUNT PLEASANT", "state": "MI", "street": "813 N MAIN ST", "postcode": "48858"}}},
{"geometry": {"type": "Point", "coordinates": [-84.776780976, 43.611059885]}, "type": "Feature", "properties": {"collection_times": [{"days": "Mon-Sat", "time": "2:50pm"}, {"days": "Sun", "time": "Closed"}], "id": "4885800087", "name": "USPS COLLECTION BOX - APC", "address": {"city": "MOUNT PLEASANT", "state": "MI", "street": "813 N MAIN ST", "postcode": "48858"}}},
{"geometry": {"type": "Point", "coordinates": [-84.78737918, 43.5846271017]}, "type": "Feature", "properties": {"collection_times": [{"days": "Mon-Sat", "time": "10:30am"}, {"days": "Sun", "time": "Closed"}], "id": "4885800088", "name": "USPS COLLECTION BOX - BLUE BOX", "address": {"city": "MOUNT PLEASANT", "state": "MI", "street": "1820 S CRAWFORD ST", "postcode": "48858"}}},
{"geometry": {"type": "Point", "coordinates": [-84.772494401, 43.5851452111]}, "type": "Feature", "properties": {"collection_times": [{"days": "Mon-Sat", "time": "10:00am"}, {"days": "Sun", "time": "Closed"}], "id": "4885800089", "name": "USPS COLLECTION BOX - BLUE BOX", "address": {"city": "MOUNT PLEASANT", "state": "MI", "street": "300 E OJIBWAY CT", "postcode": "48858"}}},
{"geometry": {"type": "Point", "coordinates": [-84.8508334413, 43.5824174809]}, "type": "Feature", "properties": {"collection_times": [{"days": "Mon-Sat", "time": "10:00am"}, {"days": "Sun", "time": "Closed"}], "id": "4885800090", "name": "USPS COLLECTION BOX - BLUE BOX", "address": {"city": "MOUNT PLEASANT", "state": "MI", "street": "303 E BROOMFIELD RD", "postcode": "48858"}}},
{"geometry": {"type": "Point", "coordinates": [-84.7955390112, 43.6129899884]}, "type": "Feature", "properties": {"collection_times": [{"days": "Mon-Sat", "time": "11:00am"}, {"days": "Sun", "time": "Closed"}], "id": "4885800091", "name": "USPS COLLECTION BOX - BLUE BOX", "address": {"city": "MOUNT PLEASANT", "state": "MI", "street": "4730 ENCORE BLVD", "postcode": "48858"}}},
{"geometry": {"type": "Point", "coordinates": [-84.774799562, 43.5994921074]}, "type": "Feature", "properties": {"collection_times": [{"days": "Mon-Fri", "time": "11:00am"}, {"days": "Sat", "time": "10:30am"}, {"days": "Sun", "time": "Closed"}], "id": "4885800092", "name": "USPS COLLECTION BOX - BLUE BOX", "address": {"city": "MOUNT PLEASANT", "state": "MI", "street": "4080 E BLUE GRASS RD", "postcode": "48858"}}},
{"geometry": {"type": "Point", "coordinates": [-84.7675459235, 43.5897149127]}, "type": "Feature", "properties": {"collection_times": [{"days": "Mon-Fri", "time": "11:00am"}, {"days": "Sat", "time": "10:30am"}, {"days": "Sun", "time": "Closed"}], "id": "4885800093", "name": "USPS COLLECTION BOX - BLUE BOX", "address": {"city": "MOUNT PLEASANT", "state": "MI", "street": "1309 S MISSION ST", "postcode": "48858"}}},
{"geometry": {"type": "Point", "coordinates": [-84.7791493983, 43.604390878]}, "type": "Feature", "properties": {"collection_times": [{"days": "Mon-Fri", "time": "1:00pm"}, {"days": "Sat", "time": "11:00am"}, {"days": "Sun", "time": "Closed"}], "id": "4885800094", "name": "USPS COLLECTION BOX - BLUE BOX", "address": {"city": "MOUNT PLEASANT", "state": "MI", "street": "320 W BROADWAY ST", "postcode": "48858"}}},
{"geometry": {"type": "Point", "coordinates": [-84.937869302, 42.996079366]}, "type": "Feature", "properties": {"collection_times": [{"days": "Mon-Fri", "time": "2:15pm"}, {"days": "Sat", "time": "10:00am"}, {"days": "Sun", "time": "Closed"}], "id": "4886000001", "name": "USPS COLLECTION BOX - BLUE BOX", "address": {"city": "MUIR", "state": "MI", "street": "230 SUPERIOR ST", "postcode": "48860"}}},
{"geometry": {"type": "Point", "coordinates": [-84.937869302, 42.996079366]}, "type": "Feature", "properties": {"collection_times": [{"days": "Mon-Fri", "time": "2:15pm"}, {"days": "Sat", "time": "10:00am"}, {"days": "Sun", "time": "Closed"}], "id": "4886000002", "name": "USPS COLLECTION BOX - PO LOBBY", "address": {"city": "MUIR", "state": "MI", "street": "230 SUPERIOR ST", "postcode": "48860"}}},
{"geometry": {"type": "Point", "coordinates": [-84.8953618097, 42.7622565671]}, "type": "Feature", "properties": {"collection_times": [{"days": "Mon-Fri", "time": "2:10pm"}, {"days": "Sat", "time": "9:00am"}, {"days": "Sun", "time": "Closed"}], "id": "4886100001", "name": "USPS COLLECTION BOX - BLUE BOX", "address": {"city": "MULLIKEN", "state": "MI", "street": "129 MAIN ST", "postcode": "48861"}}},
{"geometry": {"type": "Point", "coordinates": [-84.895361947, 42.762257323]}, "type": "Feature", "properties": {"collection_times": [{"days": "Mon-Fri", "time": "2:10pm"}, {"days": "Sat", "time": "9:00am"}, {"days": "Sun", "time": "Closed"}], "id": "4886100002", "name": "USPS COLLECTION BOX - PO LOBBY", "address": {"city": "MULLIKEN", "state": "MI", "street": "129 MAIN ST", "postcode": "48861"}}},
{"geometry": {"type": "Point", "coordinates": [-84.543618645, 43.24806441]}, "type": "Feature", "properties": {"collection_times": [{"days": "Mon-Fri", "time": "2:15pm"}, {"days": "Sat", "time": "9:30am"}, {"days": "Sun", "time": "Closed"}], "id": "4886200001", "name": "USPS COLLECTION BOX - BLUE BOX", "address": {"city": "NORTH STAR", "state": "MI", "street": "107 W GRATIOT ST", "postcode": "48862"}}},
{"geometry": {"type": "Point", "coordinates": [-84.543618645, 43.24806441]}, "type": "Feature", "properties": {"collection_times": [{"days": "Mon-Fri", "time": "2:15pm"}, {"days": "Sat", "time": "9:30am"}, {"days": "Sun", "time": "Closed"}], "id": "4886200002", "name": "USPS COLLECTION BOX - PO LOBBY", "address": {"city": "NORTH STAR", "state": "MI", "street": "107 W GRATIOT ST", "postcode": "48862"}}},
{"geometry": {"type": "Point", "coordinates": [-84.422532341, 42.727506243]}, "type": "Feature", "properties": {"collection_times": [{"days": "Mon-Fri", "time": "5:00pm"}, {"days": "Sat", "time": "2:30pm"}, {"days": "Sun", "time": "Closed"}], "id": "4886400001", "name": "USPS COLLECTION BOX - BLUE BOX", "address": {"city": "OKEMOS", "state": "MI", "street": "2025 CENTRAL PARK DR", "postcode": "48864"}}},
{"geometry": {"type": "Point", "coordinates": [-84.4307906853, 42.6858875846]}, "type": "Feature", "properties": {"collection_times": [{"days": "Mon-Fri", "time": "3:00pm"}, {"days": "Sat", "time": "9:30am"}, {"days": "Sun", "time": "Closed"}], "id": "4886400002", "name": "USPS COLLECTION BOX - BLUE BOX", "address": {"city": "OKEMOS", "state": "MI", "street": "2220 ASSOCIATION DR", "postcode": "48864"}}},
{"geometry": {"type": "Point", "coordinates": [-84.4225323415, 42.7275062434]}, "type": "Feature", "properties": {"collection_times": [{"days": "Mon-Fri", "time": "5:00pm"}, {"days": "Sat", "time": "2:30pm"}, {"days": "Sun", "time": "Closed"}], "id": "4886400003", "name": "USPS COLLECTION BOX - BLUE BOX", "address": {"city": "OKEMOS", "state": "MI", "street": "2025 CENTRAL PARK DR", "postcode": "48864"}}},
{"geometry": {"type": "Point", "coordinates": [-84.4250077854, 42.7216395756]}, "type": "Feature", "properties": {"collection_times": [{"days": "Mon-Fri", "time": "2:30pm"}, {"days": "Sat", "time": "2:00pm"}, {"days": "Sun", "time": "Closed"}], "id": "4886400011", "name": "USPS COLLECTION BOX - BLUE BOX", "address": {"city": "OKEMOS", "state": "MI", "street": "2055 W GRAND RIVER AVE", "postcode": "48864"}}},
{"geometry": {"type": "Point", "coordinates": [-84.4119683588, 42.718346199]}, "type": "Feature", "properties": {"collection_times": [{"days": "Mon-Fri", "time": "2:30pm"}, {"days": "Sat", "time": "9:30am"}, {"days": "Sun", "time": "Closed"}], "id": "4886400013", "name": "USPS COLLECTION BOX - BLUE BOX", "address": {"city": "OKEMOS", "state": "MI", "street": "1749 W GRAND RIVER AVE", "postcode": "48864"}}},
{"geometry": {"type": "Point", "coordinates": [-84.4296070638, 42.6828430455]}, "type": "Feature", "properties": {"collection_times": [{"days": "Mon-Fri", "time": "3:00pm"}, {"days": "Sat", "time": "9:30am"}, {"days": "Sun", "time": "Closed"}], "id": "4886400015", "name": "USPS COLLECTION BOX - BLUE BOX", "address": {"city": "OKEMOS", "state": "MI", "street": "2187 JOLLY RD", "postcode": "48864"}}},
{"geometry": {"type": "Point", "coordinates": [-84.4296070638, 42.6828430455]}, "type": "Feature", "properties": {"collection_times": [{"days": "Mon-Fri", "time": "3:00pm"}, {"days": "Sat", "time": "9:30am"}, {"days": "Sun", "time": "Closed"}], "id": "4886400017", "name": "USPS COLLECTION BOX - BLUE BOX", "address": {"city": "OKEMOS", "state": "MI", "street": "2187 JOLLY RD", "postcode": "48864"}}},
{"geometry": {"type": "Point", "coordinates": [-84.4293478131, 42.6813159158]}, "type": "Feature", "properties": {"collection_times": [{"days": "Mon-Fri", "time": "3:00pm"}, {"days": "Sat", "time": "9:30am"}, {"days": "Sun", "time": "Closed"}], "id": "4886400018", "name": "USPS COLLECTION BOX - BLUE BOX", "address": {"city": "OKEMOS", "state": "MI", "street": "2139 COMMONS PKWY", "postcode": "48864"}}},
{"geometry": {"type": "Point", "coordinates": [-84.436558598, 42.6958357207]}, "type": "Feature", "properties": {"collection_times": [{"days": "Mon-Fri", "time": "2:30pm"}, {"days": "Sat", "time": "9:30am"}, {"days": "Sun", "time": "Closed"}], "id": "4886400020", "name": "USPS COLLECTION BOX - BLUE BOX", "address": {"city": "OKEMOS", "state": "MI", "street": "3800 HERITAGE AVE", "postcode": "48864"}}},
{"geometry": {"type": "Point", "coordinates": [-84.4358674576, 42.6828368228]}, "type": "Feature", "properties": {"collection_times": [{"days": "Mon-Fri", "time": "3:00pm"}, {"days": "Sat", "time": "9:30am"}, {"days": "Sun", "time": "Closed"}], "id": "4886400022", "name": "USPS COLLECTION BOX - BLUE BOX", "address": {"city": "OKEMOS", "state": "MI", "street": "2339 JOLLY RD", "postcode": "48864"}}},
{"geometry": {"type": "Point", "coordinates": [-84.4104123587, 42.7162217546]}, "type": "Feature", "properties": {"collection_times": [{"days": "Mon-Fri", "time": "2:30pm"}, {"days": "Sat", "time": "9:30am"}, {"days": "Sun", "time": "Closed"}], "id": "4886400023", "name": "USPS COLLECTION BOX - BLUE BOX", "address": {"city": "OKEMOS", "state": "MI", "street": "4655 DOBIE RD", "postcode": "48864"}}},
{"geometry": {"type": "Point", "coordinates": [-84.420116763, 42.7052204554]}, "type": "Feature", "properties": {"collection_times": [{"days": "Mon-Fri", "time": "3:00pm"}, {"days": "Sat", "time": "9:30am"}, {"days": "Sun", "time": "Closed"}], "id": "4886400024", "name": "USPS COLLECTION BOX - EXPRESS", "address": {"city": "OKEMOS", "state": "MI", "street": "2277 SCIENCE PKWY", "postcode": "48864"}}},
{"geometry": {"type": "Point", "coordinates": [-84.434251082, 42.7067947716]}, "type": "Feature", "properties": {"collection_times": [{"days": "Mon-Fri", "time": "3:00pm"}, {"days": "Sat", "time": "9:30am"}, {"days": "Sun", "time": "Closed"}], "id": "4886400025", "name": "USPS COLLECTION BOX - BLUE BOX", "address": {"city": "OKEMOS", "state": "MI", "street": "2277 SCIENCE PKWY", "postcode": "48864"}}},
{"geometry": {"type": "Point", "coordinates": [-84.4324320482, 42.70096888]}, "type": "Feature", "properties": {"collection_times": [{"days": "Mon-Fri", "time": "2:30pm"}, {"days": "Sat", "time": "9:30am"}, {"days": "Sun", "time": "Closed"}], "id": "4886400032", "name": "USPS COLLECTION BOX - BLUE BOX", "address": {"city": "OKEMOS", "state": "MI", "street": "4131 OKEMOS RD", "postcode": "48864"}}},
{"geometry": {"type": "Point", "coordinates": [-84.4257255459, 42.6793016368]}, "type": "Feature", "properties": {"collection_times": [{"days": "Mon-Fri", "time": "3:00pm"}, {"days": "Sat", "time": "9:30am"}, {"days": "Sun", "time": "Closed"}], "id": "4886400035", "name": "USPS COLLECTION BOX - BLUE BOX", "address": {"city": "OKEMOS", "state": "MI", "street": "2140 UNIVERSITY PARK DR", "postcode": "48864"}}},
{"geometry": {"type": "Point", "coordinates": [-84.4003667785, 42.71525195]}, "type": "Feature", "properties": {"collection_times": [{"days": "Mon-Sat", "time": "10:00am"}, {"days": "Sun", "time": "Closed"}], "id": "4886400036", "name": "USPS COLLECTION BOX - BLUE BOX", "address": {"city": "OKEMOS", "state": "MI", "street": "1445 E POND DR", "postcode": "48864"}}},
{"geometry": {"type": "Point", "coordinates": [-84.4329691032, 42.6910323031]}, "type": "Feature", "properties": {"collection_times": [{"days": "Mon-Sat", "time": "11:15am"}, {"days": "Sun", "time": "Closed"}], "id": "4886400037", "name": "USPS COLLECTION BOX - BLUE BOX", "address": {"city": "OKEMOS", "state": "MI", "street": "2276 KNOB HILL DR", "postcode": "48864"}}},
{"geometry": {"type": "Point", "coordinates": [-84.422532341, 42.727506243]}, "type": "Feature", "properties": {"collection_times": [{"days": "Mon-Fri", "time": "5:00pm"}, {"days": "Sat", "time": "2:30pm"}, {"days": "Sun", "time": "Closed"}], "id": "4886400047", "name": "USPS COLLECTION BOX - PO LOBBY", "address": {"city": "OKEMOS", "state": "MI", "street": "2025 CENTRAL PARK DR", "postcode": "48864"}}},
{"geometry": {"type": "Point", "coordinates": [-84.436558598, 42.6958357207]}, "type": "Feature", "properties": {"collection_times": [{"days": "Mon-Fri", "time": "2:30pm"}, {"days": "Sat", "time": "9:30am"}, {"days": "Sun", "time": "Closed"}], "id": "4886400048", "name": "USPS COLLECTION BOX - BLUE BOX", "address": {"city": "OKEMOS", "state": "MI", "street": "3800 HERITAGE AVE", "postcode": "48864"}}},
{"geometry": {"type": "Point", "coordinates": [-84.426883345, 42.6806323483]}, "type": "Feature", "properties": {"collection_times": [{"days": "Mon-Fri", "time": "3:00pm"}, {"days": "Sat", "time": "9:30am"}, {"days": "Sun", "time": "Closed"}], "id": "4886400049", "name": "USPS COLLECTION BOX - BLUE BOX", "address": {"city": "OKEMOS", "state": "MI", "street": "3450 ALAIEDON PKWY", "postcode": "48864"}}},
{"geometry": {"type": "Point", "coordinates": [-84.4257255459, 42.6793016368]}, "type": "Feature", "properties": {"collection_times": [{"days": "Mon-Fri", "time": "3:00pm"}, {"days": "Sat", "time": "9:30am"}, {"days": "Sun", "time": "Closed"}], "id": "4886400050", "name": "USPS COLLECTION BOX - BLUE BOX", "address": {"city": "OKEMOS", "state": "MI", "street": "2140 UNIVERSITY PARK DR", "postcode": "48864"}}},
{"geometry": {"type": "Point", "coordinates": [-84.420116763, 42.7052204554]}, "type": "Feature", "properties": {"collection_times": [{"days": "Mon-Fri", "time": "3:00pm"}, {"days": "Sat", "time": "9:30am"}, {"days": "Sun", "time": "Closed"}], "id": "4886400051", "name": "USPS COLLECTION BOX - EXPRESS", "address": {"city": "OKEMOS", "state": "MI", "street": "2140 UNIVERSITY PARK DR", "postcode": "48864"}}},
{"geometry": {"type": "Point", "coordinates": [-84.426883345, 42.6806323483]}, "type": "Feature", "properties": {"collection_times": [{"days": "Mon-Fri", "time": "3:00pm"}, {"days": "Sat", "time": "9:30am"}, {"days": "Sun", "time": "Closed"}], "id": "4886400052", "name": "USPS COLLECTION BOX - BLUE BOX", "address": {"city": "OKEMOS", "state": "MI", "street": "3450 ALAIEDON PKWY", "postcode": "48864"}}},
{"geometry": {"type": "Point", "coordinates": [-84.4293478131, 42.6813159158]}, "type": "Feature", "properties": {"collection_times": [{"days": "Mon-Fri", "time": "3:00pm"}, {"days": "Sat", "time": "9:30am"}, {"days": "Sun", "time": "Closed"}], "id": "4886400053", "name": "USPS COLLECTION BOX - BLUE BOX", "address": {"city": "OKEMOS", "state": "MI", "street": "2139 COMMONS PKWY", "postcode": "48864"}}},
{"geometry": {"type": "Point", "coordinates": [-84.4400861214, 42.6804273617]}, "type": "Feature", "properties": {"collection_times": [{"days": "Mon-Fri", "time": "3:00pm"}, {"days": "Sat", "time": "9:30am"}, {"days": "Sun", "time": "Closed"}], "id": "4886400057", "name": "USPS COLLECTION BOX - BLUE BOX", "address": {"city": "OKEMOS", "state": "MI", "street": "2501 WOODLAKE CIR", "postcode": "48864"}}},
{"geometry": {"type": "Point", "coordinates": [-84.4400861214, 42.6804273617]}, "type": "Feature", "properties": {"collection_times": [{"days": "Mon-Fri", "time": "3:00pm"}, {"days": "Sat", "time": "9:30am"}, {"days": "Sun", "time": "Closed"}], "id": "4886400058", "name": "USPS COLLECTION BOX - BLUE BOX", "address": {"city": "OKEMOS", "state": "MI", "street": "2501 WOODLAKE CIR", "postcode": "48864"}}},
{"geometry": {"type": "Point", "coordinates": [-84.4164985915, 42.7241551238]}, "type": "Feature", "properties": {"collection_times": [{"days": "Mon-Sat", "time": "11:45am"}, {"days": "Sun", "time": "Closed"}], "id": "4886400060", "name": "USPS COLLECTION BOX - BLUE BOX", "address": {"city": "OKEMOS", "state": "MI", "street": "4884 MARSH RD", "postcode": "48864"}}},
{"geometry": {"type": "Point", "coordinates": [-84.4324625288, 42.6879898463]}, "type": "Feature", "properties": {"collection_times": [{"days": "Mon-Fri", "time": "2:30pm"}, {"days": "Sat", "time": "9:30am"}, {"days": "Sun", "time": "Closed"}], "id": "4886400061", "name": "USPS COLLECTION BOX - BLUE BOX", "address": {"city": "OKEMOS", "state": "MI", "street": "3681 OKEMOS RD", "postcode": "48864"}}},
{"geometry": {"type": "Point", "coordinates": [-84.4376078276, 42.6811230378]}, "type": "Feature", "properties": {"collection_times": [{"days": "Mon-Fri", "time": "3:00pm"}, {"days": "Sat", "time": "9:30am"}, {"days": "Sun", "time": "Closed"}], "id": "4886400062", "name": "USPS COLLECTION BOX - BLUE BOX", "address": {"city": "OKEMOS", "state": "MI", "street": "2365 WOODLAKE DR", "postcode": "48864"}}},
{"geometry": {"type": "Point", "coordinates": [-84.422532341, 42.727506243]}, "type": "Feature", "properties": {"collection_times": [{"days": "Mon-Fri", "time": "5:00pm"}, {"days": "Sat", "time": "2:30pm"}, {"days": "Sun", "time": "Closed"}], "id": "4886400063", "name": "USPS COLLECTION BOX - APC", "address": {"city": "OKEMOS", "state": "MI", "street": "2025 CENTRAL PARK DR", "postcode": "48864"}}},
{"geometry": {"type": "Point", "coordinates": [-84.4129159231, 42.7270804896]}, "type": "Feature", "properties": {"collection_times": [{"days": "Mon-Fri", "time": "11:30am"}, {"days": "Sat", "time": "11:00am"}, {"days": "Sun", "time": "Closed"}], "id": "4886400064", "name": "USPS COLLECTION BOX - BLUE BOX", "address": {"city": "OKEMOS", "state": "MI", "street": "1775 CENTRAL PARK DR", "postcode": "48864"}}},
{"geometry": {"type": "Point", "coordinates": [-85.135641513, 43.068496957]}, "type": "Feature", "properties": {"collection_times": [{"days": "Mon-Fri", "time": "3:15pm"}, {"days": "Sat", "time": "9:30am"}, {"days": "Sun", "time": "Closed"}], "id": "4886500001", "name": "USPS COLLECTION BOX - BLUE BOX", "address": {"city": "ORLEANS", "state": "MI", "street": "3018 W PALMER RD", "postcode": "48865"}}},
{"geometry": {"type": "Point", "coordinates": [-85.135641513, 43.068496957]}, "type": "Feature", "properties": {"collection_times": [{"days": "Mon-Fri", "time": "3:15pm"}, {"days": "Sat", "time": "9:30am"}, {"days": "Sun", "time": "Closed"}], "id": "4886500002", "name": "USPS COLLECTION BOX - PO LOBBY", "address": {"city": "ORLEANS", "state": "MI", "street": "3018 W PALMER RD", "postcode": "48865"}}},
{"geometry": {"type": "Point", "coordinates": [-84.371738588, 43.006869468]}, "type": "Feature", "properties": {"collection_times": [{"days": "Mon-Fri", "time": "3:40pm"}, {"days": "Sat", "time": "11:00am"}, {"days": "Sun", "time": "Closed"}], "id": "4886600001", "name": "USPS COLLECTION BOX - BLUE BOX", "address": {"city": "OVID", "state": "MI", "street": "203 N MAIN ST", "postcode": "48866"}}},
{"geometry": {"type": "Point", "coordinates": [-84.371738588, 43.006869468]}, "type": "Feature", "properties": {"collection_times": [{"days": "Mon-Fri", "time": "3:40pm"}, {"days": "Sat", "time": "11:00am"}, {"days": "Sun", "time": "Closed"}], "id": "4886600002", "name": "USPS COLLECTION BOX - PO LOBBY", "address": {"city": "OVID", "state": "MI", "street": "203 N MAIN ST", "postcode": "48866"}}},
{"geometry": {"type": "Point", "coordinates": [-84.1769181152, 42.9994902979]}, "type": "Feature", "properties": {"collection_times": [{"days": "Mon-Sat", "time": "2:55pm"}, {"days": "Sun", "time": "Closed"}], "id": "4886700001", "name": "USPS COLLECTION BOX - BLUE BOX", "address": {"city": "OWOSSO", "state": "MI", "street": "319 N WASHINGTON ST", "postcode": "48867"}}},
{"geometry": {"type": "Point", "coordinates": [-84.1706896769, 42.999708203]}, "type": "Feature", "properties": {"collection_times": [{"days": "Mon-Sat", "time": "2:55pm"}, {"days": "Sun", "time": "Closed"}], "id": "4886700002", "name": "USPS COLLECTION BOX - BLUE BOX", "address": {"city": "OWOSSO", "state": "MI", "street": "319 N WASHINGTON ST", "postcode": "48867"}}},
{"geometry": {"type": "Point", "coordinates": [-84.1867341604, 42.981620217]}, "type": "Feature", "properties": {"collection_times": [{"days": "Mon-Sat", "time": "10:00am"}, {"days": "Sun", "time": "Closed"}], "id": "4886700008", "name": "USPS COLLECTION BOX - BLUE BOX", "address": {"city": "OWOSSO", "state": "MI", "street": "1910 S CHIPMAN ST", "postcode": "48867"}}},
{"geometry": {"type": "Point", "coordinates": [-84.2184857229, 42.997635802]}, "type": "Feature", "properties": {"collection_times": [{"days": "Mon-Sat", "time": "9:30am"}, {"days": "Sun", "time": "Closed"}], "id": "4886700010", "name": "USPS COLLECTION BOX - BLUE BOX", "address": {"city": "OWOSSO", "state": "MI", "street": "2627 W M 21", "postcode": "48867"}}},
{"geometry": {"type": "Point", "coordinates": [-84.1900984371, 42.979938776]}, "type": "Feature", "properties": {"collection_times": [{"days": "Mon-Sat", "time": "10:00am"}, {"days": "Sun", "time": "Closed"}], "id": "4886700011", "name": "USPS COLLECTION BOX - BLUE BOX", "address": {"city": "OWOSSO", "state": "MI", "street": "1200 PENBROOK DR", "postcode": "48867"}}},
{"geometry": {"type": "Point", "coordinates": [-84.2146916182, 42.9831787522]}, "type": "Feature", "properties": {"collection_times": [{"days": "Mon-Sat", "time": "9:30am"}, {"days": "Sun", "time": "Closed"}], "id": "4886700013", "name": "USPS COLLECTION BOX - BLUE BOX", "address": {"city": "OWOSSO", "state": "MI", "street": "2450 KROUSE RD", "postcode": "48867"}}},
{"geometry": {"type": "Point", "coordinates": [-84.1895550872, 42.9832066308]}, "type": "Feature", "properties": {"collection_times": [{"days": "Mon-Sat", "time": "10:30am"}, {"days": "Sun", "time": "Closed"}], "id": "4886700014", "name": "USPS COLLECTION BOX - BLUE BOX", "address": {"city": "OWOSSO", "state": "MI", "street": "1800 CANDLEWICK CT", "postcode": "48867"}}},
{"geometry": {"type": "Point", "coordinates": [-84.1624653477, 43.0017026499]}, "type": "Feature", "properties": {"collection_times": [{"days": "Mon-Sat", "time": "9:30am"}, {"days": "Sun", "time": "Closed"}], "id": "4886700016", "name": "USPS COLLECTION BOX - BLUE BOX", "address": {"city": "OWOSSO", "state": "MI", "street": "620 E OLIVER ST", "postcode": "48867"}}},
{"geometry": {"type": "Point", "coordinates": [-84.1804005388, 43.0050992835]}, "type": "Feature", "properties": {"collection_times": [{"days": "Mon-Sat", "time": "9:30am"}, {"days": "Sun", "time": "Closed"}], "id": "4886700021", "name": "USPS COLLECTION BOX - BLUE BOX", "address": {"city": "OWOSSO", "state": "MI", "street": "826 W KING ST", "postcode": "48867"}}},
{"geometry": {"type": "Point", "coordinates": [-84.1707046106, 42.9985180234]}, "type": "Feature", "properties": {"collection_times": [{"days": "Mon-Sat", "time": "9:30am"}, {"days": "Sun", "time": "Closed"}], "id": "4886700024", "name": "USPS COLLECTION BOX - BLUE BOX", "address": {"city": "OWOSSO", "state": "MI", "street": "201 N WASHINGTON ST", "postcode": "48867"}}},
{"geometry": {"type": "Point", "coordinates": [-84.1671328644, 43.0164362025]}, "type": "Feature", "properties": {"collection_times": [{"days": "Mon-Sat", "time": "10:00am"}, {"days": "Sun", "time": "Closed"}], "id": "4886700028", "name": "USPS COLLECTION BOX - BLUE BOX", "address": {"city": "OWOSSO", "state": "MI", "street": "1573 N HICKORY RD", "postcode": "48867"}}},
{"geometry": {"type": "Point", "coordinates": [-84.176791135, 43.0132925378]}, "type": "Feature", "properties": {"collection_times": [{"days": "Mon-Fri", "time": "2:00pm"}, {"days": "Sat", "time": "1:00pm"}, {"days": "Sun", "time": "Closed"}], "id": "4886700030", "name": "USPS COLLECTION BOX - BLUE BOX", "address": {"city": "OWOSSO", "state": "MI", "street": "1341 N M 52", "postcode": "48867"}}},
{"geometry": {"type": "Point", "coordinates": [-84.1887830425, 42.9714566709]}, "type": "Feature", "properties": {"collection_times": [{"days": "Mon-Sat", "time": "9:00am"}, {"days": "Sun", "time": "Closed"}], "id": "4886700037", "name": "USPS COLLECTION BOX - BLUE BOX", "address": {"city": "OWOSSO", "state": "MI", "street": "1704 S M 52", "postcode": "48867"}}},
{"geometry": {"type": "Point", "coordinates": [-84.1445870176, 42.9978613884]}, "type": "Feature", "properties": {"collection_times": [{"days": "Mon-Sat", "time": "10:00am"}, {"days": "Sun", "time": "Closed"}], "id": "4886700038", "name": "USPS COLLECTION BOX - BLUE BOX", "address": {"city": "OWOSSO", "state": "MI", "street": "1411 E M 21", "postcode": "48867"}}},
{"geometry": {"type": "Point", "coordinates": [-84.182252277, 43.0131950237]}, "type": "Feature", "properties": {"collection_times": [{"days": "Mon-Sat", "time": "10:00am"}, {"days": "Sun", "time": "Closed"}], "id": "4886700047", "name": "USPS COLLECTION BOX - BLUE BOX", "address": {"city": "OWOSSO", "state": "MI", "street": "1035 CHIPMAN LN", "postcode": "48867"}}},
{"geometry": {"type": "Point", "coordinates": [-84.157550676, 42.9975273885]}, "type": "Feature", "properties": {"collection_times": [{"days": "Mon-Sat", "time": "9:00am"}, {"days": "Sun", "time": "Closed"}], "id": "4886700052", "name": "USPS COLLECTION BOX - BLUE BOX", "address": {"city": "OWOSSO", "state": "MI", "street": "1002 E M 21", "postcode": "48867"}}},
{"geometry": {"type": "Point", "coordinates": [-84.1769181152, 42.9994902979]}, "type": "Feature", "properties": {"collection_times": [{"days": "Mon-Sat", "time": "2:55pm"}, {"days": "Sun", "time": "Closed"}], "id": "4886700054", "name": "USPS COLLECTION BOX - PO LOBBY", "address": {"city": "OWOSSO", "state": "MI", "street": "319 N WASHINGTON ST", "postcode": "48867"}}},
{"geometry": {"type": "Point", "coordinates": [-84.679309256, 43.181908453]}, "type": "Feature", "properties": {"collection_times": [{"days": "Mon-Fri", "time": "1:45pm"}, {"days": "Sat", "time": "10:00am"}, {"days": "Sun", "time": "Closed"}], "id": "4887100000", "name": "USPS COLLECTION BOX - BLUE BOX", "address": {"city": "PERRINTON", "state": "MI", "street": "128 S ROBINSON ST", "postcode": "48871"}}},
{"geometry": {"type": "Point", "coordinates": [-84.679309256, 43.181908453]}, "type": "Feature", "properties": {"collection_times": [{"days": "Mon-Fri", "time": "1:45pm"}, {"days": "Sat", "time": "10:00am"}, {"days": "Sun", "time": "Closed"}], "id": "4887100001", "name": "USPS COLLECTION BOX - PO LOBBY", "address": {"city": "PERRINTON", "state": "MI", "street": "128 S ROBINSON ST", "postcode": "48871"}}},
{"geometry": {"type": "Point", "coordinates": [-84.2192426817, 42.8303927951]}, "type": "Feature", "properties": {"collection_times": [{"days": "Mon-Sat", "time": "12:00pm"}, {"days": "Sun", "time": "Closed"}], "id": "4887200004", "name": "USPS COLLECTION BOX - BLUE BOX", "address": {"city": "PERRY", "state": "MI", "street": "520 N MAIN", "postcode": "48872"}}},
{"geometry": {"type": "Point", "coordinates": [-84.219093147, 42.82634392]}, "type": "Feature", "properties": {"collection_times": [{"days": "Mon-Fri", "time": "1:50pm"}, {"days": "Sat", "time": "10:30am"}, {"days": "Sun", "time": "Closed"}], "id": "4887200005", "name": "USPS COLLECTION BOX - PO LOBBY", "address": {"city": "PERRY", "state": "MI", "street": "200 N MAIN", "postcode": "48872"}}},
{"geometry": {"type": "Point", "coordinates": [-84.219093147, 42.82634392]}, "type": "Feature", "properties": {"collection_times": [{"days": "Mon-Fri", "time": "1:50pm"}, {"days": "Sat", "time": "10:30am"}, {"days": "Sun", "time": "Closed"}], "id": "4887200006", "name": "USPS COLLECTION BOX - BLUE BOX", "address": {"city": "PERRY", "state": "MI", "street": "200 N MAIN", "postcode": "48872"}}},
{"geometry": {"type": "Point", "coordinates": [-84.2199987356, 42.8358865437]}, "type": "Feature", "properties": {"collection_times": [{"days": "Mon-Sat", "time": "11:00am"}, {"days": "Sun", "time": "Closed"}], "id": "4887200008", "name": "USPS COLLECTION BOX - BLUE BOX", "address": {"city": "PERRY", "state": "MI", "street": "3034 LANSING RD", "postcode": "48872"}}},
{"geometry": {"type": "Point", "coordinates": [-84.84602124, 43.001246333]}, "type": "Feature", "properties": {"collection_times": [{"days": "Mon-Fri", "time": "2:30pm"}, {"days": "Sat", "time": "9:00am"}, {"days": "Sun", "time": "Closed"}], "id": "4887300001", "name": "USPS COLLECTION BOX - BLUE BOX", "address": {"city": "PEWAMO", "state": "MI", "street": "154 E MAIN ST", "postcode": "48873"}}},
{"geometry": {"type": "Point", "coordinates": [-84.84602124, 43.001246333]}, "type": "Feature", "properties": {"collection_times": [{"days": "Mon-Fri", "time": "2:30pm"}, {"days": "Sat", "time": "9:00am"}, {"days": "Sun", "time": "Closed"}], "id": "4887300002", "name": "USPS COLLECTION BOX - PO LOBBY", "address": {"city": "PEWAMO", "state": "MI", "street": "154 E MAIN ST", "postcode": "48873"}}},
{"geometry": {"type": "Point", "coordinates": [-84.5955985, 43.178698289]}, "type": "Feature", "properties": {"collection_times": [{"days": "Mon-Fri", "time": "2:00pm"}, {"days": "Sat", "time": "9:00am"}, {"days": "Sun", "time": "Closed"}], "id": "4887400001", "name": "USPS COLLECTION BOX - BLUE BOX", "address": {"city": "POMPEII", "state": "MI", "street": "103 E FULTON ST", "postcode": "48874"}}},
{"geometry": {"type": "Point", "coordinates": [-84.5955985, 43.178698289]}, "type": "Feature", "properties": {"collection_times": [{"days": "Mon-Fri", "time": "2:00pm"}, {"days": "Sat", "time": "9:00am"}, {"days": "Sun", "time": "Closed"}], "id": "4887400002", "name": "USPS COLLECTION BOX - PO LOBBY", "address": {"city": "POMPEII", "state": "MI", "street": "103 E FULTON ST", "postcode": "48874"}}},
{"geometry": {"type": "Point", "coordinates": [-84.896927898, 42.869607355]}, "type": "Feature", "properties": {"collection_times": [{"days": "Mon-Fri", "time": "3:25pm"}, {"days": "Sat", "time": "11:00am"}, {"days": "Sun", "time": "Closed"}], "id": "4887500002", "name": "USPS COLLECTION BOX - BLUE BOX", "address": {"city": "PORTLAND", "state": "MI", "street": "235 N LINCOLN ST", "postcode": "48875"}}},
{"geometry": {"type": "Point", "coordinates": [-84.8912861354, 42.8661145456]}, "type": "Feature", "properties": {"collection_times": [{"days": "Mon-Sat", "time": "1:30pm"}, {"days": "Sun", "time": "Closed"}], "id": "4887500003", "name": "USPS COLLECTION BOX - BLUE BOX", "address": {"city": "PORTLAND", "state": "MI", "street": "1462 E GRAND RIVER AVE", "postcode": "48875"}}},
{"geometry": {"type": "Point", "coordinates": [-84.9032311731, 42.8697029467]}, "type": "Feature", "properties": {"collection_times": [{"days": "Mon-Sat", "time": "11:00am"}, {"days": "Sun", "time": "Closed"}], "id": "4887500005", "name": "USPS COLLECTION BOX - BLUE BOX", "address": {"city": "PORTLAND", "state": "MI", "street": "180 KENT ST", "postcode": "48875"}}},
{"geometry": {"type": "Point", "coordinates": [-84.896927898, 42.869607355]}, "type": "Feature", "properties": {"collection_times": [{"days": "Mon-Fri", "time": "3:25pm"}, {"days": "Sat", "time": "11:00am"}, {"days": "Sun", "time": "Closed"}], "id": "4887500010", "name": "USPS COLLECTION BOX - BLUE BOX", "address": {"city": "PORTLAND", "state": "MI", "street": "235 N LINCOLN ST", "postcode": "48875"}}},
{"geometry": {"type": "Point", "coordinates": [-84.896927898, 42.869607355]}, "type": "Feature", "properties": {"collection_times": [{"days": "Mon-Fri", "time": "3:25pm"}, {"days": "Sat", "time": "11:00am"}, {"days": "Sun", "time": "Closed"}], "id": "4887500011", "name": "USPS COLLECTION BOX - PO LOBBY", "address": {"city": "PORTLAND", "state": "MI", "street": "235 N LINCOLN ST", "postcode": "48875"}}},
{"geometry": {"type": "Point", "coordinates": [-84.742807901, 42.62889914]}, "type": "Feature", "properties": {"collection_times": [{"days": "Mon-Fri", "time": "4:00pm"}, {"days": "Sat", "time": "12:00pm"}, {"days": "Sun", "time": "Closed"}], "id": "4887600001", "name": "USPS COLLECTION BOX - BLUE BOX", "address": {"city": "POTTERVILLE", "state": "MI", "street": "319 N DUNBAR ST", "postcode": "48876"}}},
{"geometry": {"type": "Point", "coordinates": [-84.7406653395, 42.6227511249]}, "type": "Feature", "properties": {"collection_times": [{"days": "Mon-Fri", "time": "10:00am"}, {"days": "Sat", "time": "9:30am"}, {"days": "Sun", "time": "Closed"}], "id": "4887600003", "name": "USPS COLLECTION BOX - BLUE BOX", "address": {"city": "POTTERVILLE", "state": "MI", "street": "117 E LANSING RD", "postcode": "48876"}}},
{"geometry": {"type": "Point", "coordinates": [-84.742807901, 42.62889914]}, "type": "Feature", "properties": {"collection_times": [{"days": "Mon-Fri", "time": "4:00pm"}, {"days": "Sat", "time": "12:00pm"}, {"days": "Sun", "time": "Closed"}], "id": "4887600006", "name": "USPS COLLECTION BOX - PO LOBBY", "address": {"city": "POTTERVILLE", "state": "MI", "street": "319 N DUNBAR ST", "postcode": "48876"}}},
{"geometry": {"type": "Point", "coordinates": [-84.835971149, 43.390440405]}, "type": "Feature", "properties": {"collection_times": [{"days": "Mon-Fri", "time": "2:50pm"}, {"days": "Sat", "time": "10:00am"}, {"days": "Sun", "time": "Closed"}], "id": "4887700001", "name": "USPS COLLECTION BOX - BLUE BOX", "address": {"city": "RIVERDALE", "state": "MI", "street": "6728 N LUMBERJACK RD", "postcode": "48877"}}},
{"geometry": {"type": "Point", "coordinates": [-84.835971149, 43.390440405]}, "type": "Feature", "properties": {"collection_times": [{"days": "Mon-Fri", "time": "2:50pm"}, {"days": "Sat", "time": "10:00am"}, {"days": "Sun", "time": "Closed"}], "id": "4887700002", "name": "USPS COLLECTION BOX - PO LOBBY", "address": {"city": "RIVERDALE", "state": "MI", "street": "6728 N LUMBERJACK RD", "postcode": "48877"}}},
{"geometry": {"type": "Point", "coordinates": [-84.76951704, 43.698519517]}, "type": "Feature", "properties": {"collection_times": [{"days": "Mon-Fri", "time": "1:45pm"}, {"days": "Sat", "time": "9:00am"}, {"days": "Sun", "time": "Closed"}], "id": "4887800001", "name": "USPS COLLECTION BOX - BLUE BOX", "address": {"city": "ROSEBUSH", "state": "MI", "street": "3905 E ROSEBUSH RD", "postcode": "48878"}}},
{"geometry": {"type": "Point", "coordinates": [-84.76951704, 43.698519517]}, "type": "Feature", "properties": {"collection_times": [{"days": "Mon-Fri", "time": "1:45pm"}, {"days": "Sat", "time": "9:00am"}, {"days": "Sun", "time": "Closed"}], "id": "4887800002", "name": "USPS COLLECTION BOX - PO LOBBY", "address": {"city": "ROSEBUSH", "state": "MI", "street": "3905 E ROSEBUSH RD", "postcode": "48878"}}},
{"geometry": {"type": "Point", "coordinates": [-84.5462831797, 42.9922064557]}, "type": "Feature", "properties": {"collection_times": [{"days": "Mon-Fri", "time": "2:00pm"}, {"days": "Sat", "time": "1:00pm"}, {"days": "Sun", "time": "Closed"}], "id": "4887900004", "name": "USPS COLLECTION BOX - BLUE BOX", "address": {"city": "SAINT JOHNS", "state": "MI", "street": "1031 S US HIGHWAY 27", "postcode": "48879"}}},
{"geometry": {"type": "Point", "coordinates": [-84.5464783244, 43.0012967083]}, "type": "Feature", "properties": {"collection_times": [{"days": "Mon-Fri", "time": "2:00pm"}, {"days": "Sat", "time": "10:00am"}, {"days": "Sun", "time": "Closed"}], "id": "4887900005", "name": "USPS COLLECTION BOX - BLUE BOX", "address": {"city": "SAINT JOHNS", "state": "MI", "street": "911 E STATE ST", "postcode": "48879"}}},
{"geometry": {"type": "Point", "coordinates": [-84.5666093937, 42.9722811555]}, "type": "Feature", "properties": {"collection_times": [{"days": "Mon-Sat", "time": "9:30am"}, {"days": "Sun", "time": "Closed"}], "id": "4887900006", "name": "USPS COLLECTION BOX - BLUE BOX", "address": {"city": "SAINT JOHNS", "state": "MI", "street": "2265 W PARKS RD", "postcode": "48879"}}},
{"geometry": {"type": "Point", "coordinates": [-84.5583273582, 43.0034719666]}, "type": "Feature", "properties": {"collection_times": [{"days": "Mon-Fri", "time": "2:00pm"}, {"days": "Sat", "time": "1:30pm"}, {"days": "Sun", "time": "Closed"}], "id": "4887900013", "name": "USPS COLLECTION BOX - BLUE BOX", "address": {"city": "SAINT JOHNS", "state": "MI", "street": "300 N CLINTON AVE", "postcode": "48879"}}},
{"geometry": {"type": "Point", "coordinates": [-84.5490821638, 42.9939405417]}, "type": "Feature", "properties": {"collection_times": [{"days": "Mon-Fri", "time": "2:00pm"}, {"days": "Sat", "time": "1:30pm"}, {"days": "Sun", "time": "Closed"}], "id": "4887900017", "name": "USPS COLLECTION BOX - BLUE BOX", "address": {"city": "SAINT JOHNS", "state": "MI", "street": "800 S US HIGHWAY 27", "postcode": "48879"}}},
{"geometry": {"type": "Point", "coordinates": [-84.559004871, 43.001475907]}, "type": "Feature", "properties": {"collection_times": [{"days": "Mon-Fri", "time": "3:40pm"}, {"days": "Sat", "time": "3:30pm"}, {"days": "Sun", "time": "Closed"}], "id": "4887900021", "name": "USPS COLLECTION BOX - BLUE BOX", "address": {"city": "SAINT JOHNS", "state": "MI", "street": "106 W STATE ST", "postcode": "48879"}}},
{"geometry": {"type": "Point", "coordinates": [-84.559004871, 43.001475907]}, "type": "Feature", "properties": {"collection_times": [{"days": "Mon-Fri", "time": "3:40pm"}, {"days": "Sat", "time": "3:30pm"}, {"days": "Sun", "time": "Closed"}], "id": "4887900022", "name": "USPS COLLECTION BOX - PO LOBBY", "address": {"city": "SAINT JOHNS", "state": "MI", "street": "106 W STATE ST", "postcode": "48879"}}},
{"geometry": {"type": "Point", "coordinates": [-84.559004871, 43.001475907]}, "type": "Feature", "properties": {"collection_times": [{"days": "Mon-Fri", "time": "3:40pm"}, {"days": "Sat", "time": "3:30pm"}, {"days": "Sun", "time": "Closed"}], "id": "4887900023", "name": "USPS COLLECTION BOX - BLUE BOX", "address": {"city": "SAINT JOHNS", "state": "MI", "street": "106 W STATE ST", "postcode": "48879"}}},
{"geometry": {"type": "Point", "coordinates": [-84.5572221187, 43.0138092749]}, "type": "Feature", "properties": {"collection_times": [{"days": "Mon-Sat", "time": "12:00pm"}, {"days": "Sun", "time": "Closed"}], "id": "4887900024", "name": "USPS COLLECTION BOX - BLUE BOX", "address": {"city": "SAINT JOHNS", "state": "MI", "street": "1200 ZEEB DR", "postcode": "48879"}}},
{"geometry": {"type": "Point", "coordinates": [-84.558466982, 43.0013634897]}, "type": "Feature", "properties": {"collection_times": [{"days": "Mon-Fri", "time": "2:00pm"}, {"days": "Sat", "time": "1:30pm"}, {"days": "Sun", "time": "Closed"}], "id": "4887900026", "name": "USPS COLLECTION BOX - BLUE BOX", "address": {"city": "SAINT JOHNS", "state": "MI", "street": "100 E STATE ST", "postcode": "48879"}}},
{"geometry": {"type": "Point", "coordinates": [-84.559004871, 43.001475907]}, "type": "Feature", "properties": {"collection_times": [{"days": "Mon-Fri", "time": "3:40pm"}, {"days": "Sat", "time": "3:00pm"}, {"days": "Sun", "time": "Closed"}], "id": "4887900027", "name": "USPS COLLECTION BOX - BLUE BOX", "address": {"city": "SAINT JOHNS", "state": "MI", "street": "106 W STATE ST", "postcode": "48879"}}},
{"geometry": {"type": "Point", "coordinates": [-84.60908582, 43.410525366]}, "type": "Feature", "properties": {"collection_times": [{"days": "Mon-Fri", "time": "3:10pm"}, {"days": "Sat", "time": "10:00am"}, {"days": "Sun", "time": "Closed"}], "id": "4888000003", "name": "USPS COLLECTION BOX - BLUE BOX", "address": {"city": "SAINT LOUIS", "state": "MI", "street": "217 W CENTER ST", "postcode": "48880"}}},
{"geometry": {"type": "Point", "coordinates": [-84.60908582, 43.410525366]}, "type": "Feature", "properties": {"collection_times": [{"days": "Mon-Fri", "time": "3:10pm"}, {"days": "Sat", "time": "10:00am"}, {"days": "Sun", "time": "Closed"}], "id": "4888000004", "name": "USPS COLLECTION BOX - BLUE BOX", "address": {"city": "SAINT LOUIS", "state": "MI", "street": "217 W CENTER ST", "postcode": "48880"}}},
{"geometry": {"type": "Point", "coordinates": [-84.6073377094, 43.4091533119]}, "type": "Feature", "properties": {"collection_times": [{"days": "Mon-Sat", "time": "10:00am"}, {"days": "Sun", "time": "Closed"}], "id": "4888000006", "name": "USPS COLLECTION BOX - BLUE BOX", "address": {"city": "SAINT LOUIS", "state": "MI", "street": "111 W SAGINAW ST", "postcode": "48880"}}},
{"geometry": {"type": "Point", "coordinates": [-84.6086494389, 43.41079314]}, "type": "Feature", "properties": {"collection_times": [{"days": "Mon-Sat", "time": "10:00am"}, {"days": "Sun", "time": "Closed"}], "id": "4888000007", "name": "USPS COLLECTION BOX - BLUE BOX", "address": {"city": "SAINT LOUIS", "state": "MI", "street": "320 N MILL ST", "postcode": "48880"}}},
{"geometry": {"type": "Point", "coordinates": [-84.60908582, 43.410525366]}, "type": "Feature", "properties": {"collection_times": [{"days": "Mon-Fri", "time": "3:10pm"}, {"days": "Sat", "time": "10:00am"}, {"days": "Sun", "time": "Closed"}], "id": "4888000008", "name": "USPS COLLECTION BOX - PO LOBBY", "address": {"city": "SAINT LOUIS", "state": "MI", "street": "217 W CENTER ST", "postcode": "48880"}}},
{"geometry": {"type": "Point", "coordinates": [-85.2031593898, 42.9324439129]}, "type": "Feature", "properties": {"collection_times": [{"days": "Mon-Fri", "time": "3:30pm"}, {"days": "Sat", "time": "12:00pm"}, {"days": "Sun", "time": "Closed"}], "id": "4888100010", "name": "USPS COLLECTION BOX - BLUE BOX", "address": {"city": "SARANAC", "state": "MI", "street": "29 IRV TAYLOR ST", "postcode": "48881"}}},
{"geometry": {"type": "Point", "coordinates": [-85.213339009, 42.930650804]}, "type": "Feature", "properties": {"collection_times": [{"days": "Mon-Fri", "time": "3:45pm"}, {"days": "Sat", "time": "12:00pm"}, {"days": "Sun", "time": "Closed"}], "id": "4888100012", "name": "USPS COLLECTION BOX - PO LOBBY", "address": {"city": "SARANAC", "state": "MI", "street": "29 N BRIDGE ST", "postcode": "48881"}}},
{"geometry": {"type": "Point", "coordinates": [-85.2158212618, 42.9379228384]}, "type": "Feature", "properties": {"collection_times": [{"days": "Mon-Sat", "time": "11:00am"}, {"days": "Sun", "time": "Closed"}], "id": "4888100013", "name": "USPS COLLECTION BOX - BLUE BOX", "address": {"city": "SARANAC", "state": "MI", "street": "7071 BLUEWATER HWY", "postcode": "48881"}}},
{"geometry": {"type": "Point", "coordinates": [-84.292999282, 42.804697596]}, "type": "Feature", "properties": {"collection_times": [{"days": "Mon-Fri", "time": "2:00pm"}, {"days": "Sat", "time": "9:00am"}, {"days": "Sun", "time": "Closed"}], "id": "4888200001", "name": "USPS COLLECTION BOX - BLUE BOX", "address": {"city": "SHAFTSBURG", "state": "MI", "street": "7090 W BEARD RD", "postcode": "48882"}}},
{"geometry": {"type": "Point", "coordinates": [-84.292999282, 42.804697596]}, "type": "Feature", "properties": {"collection_times": [{"days": "Mon-Fri", "time": "2:00pm"}, {"days": "Sat", "time": "9:00am"}, {"days": "Sun", "time": "Closed"}], "id": "4888200002", "name": "USPS COLLECTION BOX - PO LOBBY", "address": {"city": "SHAFTSBURG", "state": "MI", "street": "7090 W BEARD RD", "postcode": "48882"}}},
{"geometry": {"type": "Point", "coordinates": [-84.694803024, 43.524373075]}, "type": "Feature", "properties": {"collection_times": [{"days": "Mon-Fri", "time": "2:05pm"}, {"days": "Sat", "time": "11:15am"}, {"days": "Sun", "time": "Closed"}], "id": "4888300001", "name": "USPS COLLECTION BOX - BLUE BOX", "address": {"city": "SHEPHERD", "state": "MI", "street": "101 N 2ND ST", "postcode": "48883"}}},
{"geometry": {"type": "Point", "coordinates": [-84.694803024, 43.524373075]}, "type": "Feature", "properties": {"collection_times": [{"days": "Mon-Fri", "time": "2:05pm"}, {"days": "Sat", "time": "11:30am"}, {"days": "Sun", "time": "Closed"}], "id": "4888300002", "name": "USPS COLLECTION BOX - PO LOBBY", "address": {"city": "SHEPHERD", "state": "MI", "street": "101 N 2ND ST", "postcode": "48883"}}},
{"geometry": {"type": "Point", "coordinates": [-85.061837106, 43.2062838447]}, "type": "Feature", "properties": {"collection_times": [{"days": "Mon-Sat", "time": "1:00pm"}, {"days": "Sun", "time": "Closed"}], "id": "4888400002", "name": "USPS COLLECTION BOX - BLUE BOX", "address": {"city": "SHERIDAN", "state": "MI", "street": "617 E CONDENSERY RD", "postcode": "48884"}}},
{"geometry": {"type": "Point", "coordinates": [-85.073523153, 43.212289052]}, "type": "Feature", "properties": {"collection_times": [{"days": "Mon-Fri", "time": "3:45pm"}, {"days": "Sat", "time": "10:30am"}, {"days": "Sun", "time": "Closed"}], "id": "4888400003", "name": "USPS COLLECTION BOX - PO LOBBY", "address": {"city": "SHERIDAN", "state": "MI", "street": "207 S MAIN ST", "postcode": "48884"}}},
{"geometry": {"type": "Point", "coordinates": [-85.0434105853, 43.2078247264]}, "type": "Feature", "properties": {"collection_times": [{"days": "Mon-Sat", "time": "2:00pm"}, {"days": "Sun", "time": "Closed"}], "id": "4888400004", "name": "USPS COLLECTION BOX - BLUE BOX", "address": {"city": "SHERIDAN", "state": "MI", "street": "115 E EVERGREEN ST", "postcode": "48884"}}},
{"geometry": {"type": "Point", "coordinates": [-85.132369332, 43.250025839]}, "type": "Feature", "properties": {"collection_times": [{"days": "Mon-Fri", "time": "2:40pm"}, {"days": "Sat", "time": "9:00am"}, {"days": "Sun", "time": "Closed"}], "id": "4888500001", "name": "USPS COLLECTION BOX - BLUE BOX", "address": {"city": "SIDNEY", "state": "MI", "street": "2960 W SIDNEY RD", "postcode": "48885"}}},
{"geometry": {"type": "Point", "coordinates": [-85.132369332, 43.250025839]}, "type": "Feature", "properties": {"collection_times": [{"days": "Mon-Fri", "time": "2:40pm"}, {"days": "Sat", "time": "9:00am"}, {"days": "Sun", "time": "Closed"}], "id": "4888500002", "name": "USPS COLLECTION BOX - PO LOBBY", "address": {"city": "SIDNEY", "state": "MI", "street": "2960 W SIDNEY RD", "postcode": "48885"}}},
{"geometry": {"type": "Point", "coordinates": [-85.145151405, 43.430540654]}, "type": "Feature", "properties": {"collection_times": [{"days": "Mon-Fri", "time": "1:15pm"}, {"days": "Sat", "time": "10:00am"}, {"days": "Sun", "time": "Closed"}], "id": "4888600001", "name": "USPS COLLECTION BOX - BLUE BOX", "address": {"city": "SIX LAKES", "state": "MI", "street": "126 N CLARK ST", "postcode": "48886"}}},
{"geometry": {"type": "Point", "coordinates": [-85.145151405, 43.430540654]}, "type": "Feature", "properties": {"collection_times": [{"days": "Mon-Fri", "time": "1:15pm"}, {"days": "Sat", "time": "10:00am"}, {"days": "Sun", "time": "Closed"}], "id": "4888600002", "name": "USPS COLLECTION BOX - PO LOBBY", "address": {"city": "SIX LAKES", "state": "MI", "street": "126 N CLARK ST", "postcode": "48886"}}},
{"geometry": {"type": "Point", "coordinates": [-85.084836558, 43.295458836]}, "type": "Feature", "properties": {"collection_times": [{"days": "Mon-Fri", "time": "3:25pm"}, {"days": "Sat", "time": "11:00am"}, {"days": "Sun", "time": "Closed"}], "id": "4888800001", "name": "USPS COLLECTION BOX - BLUE BOX", "address": {"city": "STANTON", "state": "MI", "street": "363 N STATE ST", "postcode": "48888"}}},
{"geometry": {"type": "Point", "coordinates": [-85.1010182299, 43.292660854]}, "type": "Feature", "properties": {"collection_times": [{"days": "Mon-Fri", "time": "3:00pm"}, {"days": "Sat", "time": "10:00am"}, {"days": "Sun", "time": "Closed"}], "id": "4888800003", "name": "USPS COLLECTION BOX - BLUE BOX", "address": {"city": "STANTON", "state": "MI", "street": "200 E MAIN ST", "postcode": "48888"}}},
{"geometry": {"type": "Point", "coordinates": [-85.084836558, 43.295458836]}, "type": "Feature", "properties": {"collection_times": [{"days": "Mon-Fri", "time": "3:25pm"}, {"days": "Sat", "time": "11:00am"}, {"days": "Sun", "time": "Closed"}], "id": "4888800005", "name": "USPS COLLECTION BOX - PO LOBBY", "address": {"city": "STANTON", "state": "MI", "street": "363 N STATE ST", "postcode": "48888"}}},
{"geometry": {"type": "Point", "coordinates": [-85.0829304834, 43.2925136417]}, "type": "Feature", "properties": {"collection_times": [{"days": "Mon-Fri", "time": "3:00pm"}, {"days": "Sat", "time": "10:00am"}, {"days": "Sun", "time": "Closed"}], "id": "4888800006", "name": "USPS COLLECTION BOX - BLUE BOX", "address": {"city": "STANTON", "state": "MI", "street": "211 W MAIN ST", "postcode": "48888"}}},
{"geometry": {"type": "Point", "coordinates": [-85.0829304834, 43.2925136417]}, "type": "Feature", "properties": {"collection_times": [{"days": "Mon-Fri", "time": "3:00pm"}, {"days": "Sat", "time": "10:00am"}, {"days": "Sun", "time": "Closed"}], "id": "4888800007", "name": "USPS COLLECTION BOX - BLUE BOX", "address": {"city": "STANTON", "state": "MI", "street": "211 W MAIN ST", "postcode": "48888"}}},
{"geometry": {"type": "Point", "coordinates": [-85.084836558, 43.295458836]}, "type": "Feature", "properties": {"collection_times": [{"days": "Mon-Fri", "time": "3:25pm"}, {"days": "Sat", "time": "11:00am"}, {"days": "Sun", "time": "Closed"}], "id": "4888800008", "name": "USPS COLLECTION BOX - BLUE BOX", "address": {"city": "STANTON", "state": "MI", "street": "363 N STATE ST", "postcode": "48888"}}},
{"geometry": {"type": "Point", "coordinates": [-84.819257281, 43.306754797]}, "type": "Feature", "properties": {"collection_times": [{"days": "Mon-Fri", "time": "12:30pm"}, {"days": "Sat", "time": "10:00am"}, {"days": "Sun", "time": "Closed"}], "id": "4888900001", "name": "USPS COLLECTION BOX - BLUE BOX", "address": {"city": "SUMNER", "state": "MI", "street": "10674 W SAINT CHARLES RD", "postcode": "48889"}}},
{"geometry": {"type": "Point", "coordinates": [-84.819257281, 43.306754797]}, "type": "Feature", "properties": {"collection_times": [{"days": "Mon-Fri", "time": "12:30pm"}, {"days": "Sat", "time": "10:00am"}, {"days": "Sun", "time": "Closed"}], "id": "4888900002", "name": "USPS COLLECTION BOX - PO LOBBY", "address": {"city": "SUMNER", "state": "MI", "street": "10674 W SAINT CHARLES RD", "postcode": "48889"}}},
{"geometry": {"type": "Point", "coordinates": [-84.993319729, 42.762426709]}, "type": "Feature", "properties": {"collection_times": [{"days": "Mon-Fri", "time": "2:00pm"}, {"days": "Sat", "time": "10:00am"}, {"days": "Sun", "time": "Closed"}], "id": "4889000001", "name": "USPS COLLECTION BOX - BLUE BOX", "address": {"city": "SUNFIELD", "state": "MI", "street": "178 MAIN ST", "postcode": "48890"}}},
{"geometry": {"type": "Point", "coordinates": [-84.993319729, 42.762426709]}, "type": "Feature", "properties": {"collection_times": [{"days": "Mon-Fri", "time": "2:00pm"}, {"days": "Sat", "time": "10:00am"}, {"days": "Sun", "time": "Closed"}], "id": "4889000002", "name": "USPS COLLECTION BOX - PO LOBBY", "address": {"city": "SUNFIELD", "state": "MI", "street": "178 MAIN ST", "postcode": "48890"}}},
{"geometry": {"type": "Point", "coordinates": [-84.908229312, 43.399003694]}, "type": "Feature", "properties": {"collection_times": [{"days": "Mon-Fri", "time": "2:35pm"}, {"days": "Sat", "time": "9:30am"}, {"days": "Sun", "time": "Closed"}], "id": "4889100001", "name": "USPS COLLECTION BOX - BLUE BOX", "address": {"city": "VESTABURG", "state": "MI", "street": "8845 3RD ST", "postcode": "48891"}}},
{"geometry": {"type": "Point", "coordinates": [-84.908229312, 43.399003694]}, "type": "Feature", "properties": {"collection_times": [{"days": "Mon-Fri", "time": "2:35pm"}, {"days": "Sat", "time": "9:30am"}, {"days": "Sun", "time": "Closed"}], "id": "4889100002", "name": "USPS COLLECTION BOX - PO LOBBY", "address": {"city": "VESTABURG", "state": "MI", "street": "8845 3RD ST", "postcode": "48891"}}},
{"geometry": {"type": "Point", "coordinates": [-84.9152779349, 43.4032412904]}, "type": "Feature", "properties": {"collection_times": [{"days": "Mon-Fri", "time": "12:00pm"}, {"days": "Sat", "time": "9:30am"}, {"days": "Sun", "time": "Closed"}], "id": "4889100003", "name": "USPS COLLECTION BOX - BLUE BOX", "address": {"city": "VESTABURG", "state": "MI", "street": "9002 E HOWARD CITY EDMORE RD", "postcode": "48891"}}},
{"geometry": {"type": "Point", "coordinates": [-84.176040806, 42.667026993]}, "type": "Feature", "properties": {"collection_times": [{"days": "Mon-Fri", "time": "3:05pm"}, {"days": "Sat", "time": "11:00am"}, {"days": "Sun", "time": "Closed"}], "id": "4889200001", "name": "USPS COLLECTION BOX - BLUE BOX", "address": {"city": "WEBBERVILLE", "state": "MI", "street": "216 W GRAND RIVER RD", "postcode": "48892"}}},
{"geometry": {"type": "Point", "coordinates": [-84.1541860905, 42.6361049653]}, "type": "Feature", "properties": {"collection_times": [{"days": "Mon-Sat", "time": "9:30am"}, {"days": "Sun", "time": "Closed"}], "id": "4889200002", "name": "USPS COLLECTION BOX - BLUE BOX", "address": {"city": "WEBBERVILLE", "state": "MI", "street": "5325 VAN ORDEN RD", "postcode": "48892"}}},
{"geometry": {"type": "Point", "coordinates": [-84.176040806, 42.667026993]}, "type": "Feature", "properties": {"collection_times": [{"days": "Mon-Fri", "time": "3:05pm"}, {"days": "Sat", "time": "11:00am"}, {"days": "Sun", "time": "Closed"}], "id": "4889200003", "name": "USPS COLLECTION BOX - PO LOBBY", "address": {"city": "WEBBERVILLE", "state": "MI", "street": "216 W GRAND RIVER RD", "postcode": "48892"}}},
{"geometry": {"type": "Point", "coordinates": [-84.1982100848, 42.6620063637]}, "type": "Feature", "properties": {"collection_times": [{"days": "Mon-Sat", "time": "1:00pm"}, {"days": "Sun", "time": "Closed"}], "id": "4889200005", "name": "USPS COLLECTION BOX - BLUE BOX", "address": {"city": "WEBBERVILLE", "state": "MI", "street": "2524 N M 52", "postcode": "48892"}}},
{"geometry": {"type": "Point", "coordinates": [-84.968558148, 43.687469591]}, "type": "Feature", "properties": {"collection_times": [{"days": "Mon-Fri", "time": "1:20pm"}, {"days": "Sat", "time": "10:00am"}, {"days": "Sun", "time": "Closed"}], "id": "4889300001", "name": "USPS COLLECTION BOX - BLUE BOX", "address": {"city": "WEIDMAN", "state": "MI", "street": "3366 N WOODRUFF RD", "postcode": "48893"}}},
{"geometry": {"type": "Point", "coordinates": [-84.968558148, 43.687469591]}, "type": "Feature", "properties": {"collection_times": [{"days": "Mon-Fri", "time": "1:20pm"}, {"days": "Sat", "time": "10:00am"}, {"days": "Sun", "time": "Closed"}], "id": "4889300002", "name": "USPS COLLECTION BOX - PO LOBBY", "address": {"city": "WEIDMAN", "state": "MI", "street": "3366 N WOODRUFF RD", "postcode": "48893"}}},
{"geometry": {"type": "Point", "coordinates": [-84.799991039, 42.929292095]}, "type": "Feature", "properties": {"collection_times": [{"days": "Mon-Fri", "time": "2:50pm"}, {"days": "Sat", "time": "10:15am"}, {"days": "Sun", "time": "Closed"}], "id": "4889400004", "name": "USPS COLLECTION BOX - PO LOBBY", "address": {"city": "WESTPHALIA", "state": "MI", "street": "115 W MAIN ST", "postcode": "48894"}}},
{"geometry": {"type": "Point", "coordinates": [-84.799991039, 42.929292095]}, "type": "Feature", "properties": {"collection_times": [{"days": "Mon-Fri", "time": "2:50pm"}, {"days": "Sat", "time": "10:15am"}, {"days": "Sun", "time": "Closed"}], "id": "4889400005", "name": "USPS COLLECTION BOX - BLUE BOX", "address": {"city": "WESTPHALIA", "state": "MI", "street": "115 W MAIN ST", "postcode": "48894"}}},
{"geometry": {"type": "Point", "coordinates": [-84.282891617, 42.6890964065]}, "type": "Feature", "properties": {"collection_times": [{"days": "Mon-Fri", "time": "12:00pm"}, {"days": "Sat", "time": "11:30am"}, {"days": "Sun", "time": "Closed"}], "id": "4889500001", "name": "USPS COLLECTION BOX - BLUE BOX", "address": {"city": "WILLIAMSTON", "state": "MI", "street": "110 E GRAND RIVER AVE", "postcode": "48895"}}},
{"geometry": {"type": "Point", "coordinates": [-84.311870634, 42.691076267]}, "type": "Feature", "properties": {"collection_times": [{"days": "Mon-Fri", "time": "3:20pm"}, {"days": "Sat", "time": "12:30pm"}, {"days": "Sun", "time": "Closed"}], "id": "4889500002", "name": "USPS COLLECTION BOX - BLUE BOX", "address": {"city": "WILLIAMSTON", "state": "MI", "street": "1295 E GRAND RIVER RD", "postcode": "48895"}}},
{"geometry": {"type": "Point", "coordinates": [-84.2823094938, 42.6721847292]}, "type": "Feature", "properties": {"collection_times": [{"days": "Mon-Sat", "time": "12:30pm"}, {"days": "Sun", "time": "Closed"}], "id": "4889500003", "name": "USPS COLLECTION BOX - BLUE BOX", "address": {"city": "WILLIAMSTON", "state": "MI", "street": "301 WILLIAMSTON CENTER RD", "postcode": "48895"}}},
{"geometry": {"type": "Point", "coordinates": [-84.2843412204, 42.6888817524]}, "type": "Feature", "properties": {"collection_times": [{"days": "Mon-Fri", "time": "2:00pm"}, {"days": "Sat", "time": "12:30pm"}, {"days": "Sun", "time": "Closed"}], "id": "4889500006", "name": "USPS COLLECTION BOX - BLUE BOX", "address": {"city": "WILLIAMSTON", "state": "MI", "street": "151 W GRAND RIVER AVE", "postcode": "48895"}}},
{"geometry": {"type": "Point", "coordinates": [-84.311870634, 42.691076267]}, "type": "Feature", "properties": {"collection_times": [{"days": "Mon-Fri", "time": "3:20pm"}, {"days": "Sat", "time": "12:30pm"}, {"days": "Sun", "time": "Closed"}], "id": "4889500007", "name": "USPS COLLECTION BOX - PO LOBBY", "address": {"city": "WILLIAMSTON", "state": "MI", "street": "1295 E GRAND RIVER RD", "postcode": "48895"}}},
{"geometry": {"type": "Point", "coordinates": [-84.3162905976, 42.7295412611]}, "type": "Feature", "properties": {"collection_times": [{"days": "Mon-Sat", "time": "10:00am"}, {"days": "Sun", "time": "Closed"}], "id": "4889500008", "name": "USPS COLLECTION BOX - BLUE BOX", "address": {"city": "WILLIAMSTON", "state": "MI", "street": "4990 ZIMMER RD", "postcode": "48895"}}},
{"geometry": {"type": "Point", "coordinates": [-84.902956694, 43.525146119]}, "type": "Feature", "properties": {"collection_times": [{"days": "Mon-Fri", "time": "12:30pm"}, {"days": "Sat", "time": "9:00am"}, {"days": "Sun", "time": "Closed"}], "id": "4889600001", "name": "USPS COLLECTION BOX - BLUE BOX", "address": {"city": "WINN", "state": "MI", "street": "2855 W BLANCHARD RD", "postcode": "48896"}}},
{"geometry": {"type": "Point", "coordinates": [-84.902956694, 43.525146119]}, "type": "Feature", "properties": {"collection_times": [{"days": "Mon-Fri", "time": "12:30pm"}, {"days": "Sat", "time": "9:00am"}, {"days": "Sun", "time": "Closed"}], "id": "4889600002", "name": "USPS COLLECTION BOX - PO LOBBY", "address": {"city": "WINN", "state": "MI", "street": "2855 W BLANCHARD RD", "postcode": "48896"}}},
{"geometry": {"type": "Point", "coordinates": [-85.134143546, 42.727529854]}, "type": "Feature", "properties": {"collection_times": [{"days": "Mon-Fri", "time": "2:00pm"}, {"days": "Sat", "time": "9:00am"}, {"days": "Sun", "time": "Closed"}], "id": "4889700001", "name": "USPS COLLECTION BOX - BLUE BOX", "address": {"city": "WOODLAND", "state": "MI", "street": "134 N MAIN ST", "postcode": "48897"}}},
{"geometry": {"type": "Point", "coordinates": [-85.134143546, 42.727529854]}, "type": "Feature", "properties": {"collection_times": [{"days": "Mon-Fri", "time": "2:00pm"}, {"days": "Sat", "time": "9:00am"}, {"days": "Sun", "time": "Closed"}], "id": "4889700002", "name": "USPS COLLECTION BOX - PO LOBBY", "address": {"city": "WOODLAND", "state": "MI", "street": "134 N MAIN ST", "postcode": "48897"}}}
]}
