{"type": "FeatureCollection", "features": [
{"geometry": {"type": "Point", "coordinates": [-84.5622384928, 42.7488674002]}, "type": "Feature", "properties": {"collection_times": [{"days": "Mon-Sat", "time": "1:00pm"}, {"days": "Sun", "time": "Closed"}], "id": "4890600005", "name": "USPS COLLECTION BOX - BLUE BOX", "address": {"city": "LANSING", "state": "MI", "street": "736 W WILLOW ST", "postcode": "48906"}}},
{"geometry": {"type": "Point", "coordinates": [-84.5190982699, 42.784179739]}, "type": "Feature", "properties": {"collection_times": [{"days": "Mon-Sat", "time": "1:00pm"}, {"days": "Sun", "time": "Closed"}], "id": "4890600007", "name": "USPS COLLECTION BOX - BLUE BOX", "address": {"city": "LANSING", "state": "MI", "street": "2201 E STATE RD", "postcode": "48906"}}},
{"geometry": {"type": "Point", "coordinates": [-84.516770424, 42.7840654462]}, "type": "Feature", "properties": {"collection_times": [{"days": "Mon-Sat", "time": "1:00pm"}, {"days": "Sun", "time": "Closed"}], "id": "4890600008", "name": "USPS COLLECTION BOX - BLUE BOX", "address": {"city": "LANSING", "state": "MI", "street": "2300 E STATE RD", "postcode": "48906"}}},
{"geometry": {"type": "Point", "coordinates": [-84.5425972002, 42.7856918321]}, "type": "Feature", "properties": {"collection_times": [{"days": "Mon-Sat", "time": "1:45pm"}, {"days": "Sun", "time": "Closed"}], "id": "4890600010", "name": "USPS COLLECTION BOX - BLUE BOX", "address": {"city": "LANSING", "state": "MI", "street": "16795 S US HIGHWAY 27", "postcode": "48906"}}},
{"geometry": {"type": "Point", "coordinates": [-84.5494876869, 42.7473716817]}, "type": "Feature", "properties": {"collection_times": [{"days": "Mon-Sat", "time": "2:45pm"}, {"days": "Sun", "time": "Closed"}], "id": "4890600011", "name": "USPS COLLECTION BOX - BLUE BOX", "address": {"city": "LANSING", "state": "MI", "street": "226 E GRAND RIVER AVE", "postcode": "48906"}}},
{"geometry": {"type": "Point", "coordinates": [-84.5443748075, 42.757994615]}, "type": "Feature", "properties": {"collection_times": [{"days": "Mon-Fri", "time": "11:15am"}, {"days": "Sat", "time": "11:00am"}, {"days": "Sun", "time": "Closed"}], "id": "4890600012", "name": "USPS COLLECTION BOX - BLUE BOX", "address": {"city": "LANSING", "state": "MI", "street": "600 E THOMAS ST", "postcode": "48906"}}},
{"geometry": {"type": "Point", "coordinates": [-84.5544603337, 42.7600039965]}, "type": "Feature", "properties": {"collection_times": [{"days": "Mon-Fri", "time": "11:15am"}, {"days": "Sat", "time": "11:00am"}, {"days": "Sun", "time": "Closed"}], "id": "4890600013", "name": "USPS COLLECTION BOX - BLUE BOX", "address": {"city": "LANSING", "state": "MI", "street": "2601 TURNER ST", "postcode": "48906"}}},
{"geometry": {"type": "Point", "coordinates": [-84.5887719569, 42.7674603413]}, "type": "Feature", "properties": {"collection_times": [{"days": "Mon-Sat", "time": "2:30pm"}, {"days": "Sun", "time": "Closed"}], "id": "4890600014", "name": "USPS COLLECTION BOX - BLUE BOX", "address": {"city": "LANSING", "state": "MI", "street": "3400 CAPITOL CITY BLVD", "postcode": "48906"}}},
{"geometry": {"type": "Point", "coordinates": [-84.5426920439, 42.7955474748]}, "type": "Feature", "properties": {"collection_times": [{"days": "Mon-Fri", "time": "1:45pm"}, {"days": "Sat", "time": "1:30pm"}, {"days": "Sun", "time": "Closed"}], "id": "4890600018", "name": "USPS COLLECTION BOX - BLUE BOX", "address": {"city": "LANSING", "state": "MI", "street": "15431 S US HIGHWAY 27", "postcode": "48906"}}},
{"geometry": {"type": "Point", "coordinates": [-84.5538171595, 42.7448767845]}, "type": "Feature", "properties": {"collection_times": [{"days": "Mon-Sat", "time": "1:00pm"}, {"days": "Sun", "time": "Closed"}], "id": "4890600021", "name": "USPS COLLECTION BOX - BLUE BOX", "address": {"city": "LANSING", "state": "MI", "street": "1001 N CAPITOL AVE", "postcode": "48906"}}},
{"geometry": {"type": "Point", "coordinates": [-84.5887719569, 42.7674603413]}, "type": "Feature", "properties": {"collection_times": [{"days": "Mon-Sat", "time": "2:30pm"}, {"days": "Sun", "time": "Closed"}], "id": "4890600027", "name": "USPS COLLECTION BOX - BLUE BOX", "address": {"city": "LANSING", "state": "MI", "street": "3400 CAPITOL CITY BLVD", "postcode": "48906"}}},
{"geometry": {"type": "Point", "coordinates": [-84.5707924226, 42.7611823129]}, "type": "Feature", "properties": {"collection_times": [{"days": "Mon-Sat", "time": "1:00pm"}, {"days": "Sun", "time": "Closed"}], "id": "4890600029", "name": "USPS COLLECTION BOX - BLUE BOX", "address": {"city": "LANSING", "state": "MI", "street": "2810 N GRAND RIVER AVE", "postcode": "48906"}}},
{"geometry": {"type": "Point", "coordinates": [-84.5983510584, 42.7688337348]}, "type": "Feature", "properties": {"collection_times": [{"days": "Mon-Sat", "time": "2:30pm"}, {"days": "Sun", "time": "Closed"}], "id": "4890600033", "name": "USPS COLLECTION BOX - BLUE BOX", "address": {"city": "LANSING", "state": "MI", "street": "5101 N GRAND RIVER AVE", "postcode": "48906"}}},
{"geometry": {"type": "Point", "coordinates": [-84.5887828721, 42.7727290284]}, "type": "Feature", "properties": {"collection_times": [{"days": "Mon-Sat", "time": "2:30pm"}, {"days": "Sun", "time": "Closed"}], "id": "4890600034", "name": "USPS COLLECTION BOX - BLUE BOX", "address": {"city": "LANSING", "state": "MI", "street": "4100 CAPITOL CITY BLVD", "postcode": "48906"}}},
{"geometry": {"type": "Point", "coordinates": [-84.5412385269, 42.7411397735]}, "type": "Feature", "properties": {"collection_times": [{"days": "Mon-Sat", "time": "3:00pm"}, {"days": "Sun", "time": "Closed"}], "id": "4890600035", "name": "USPS COLLECTION BOX - BLUE BOX", "address": {"city": "LANSING", "state": "MI", "street": "725 PRUDDEN ST", "postcode": "48906"}}},
{"geometry": {"type": "Point", "coordinates": [-84.5553292217, 42.7475013102]}, "type": "Feature", "properties": {"collection_times": [{"days": "Mon-Sat", "time": "2:45pm"}, {"days": "Sun", "time": "Closed"}], "id": "4890600037", "name": "USPS COLLECTION BOX - BLUE BOX", "address": {"city": "LANSING", "state": "MI", "street": "300 W GRAND RIVER AVE", "postcode": "48906"}}},
{"geometry": {"type": "Point", "coordinates": [-84.5306836654, 42.7841957993]}, "type": "Feature", "properties": {"collection_times": [{"days": "Mon-Fri", "time": "1:45pm"}, {"days": "Sat", "time": "1:30pm"}, {"days": "Sun", "time": "Closed"}], "id": "4890600038", "name": "USPS COLLECTION BOX - BLUE BOX", "address": {"city": "LANSING", "state": "MI", "street": "1019 E STATE RD", "postcode": "48906"}}},
{"geometry": {"type": "Point", "coordinates": [-84.5520228835, 42.7461609945]}, "type": "Feature", "properties": {"collection_times": [{"days": "Mon-Sat", "time": "3:00pm"}, {"days": "Sun", "time": "Closed"}], "id": "4890600039", "name": "USPS COLLECTION BOX - BLUE BOX", "address": {"city": "LANSING", "state": "MI", "street": "1100 N WASHINGTON AVE", "postcode": "48906"}}},
{"geometry": {"type": "Point", "coordinates": [-84.5233241547, 42.6924055987]}, "type": "Feature", "properties": {"collection_times": [{"days": "Mon-Sat", "time": "1:00pm"}, {"days": "Sun", "time": "Closed"}], "id": "4891000006", "name": "USPS COLLECTION BOX - BLUE BOX", "address": {"city": "LANSING", "state": "MI", "street": "4013 AURELIUS RD", "postcode": "48910"}}},
{"geometry": {"type": "Point", "coordinates": [-84.5371810797, 42.7118524721]}, "type": "Feature", "properties": {"collection_times": [{"days": "Mon-Sat", "time": "1:00pm"}, {"days": "Sun", "time": "Closed"}], "id": "4891000007", "name": "USPS COLLECTION BOX - BLUE BOX", "address": {"city": "LANSING", "state": "MI", "street": "1018 E MOUNT HOPE AVE", "postcode": "48910"}}},
{"geometry": {"type": "Point", "coordinates": [-84.5479987275, 42.6839112789]}, "type": "Feature", "properties": {"collection_times": [{"days": "Mon-Fri", "time": "3:00pm"}, {"days": "Sat", "time": "2:30pm"}, {"days": "Sun", "time": "Closed"}], "id": "4891000014", "name": "USPS COLLECTION BOX - BLUE BOX", "address": {"city": "LANSING", "state": "MI", "street": "5015 S CEDAR ST", "postcode": "48910"}}},
{"geometry": {"type": "Point", "coordinates": [-84.560601781, 42.7019533643]}, "type": "Feature", "properties": {"collection_times": [{"days": "Mon-Sat", "time": "1:00pm"}, {"days": "Sun", "time": "Closed"}], "id": "4891000015", "name": "USPS COLLECTION BOX - BLUE BOX", "address": {"city": "LANSING", "state": "MI", "street": "3031 S WASHINGTON AVE", "postcode": "48910"}}},
{"geometry": {"type": "Point", "coordinates": [-84.5479830317, 42.6943933439]}, "type": "Feature", "properties": {"collection_times": [{"days": "Mon-Sat", "time": "3:20pm"}, {"days": "Sun", "time": "Closed"}], "id": "4891000038", "name": "USPS COLLECTION BOX - BLUE BOX", "address": {"city": "LANSING", "state": "MI", "street": "3709 S CEDAR ST", "postcode": "48910"}}},
{"geometry": {"type": "Point", "coordinates": [-84.5480834394, 42.7051305413]}, "type": "Feature", "properties": {"collection_times": [{"days": "Mon-Sat", "time": "3:20pm"}, {"days": "Sun", "time": "Closed"}], "id": "4891000039", "name": "USPS COLLECTION BOX - BLUE BOX", "address": {"city": "LANSING", "state": "MI", "street": "2600 S CEDAR ST", "postcode": "48910"}}},
{"geometry": {"type": "Point", "coordinates": [-84.5481500515, 42.6964895683]}, "type": "Feature", "properties": {"collection_times": [{"days": "Mon-Sat", "time": "3:00pm"}, {"days": "Sun", "time": "Closed"}], "id": "4891000040", "name": "USPS COLLECTION BOX - BLUE BOX", "address": {"city": "LANSING", "state": "MI", "street": "3500 S CEDAR ST", "postcode": "48910"}}},
{"geometry": {"type": "Point", "coordinates": [-84.5664267528, 42.7148969002]}, "type": "Feature", "properties": {"collection_times": [{"days": "Mon-Sat", "time": "12:30pm"}, {"days": "Sun", "time": "Closed"}], "id": "4891000042", "name": "USPS COLLECTION BOX - BLUE BOX", "address": {"city": "LANSING", "state": "MI", "street": "1031 W BARNES AVE", "postcode": "48910"}}},
{"geometry": {"type": "Point", "coordinates": [-84.5458264621, 42.699332973]}, "type": "Feature", "properties": {"collection_times": [{"days": "Mon-Sat", "time": "1:00pm"}, {"days": "Sun", "time": "Closed"}], "id": "4891000043", "name": "USPS COLLECTION BOX - BLUE BOX", "address": {"city": "LANSING", "state": "MI", "street": "3101 BEAUJARDIN DR", "postcode": "48910"}}},
{"geometry": {"type": "Point", "coordinates": [-84.5479962623, 42.6995723644]}, "type": "Feature", "properties": {"collection_times": [{"days": "Mon-Sat", "time": "1:00pm"}, {"days": "Sun", "time": "Closed"}], "id": "4891000044", "name": "USPS COLLECTION BOX - BLUE BOX", "address": {"city": "LANSING", "state": "MI", "street": "501 BROOKLAND BLVD", "postcode": "48910"}}},
{"geometry": {"type": "Point", "coordinates": [-84.5563411784, 42.7047536208]}, "type": "Feature", "properties": {"collection_times": [{"days": "Mon-Sat", "time": "3:20pm"}, {"days": "Sun", "time": "Closed"}], "id": "4891000050", "name": "USPS COLLECTION BOX - BLUE BOX", "address": {"city": "LANSING", "state": "MI", "street": "405 W GREENLAWN AVE", "postcode": "48910"}}},
{"geometry": {"type": "Point", "coordinates": [-84.5563411784, 42.7047536208]}, "type": "Feature", "properties": {"collection_times": [{"days": "Mon-Sat", "time": "3:20pm"}, {"days": "Sun", "time": "Closed"}], "id": "4891000051", "name": "USPS COLLECTION BOX - BLUE BOX", "address": {"city": "LANSING", "state": "MI", "street": "405 W GREENLAWN AVE", "postcode": "48910"}}},
{"geometry": {"type": "Point", "coordinates": [-84.5458177721, 42.6993330189]}, "type": "Feature", "properties": {"collection_times": [{"days": "Mon-Sat", "time": "1:00pm"}, {"days": "Sun", "time": "Closed"}], "id": "4891000053", "name": "USPS COLLECTION BOX - BLUE BOX", "address": {"city": "LANSING", "state": "MI", "street": "1701 S CEDAR ST", "postcode": "48910"}}},
{"geometry": {"type": "Point", "coordinates": [-84.5700316721, 42.7102953174]}, "type": "Feature", "properties": {"collection_times": [{"days": "Mon-Sat", "time": "12:30pm"}, {"days": "Sun", "time": "Closed"}], "id": "4891000055", "name": "USPS COLLECTION BOX - BLUE BOX", "address": {"city": "LANSING", "state": "MI", "street": "2118 MARION AVE", "postcode": "48910"}}},
{"geometry": {"type": "Point", "coordinates": [-84.538045336, 42.7042481851]}, "type": "Feature", "properties": {"collection_times": [{"days": "Mon-Fri", "time": "2:00pm"}, {"days": "Sat", "time": "1:30pm"}, {"days": "Sun", "time": "Closed"}], "id": "4891000056", "name": "USPS COLLECTION BOX - BLUE BOX", "address": {"city": "LANSING", "state": "MI", "street": "2727 S PENNSYLVANIA AVE", "postcode": "48910"}}},
{"geometry": {"type": "Point", "coordinates": [-84.5822724844, 42.7120852947]}, "type": "Feature", "properties": {"collection_times": [{"days": "Mon-Sat", "time": "12:15pm"}, {"days": "Sun", "time": "Closed"}], "id": "4891000057", "name": "USPS COLLECTION BOX - BLUE BOX", "address": {"city": "LANSING", "state": "MI", "street": "1900 PLEASANT GROVE RD", "postcode": "48910"}}},
{"geometry": {"type": "Point", "coordinates": [-84.5823689891, 42.6916856336]}, "type": "Feature", "properties": {"collection_times": [{"days": "Mon-Fri", "time": "12:15pm"}, {"days": "Sat", "time": "12:00pm"}, {"days": "Sun", "time": "Closed"}], "id": "4891000058", "name": "USPS COLLECTION BOX - BLUE BOX", "address": {"city": "LANSING", "state": "MI", "street": "4110 PLEASANT GROVE RD", "postcode": "48910"}}},
{"geometry": {"type": "Point", "coordinates": [-84.5741535935, 42.6985357043]}, "type": "Feature", "properties": {"collection_times": [{"days": "Mon-Sat", "time": "3:00pm"}, {"days": "Sun", "time": "Closed"}], "id": "4891000065", "name": "USPS COLLECTION BOX - BLUE BOX", "address": {"city": "LANSING", "state": "MI", "street": "3285 EXPRESS CT", "postcode": "48910"}}},
{"geometry": {"type": "Point", "coordinates": [-84.542100741, 42.7118524721]}, "type": "Feature", "properties": {"collection_times": [{"days": "Mon-Sat", "time": "1:00pm"}, {"days": "Sun", "time": "Closed"}], "id": "4891000066", "name": "USPS COLLECTION BOX - BLUE BOX", "address": {"city": "LANSING", "state": "MI", "street": "716 E MOUNT HOPE AVE", "postcode": "48910"}}},
{"geometry": {"type": "Point", "coordinates": [-84.5646888876, 42.6974954532]}, "type": "Feature", "properties": {"collection_times": [{"days": "Mon-Sat", "time": "3:00pm"}, {"days": "Sun", "time": "Closed"}], "id": "4891000070", "name": "USPS COLLECTION BOX - BLUE BOX", "address": {"city": "LANSING", "state": "MI", "street": "913 W HOLMES RD", "postcode": "48910"}}},
{"geometry": {"type": "Point", "coordinates": [-84.5647985489, 42.6974937854]}, "type": "Feature", "properties": {"collection_times": [{"days": "Mon-Sat", "time": "3:00pm"}, {"days": "Sun", "time": "Closed"}], "id": "4891000072", "name": "USPS COLLECTION BOX - BLUE BOX", "address": {"city": "LANSING", "state": "MI", "street": "921 W HOLMES RD", "postcode": "48910"}}},
{"geometry": {"type": "Point", "coordinates": [-84.5738539343, 42.7120095672]}, "type": "Feature", "properties": {"collection_times": [{"days": "Mon-Sat", "time": "3:00pm"}, {"days": "Sun", "time": "Closed"}], "id": "4891000073", "name": "USPS COLLECTION BOX - BLUE BOX", "address": {"city": "LANSING", "state": "MI", "street": "1623 W MOUNT HOPE AVE", "postcode": "48910"}}},
{"geometry": {"type": "Point", "coordinates": [-84.5823111066, 42.6972913475]}, "type": "Feature", "properties": {"collection_times": [{"days": "Mon-Fri", "time": "12:15pm"}, {"days": "Sat", "time": "12:00pm"}, {"days": "Sun", "time": "Closed"}], "id": "4891000075", "name": "USPS COLLECTION BOX - BLUE BOX", "address": {"city": "LANSING", "state": "MI", "street": "3422 PLEASANT GROVE RD", "postcode": "48910"}}},
{"geometry": {"type": "Point", "coordinates": [-84.5645053847, 42.6999725142]}, "type": "Feature", "properties": {"collection_times": [{"days": "Mon-Sat", "time": "1:00pm"}, {"days": "Sun", "time": "Closed"}], "id": "4891000076", "name": "USPS COLLECTION BOX - BLUE BOX", "address": {"city": "LANSING", "state": "MI", "street": "914 SOUTHLAND ST", "postcode": "48910"}}},
{"geometry": {"type": "Point", "coordinates": [-84.5106703615, 42.687478062]}, "type": "Feature", "properties": {"collection_times": [{"days": "Mon-Sat", "time": "1:00pm"}, {"days": "Sun", "time": "Closed"}], "id": "4891000077", "name": "USPS COLLECTION BOX - BLUE BOX", "address": {"city": "LANSING", "state": "MI", "street": "3000 TRAPPERS COVE TRL", "postcode": "48910"}}},
{"geometry": {"type": "Point", "coordinates": [-84.5522360556, 42.7170613207]}, "type": "Feature", "properties": {"collection_times": [{"days": "Mon-Sat", "time": "3:20pm"}, {"days": "Sun", "time": "Closed"}], "id": "4891000078", "name": "USPS COLLECTION BOX - BLUE BOX", "address": {"city": "LANSING", "state": "MI", "street": "1375 S WASHINGTON AVE", "postcode": "48910"}}},
{"geometry": {"type": "Point", "coordinates": [-84.5408810711, 42.6829739296]}, "type": "Feature", "properties": {"collection_times": [{"days": "Mon-Fri", "time": "3:00pm"}, {"days": "Sat", "time": "2:30pm"}, {"days": "Sun", "time": "Closed"}], "id": "4891000082", "name": "USPS COLLECTION BOX - BLUE BOX", "address": {"city": "LANSING", "state": "MI", "street": "812 E JOLLY RD", "postcode": "48910"}}},
{"geometry": {"type": "Point", "coordinates": [-84.5068599934, 42.703167396]}, "type": "Feature", "properties": {"collection_times": [{"days": "Mon-Sat", "time": "1:00pm"}, {"days": "Sun", "time": "Closed"}], "id": "4891000086", "name": "USPS COLLECTION BOX - BLUE BOX", "address": {"city": "LANSING", "state": "MI", "street": "3120 STATEN AVE", "postcode": "48910"}}},
{"geometry": {"type": "Point", "coordinates": [-84.5674557955, 42.6922096862]}, "type": "Feature", "properties": {"collection_times": [{"days": "Mon-Sat", "time": "1:00pm"}, {"days": "Sun", "time": "Closed"}], "id": "4891000088", "name": "USPS COLLECTION BOX - BLUE BOX", "address": {"city": "LANSING", "state": "MI", "street": "4019 S MARTIN LUTHER KING JR BLVD", "postcode": "48910"}}},
{"geometry": {"type": "Point", "coordinates": [-84.6039656062, 42.6999710314]}, "type": "Feature", "properties": {"collection_times": [{"days": "Mon-Sat", "time": "10:00am"}, {"days": "Sun", "time": "Closed"}], "id": "4891100003", "name": "USPS COLLECTION BOX - BLUE BOX", "address": {"city": "LANSING", "state": "MI", "street": "3915 HUNTERS RIDGE DR", "postcode": "48911"}}},
{"geometry": {"type": "Point", "coordinates": [-84.6038878374, 42.6939543003]}, "type": "Feature", "properties": {"collection_times": [{"days": "Mon-Sat", "time": "10:00am"}, {"days": "Sun", "time": "Closed"}], "id": "4891100005", "name": "USPS COLLECTION BOX - BLUE BOX", "address": {"city": "LANSING", "state": "MI", "street": "3927 SHEFFIELD BLVD", "postcode": "48911"}}},
{"geometry": {"type": "Point", "coordinates": [-84.5382370772, 42.6692224233]}, "type": "Feature", "properties": {"collection_times": [{"days": "Mon-Sat", "time": "3:20pm"}, {"days": "Sun", "time": "Closed"}], "id": "4891100009", "name": "USPS COLLECTION BOX - BLUE BOX", "address": {"city": "LANSING", "state": "MI", "street": "6100 S PENNSYLVANIA AVE", "postcode": "48911"}}},
{"geometry": {"type": "Point", "coordinates": [-84.5381002424, 42.6636571643]}, "type": "Feature", "properties": {"collection_times": [{"days": "Mon-Fri", "time": "4:00pm"}, {"days": "Sat", "time": "3:20pm"}, {"days": "Sun", "time": "Closed"}], "id": "4891100011", "name": "USPS COLLECTION BOX - BLUE BOX", "address": {"city": "LANSING", "state": "MI", "street": "6425 S PENNSYLVANIA AVE", "postcode": "48911"}}},
{"geometry": {"type": "Point", "coordinates": [-84.5352120813, 42.6571138962]}, "type": "Feature", "properties": {"collection_times": [{"days": "Mon-Sat", "time": "3:20pm"}, {"days": "Sun", "time": "Closed"}], "id": "4891100012", "name": "USPS COLLECTION BOX - BLUE BOX", "address": {"city": "LANSING", "state": "MI", "street": "6920 S CEDAR ST", "postcode": "48911"}}},
{"geometry": {"type": "Point", "coordinates": [-84.5434886052, 42.6776002484]}, "type": "Feature", "properties": {"collection_times": [{"days": "Mon-Sat", "time": "1:00pm"}, {"days": "Sun", "time": "Closed"}], "id": "4891100016", "name": "USPS COLLECTION BOX - BLUE BOX", "address": {"city": "LANSING", "state": "MI", "street": "5500 KAYNORTH RD", "postcode": "48911"}}},
{"geometry": {"type": "Point", "coordinates": [-84.5401459882, 42.6750478378]}, "type": "Feature", "properties": {"collection_times": [{"days": "Mon-Sat", "time": "1:00pm"}, {"days": "Sun", "time": "Closed"}], "id": "4891100017", "name": "USPS COLLECTION BOX - BLUE BOX", "address": {"city": "LANSING", "state": "MI", "street": "5700 RICHWOOD ST", "postcode": "48911"}}},
{"geometry": {"type": "Point", "coordinates": [-84.5359682762, 42.6638185261]}, "type": "Feature", "properties": {"collection_times": [{"days": "Mon-Sat", "time": "3:20pm"}, {"days": "Sun", "time": "Closed"}], "id": "4891100020", "name": "USPS COLLECTION BOX - BLUE BOX", "address": {"city": "LANSING", "state": "MI", "street": "6545 MERCANTILE WAY", "postcode": "48911"}}},
{"geometry": {"type": "Point", "coordinates": [-84.5359682762, 42.6638185261]}, "type": "Feature", "properties": {"collection_times": [{"days": "Mon-Sat", "time": "3:20pm"}, {"days": "Sun", "time": "Closed"}], "id": "4891100021", "name": "USPS COLLECTION BOX - BLUE BOX", "address": {"city": "LANSING", "state": "MI", "street": "6545 MERCANTILE WAY", "postcode": "48911"}}},
{"geometry": {"type": "Point", "coordinates": [-84.5706408555, 42.6718423155]}, "type": "Feature", "properties": {"collection_times": [{"days": "Mon-Fri", "time": "10:45am"}, {"days": "Sat", "time": "10:00am"}, {"days": "Sun", "time": "Closed"}], "id": "4891100024", "name": "USPS COLLECTION BOX - BLUE BOX", "address": {"city": "LANSING", "state": "MI", "street": "5937 HAVERHILL DR", "postcode": "48911"}}},
{"geometry": {"type": "Point", "coordinates": [-84.5444470462, 42.664519708]}, "type": "Feature", "properties": {"collection_times": [{"days": "Mon-Sat", "time": "3:20pm"}, {"days": "Sun", "time": "Closed"}], "id": "4891100025", "name": "USPS COLLECTION BOX - BLUE BOX", "address": {"city": "LANSING", "state": "MI", "street": "500 E EDGEWOOD BLVD", "postcode": "48911"}}},
{"geometry": {"type": "Point", "coordinates": [-84.5382370772, 42.6692224233]}, "type": "Feature", "properties": {"collection_times": [{"days": "Mon-Sat", "time": "3:20pm"}, {"days": "Sun", "time": "Closed"}], "id": "4891100027", "name": "USPS COLLECTION BOX - BLUE BOX", "address": {"city": "LANSING", "state": "MI", "street": "6100 S PENNSYLVANIA AVE", "postcode": "48911"}}},
{"geometry": {"type": "Point", "coordinates": [-84.6029726613, 42.6830913834]}, "type": "Feature", "properties": {"collection_times": [{"days": "Mon-Sat", "time": "10:00am"}, {"days": "Sun", "time": "Closed"}], "id": "4891100030", "name": "USPS COLLECTION BOX - BLUE BOX", "address": {"city": "LANSING", "state": "MI", "street": "4245 W JOLLY RD", "postcode": "48911"}}},
{"geometry": {"type": "Point", "coordinates": [-84.5727921726, 42.6692235905]}, "type": "Feature", "properties": {"collection_times": [{"days": "Mon-Sat", "time": "11:00am"}, {"days": "Sun", "time": "Closed"}], "id": "4891100032", "name": "USPS COLLECTION BOX - BLUE BOX", "address": {"city": "LANSING", "state": "MI", "street": "6100 HAAG RD", "postcode": "48911"}}},
{"geometry": {"type": "Point", "coordinates": [-84.5406381346, 42.6584200479]}, "type": "Feature", "properties": {"collection_times": [{"days": "Mon-Sat", "time": "3:20pm"}, {"days": "Sun", "time": "Closed"}], "id": "4891100037", "name": "USPS COLLECTION BOX - BLUE BOX", "address": {"city": "LANSING", "state": "MI", "street": "941 LONG BLVD", "postcode": "48911"}}},
{"geometry": {"type": "Point", "coordinates": [-84.5370000275, 42.6590306279]}, "type": "Feature", "properties": {"collection_times": [{"days": "Mon-Sat", "time": "3:20pm"}, {"days": "Sun", "time": "Closed"}], "id": "4891100041", "name": "USPS COLLECTION BOX - BLUE BOX", "address": {"city": "LANSING", "state": "MI", "street": "6810 S CEDAR ST", "postcode": "48911"}}},
{"geometry": {"type": "Point", "coordinates": [-84.5481383569, 42.6824799778]}, "type": "Feature", "properties": {"collection_times": [{"days": "Mon-Sat", "time": "3:00pm"}, {"days": "Sun", "time": "Closed"}], "id": "4891100042", "name": "USPS COLLECTION BOX - BLUE BOX", "address": {"city": "LANSING", "state": "MI", "street": "5132 S CEDAR ST", "postcode": "48911"}}},
{"geometry": {"type": "Point", "coordinates": [-84.5939237168, 42.6604066133]}, "type": "Feature", "properties": {"collection_times": [{"days": "Mon-Sat", "time": "11:00am"}, {"days": "Sun", "time": "Closed"}], "id": "4891100044", "name": "USPS COLLECTION BOX - BLUE BOX", "address": {"city": "LANSING", "state": "MI", "street": "2700 EATON RAPIDS RD", "postcode": "48911"}}},
{"geometry": {"type": "Point", "coordinates": [-84.5036503672, 42.678488297]}, "type": "Feature", "properties": {"collection_times": [{"days": "Mon-Sat", "time": "2:30pm"}, {"days": "Sun", "time": "Closed"}], "id": "4891100045", "name": "USPS COLLECTION BOX - BLUE BOX", "address": {"city": "LANSING", "state": "MI", "street": "3325 PINETREE RD", "postcode": "48911"}}},
{"geometry": {"type": "Point", "coordinates": [-84.6030885398, 42.6889013479]}, "type": "Feature", "properties": {"collection_times": [{"days": "Mon-Sat", "time": "10:00am"}, {"days": "Sun", "time": "Closed"}], "id": "4891100046", "name": "USPS COLLECTION BOX - BLUE BOX", "address": {"city": "LANSING", "state": "MI", "street": "3900 GLENBURNE BLVD", "postcode": "48911"}}},
{"geometry": {"type": "Point", "coordinates": [-84.6066026324, 42.6805381635]}, "type": "Feature", "properties": {"collection_times": [{"days": "Mon-Sat", "time": "10:00am"}, {"days": "Sun", "time": "Closed"}], "id": "4891100049", "name": "USPS COLLECTION BOX - BLUE BOX", "address": {"city": "LANSING", "state": "MI", "street": "4030 HARTFORD RD", "postcode": "48911"}}},
{"geometry": {"type": "Point", "coordinates": [-84.6020418248, 42.6830842145]}, "type": "Feature", "properties": {"collection_times": [{"days": "Mon-Sat", "time": "10:00am"}, {"days": "Sun", "time": "Closed"}], "id": "4891100050", "name": "USPS COLLECTION BOX - BLUE BOX", "address": {"city": "LANSING", "state": "MI", "street": "3825 W JOLLY RD", "postcode": "48911"}}},
{"geometry": {"type": "Point", "coordinates": [-84.5679161616, 42.6838785185]}, "type": "Feature", "properties": {"collection_times": [{"days": "Mon-Fri", "time": "10:00am"}, {"days": "Sat", "time": "3:20pm"}, {"days": "Sun", "time": "Closed"}], "id": "4891100054", "name": "USPS COLLECTION BOX - BLUE BOX", "address": {"city": "LANSING", "state": "MI", "street": "5016 S MARTIN LUTHER KING JR BLVD", "postcode": "48911"}}},
{"geometry": {"type": "Point", "coordinates": [-84.5370000275, 42.6590306279]}, "type": "Feature", "properties": {"collection_times": [{"days": "Mon-Sat", "time": "3:20pm"}, {"days": "Sun", "time": "Closed"}], "id": "4891100064", "name": "USPS COLLECTION BOX - BLUE BOX", "address": {"city": "LANSING", "state": "MI", "street": "6810 S CEDAR ST", "postcode": "48911"}}},
{"geometry": {"type": "Point", "coordinates": [-84.5425196268, 42.6668274098]}, "type": "Feature", "properties": {"collection_times": [{"days": "Mon-Sat", "time": "3:00pm"}, {"days": "Sun", "time": "Closed"}], "id": "4891100070", "name": "USPS COLLECTION BOX - BLUE BOX", "address": {"city": "LANSING", "state": "MI", "street": "6250 S CEDAR ST", "postcode": "48911"}}},
{"geometry": {"type": "Point", "coordinates": [-84.5924851016, 42.6619469388]}, "type": "Feature", "properties": {"collection_times": [{"days": "Mon-Sat", "time": "11:00am"}, {"days": "Sun", "time": "Closed"}], "id": "4891100073", "name": "USPS COLLECTION BOX - BLUE BOX", "address": {"city": "LANSING", "state": "MI", "street": "6237 BISHOP RD", "postcode": "48911"}}},
{"geometry": {"type": "Point", "coordinates": [-84.5357351144, 42.6704380968]}, "type": "Feature", "properties": {"collection_times": [{"days": "Mon-Sat", "time": "3:20pm"}, {"days": "Sun", "time": "Closed"}], "id": "4891100074", "name": "USPS COLLECTION BOX - BLUE BOX", "address": {"city": "LANSING", "state": "MI", "street": "6035 EXECUTIVE DR", "postcode": "48911"}}},
{"geometry": {"type": "Point", "coordinates": [-84.5743659005, 42.6761523345]}, "type": "Feature", "properties": {"collection_times": [{"days": "Mon-Fri", "time": "10:30am"}, {"days": "Sat", "time": "10:00am"}, {"days": "Sun", "time": "Closed"}], "id": "4891100075", "name": "USPS COLLECTION BOX - BLUE BOX", "address": {"city": "LANSING", "state": "MI", "street": "5639 S MARTIN LUTHER KING JR BLVD", "postcode": "48911"}}},
{"geometry": {"type": "Point", "coordinates": [-84.6031554579, 42.6966988714]}, "type": "Feature", "properties": {"collection_times": [{"days": "Mon-Sat", "time": "10:00am"}, {"days": "Sun", "time": "Closed"}], "id": "4891100076", "name": "USPS COLLECTION BOX - BLUE BOX", "address": {"city": "LANSING", "state": "MI", "street": "3530 S WAVERLY RD", "postcode": "48911"}}},
{"geometry": {"type": "Point", "coordinates": [-84.6021860431, 42.6724312586]}, "type": "Feature", "properties": {"collection_times": [{"days": "Mon-Sat", "time": "10:00am"}, {"days": "Sun", "time": "Closed"}], "id": "4891100077", "name": "USPS COLLECTION BOX - BLUE BOX", "address": {"city": "LANSING", "state": "MI", "street": "3808 COACHLIGHT COMMON ST", "postcode": "48911"}}},
{"geometry": {"type": "Point", "coordinates": [-84.50652131, 42.7365235465]}, "type": "Feature", "properties": {"collection_times": [{"days": "Mon-Sat", "time": "3:00pm"}, {"days": "Sun", "time": "Closed"}], "id": "4891200000", "name": "USPS COLLECTION BOX - BLUE BOX", "address": {"city": "LANSING", "state": "MI", "street": "446 FRANDOR AVE", "postcode": "48912"}}},
{"geometry": {"type": "Point", "coordinates": [-84.5210338757, 42.7441633451]}, "type": "Feature", "properties": {"collection_times": [{"days": "Mon-Sat", "time": "3:00pm"}, {"days": "Sun", "time": "Closed"}], "id": "4891200001", "name": "USPS COLLECTION BOX - BLUE BOX", "address": {"city": "LANSING", "state": "MI", "street": "2100 SHOPPERS ALY", "postcode": "48912"}}},
{"geometry": {"type": "Point", "coordinates": [-84.5210338757, 42.7441633451]}, "type": "Feature", "properties": {"collection_times": [{"days": "Mon-Sat", "time": "3:00pm"}, {"days": "Sun", "time": "Closed"}], "id": "4891200003", "name": "USPS COLLECTION BOX - BLUE BOX", "address": {"city": "LANSING", "state": "MI", "street": "2100 SHOPPERS ALY", "postcode": "48912"}}},
{"geometry": {"type": "Point", "coordinates": [-84.507235972, 42.733690186]}, "type": "Feature", "properties": {"collection_times": [{"days": "Mon-Sat", "time": "3:00pm"}, {"days": "Sun", "time": "Closed"}], "id": "4891200005", "name": "USPS COLLECTION BOX - BLUE BOX", "address": {"city": "LANSING", "state": "MI", "street": "3131 E MICHIGAN AVE", "postcode": "48912"}}},
{"geometry": {"type": "Point", "coordinates": [-84.506516697, 42.7361191415]}, "type": "Feature", "properties": {"collection_times": [{"days": "Mon-Sat", "time": "3:00pm"}, {"days": "Sun", "time": "Closed"}], "id": "4891200007", "name": "USPS COLLECTION BOX - BLUE BOX", "address": {"city": "LANSING", "state": "MI", "street": "300 FRANDOR AVE", "postcode": "48912"}}},
{"geometry": {"type": "Point", "coordinates": [-84.5131446858, 42.7412992119]}, "type": "Feature", "properties": {"collection_times": [{"days": "Mon-Sat", "time": "4:00pm"}, {"days": "Sun", "time": "Closed"}], "id": "4891200009", "name": "USPS COLLECTION BOX - BLUE BOX", "address": {"city": "LANSING", "state": "MI", "street": "730 MERRILL ST", "postcode": "48912"}}},
{"geometry": {"type": "Point", "coordinates": [-84.5131446858, 42.7412992119]}, "type": "Feature", "properties": {"collection_times": [{"days": "Mon-Sat", "time": "4:00pm"}, {"days": "Sun", "time": "Closed"}], "id": "4891200010", "name": "USPS COLLECTION BOX - BLUE BOX", "address": {"city": "LANSING", "state": "MI", "street": "730 MERRILL ST", "postcode": "48912"}}},
{"geometry": {"type": "Point", "coordinates": [-84.5131446858, 42.7412992119]}, "type": "Feature", "properties": {"collection_times": [{"days": "Mon-Sat", "time": "4:00pm"}, {"days": "Sun", "time": "Closed"}], "id": "4891200011", "name": "USPS COLLECTION BOX - BLUE BOX", "address": {"city": "LANSING", "state": "MI", "street": "730 MERRILL ST", "postcode": "48912"}}},
{"geometry": {"type": "Point", "coordinates": [-84.5131446858, 42.7412992119]}, "type": "Feature", "properties": {"collection_times": [{"days": "Mon-Sat", "time": "4:00pm"}, {"days": "Sun", "time": "Closed"}], "id": "4891200012", "name": "USPS COLLECTION BOX - BLUE BOX", "address": {"city": "LANSING", "state": "MI", "street": "730 MERRILL ST", "postcode": "48912"}}},
{"geometry": {"type": "Point", "coordinates": [-84.5113467214, 42.7437606626]}, "type": "Feature", "properties": {"collection_times": [{"days": "Mon-Sat", "time": "4:00pm"}, {"days": "Sun", "time": "Closed"}], "id": "4891200019", "name": "USPS COLLECTION BOX - BLUE BOX", "address": {"city": "LANSING", "state": "MI", "street": "919 CHESTER RD", "postcode": "48912"}}},
{"geometry": {"type": "Point", "coordinates": [-84.5113467214, 42.7437606626]}, "type": "Feature", "properties": {"collection_times": [{"days": "Mon-Sat", "time": "4:00pm"}, {"days": "Sun", "time": "Closed"}], "id": "4891200020", "name": "USPS COLLECTION BOX - BLUE BOX", "address": {"city": "LANSING", "state": "MI", "street": "919 CHESTER RD", "postcode": "48912"}}},
{"geometry": {"type": "Point", "coordinates": [-84.5323710759, 42.7335616291]}, "type": "Feature", "properties": {"collection_times": [{"days": "Mon-Fri", "time": "1:00pm"}, {"days": "Sat", "time": "12:45pm"}, {"days": "Sun", "time": "Closed"}], "id": "4891200021", "name": "USPS COLLECTION BOX - BLUE BOX", "address": {"city": "LANSING", "state": "MI", "street": "1322 E MICHIGAN AVE", "postcode": "48912"}}},
{"geometry": {"type": "Point", "coordinates": [-84.5149265887, 42.7336862864]}, "type": "Feature", "properties": {"collection_times": [{"days": "Mon-Sat", "time": "4:00pm"}, {"days": "Sun", "time": "Closed"}], "id": "4891200023", "name": "USPS COLLECTION BOX - BLUE BOX", "address": {"city": "LANSING", "state": "MI", "street": "2617 E MICHIGAN AVE", "postcode": "48912"}}},
{"geometry": {"type": "Point", "coordinates": [-84.5131211528, 42.7598254048]}, "type": "Feature", "properties": {"collection_times": [{"days": "Mon-Sat", "time": "4:00pm"}, {"days": "Sun", "time": "Closed"}], "id": "4891200027", "name": "USPS COLLECTION BOX - BLUE BOX", "address": {"city": "LANSING", "state": "MI", "street": "2500 KERRY ST", "postcode": "48912"}}},
{"geometry": {"type": "Point", "coordinates": [-84.5188544269, 42.7485180211]}, "type": "Feature", "properties": {"collection_times": [{"days": "Mon-Sat", "time": "1:00pm"}, {"days": "Sun", "time": "Closed"}], "id": "4891200032", "name": "USPS COLLECTION BOX - BLUE BOX", "address": {"city": "LANSING", "state": "MI", "street": "2305 HOPKINS AVE", "postcode": "48912"}}},
{"geometry": {"type": "Point", "coordinates": [-84.5250243864, 42.7298286038]}, "type": "Feature", "properties": {"collection_times": [{"days": "Mon-Fri", "time": "1:00pm"}, {"days": "Sat", "time": "12:45pm"}, {"days": "Sun", "time": "Closed"}], "id": "4891200033", "name": "USPS COLLECTION BOX - BLUE BOX", "address": {"city": "LANSING", "state": "MI", "street": "1300 E MALCOLM X ST", "postcode": "48912"}}},
{"geometry": {"type": "Point", "coordinates": [-84.5185235303, 42.7335949081]}, "type": "Feature", "properties": {"collection_times": [{"days": "Mon-Sat", "time": "1:00pm"}, {"days": "Sun", "time": "Closed"}], "id": "4891200035", "name": "USPS COLLECTION BOX - BLUE BOX", "address": {"city": "LANSING", "state": "MI", "street": "2320 E MICHIGAN AVE", "postcode": "48912"}}},
{"geometry": {"type": "Point", "coordinates": [-84.5015730671, 42.7349070922]}, "type": "Feature", "properties": {"collection_times": [{"days": "Mon-Sat", "time": "1:00pm"}, {"days": "Sun", "time": "Closed"}], "id": "4891200036", "name": "USPS COLLECTION BOX - BLUE BOX", "address": {"city": "LANSING", "state": "MI", "street": "200 FRIENDSHIP CIR", "postcode": "48912"}}},
{"geometry": {"type": "Point", "coordinates": [-84.5257661834, 42.733690186]}, "type": "Feature", "properties": {"collection_times": [{"days": "Mon-Sat", "time": "4:00pm"}, {"days": "Sun", "time": "Closed"}], "id": "4891200040", "name": "USPS COLLECTION BOX - BLUE BOX", "address": {"city": "LANSING", "state": "MI", "street": "1723 E MICHIGAN AVE", "postcode": "48912"}}},
{"geometry": {"type": "Point", "coordinates": [-84.5224981276, 42.7390810833]}, "type": "Feature", "properties": {"collection_times": [{"days": "Mon-Sat", "time": "4:00pm"}, {"days": "Sun", "time": "Closed"}], "id": "4891200046", "name": "USPS COLLECTION BOX - BLUE BOX", "address": {"city": "LANSING", "state": "MI", "street": "730 MERRILL ST", "postcode": "48912"}}},
{"geometry": {"type": "Point", "coordinates": [-84.5175931245, 42.7606929938]}, "type": "Feature", "properties": {"collection_times": [{"days": "Mon-Sat", "time": "4:00pm"}, {"days": "Sun", "time": "Closed"}], "id": "4891200047", "name": "USPS COLLECTION BOX - BLUE BOX", "address": {"city": "LANSING", "state": "MI", "street": "2400 LAKE LANSING RD", "postcode": "48912"}}},
{"geometry": {"type": "Point", "coordinates": [-84.5433743638, 42.7339451857]}, "type": "Feature", "properties": {"collection_times": [{"days": "Mon-Sat", "time": "10:30am"}, {"days": "Sun", "time": "Closed"}], "id": "4891200048", "name": "USPS COLLECTION BOX - BLUE BOX", "address": {"city": "LANSING", "state": "MI", "street": "119 PERE MARQUETTE DR", "postcode": "48912"}}},
{"geometry": {"type": "Point", "coordinates": [-84.5243307768, 42.7606585366]}, "type": "Feature", "properties": {"collection_times": [{"days": "Mon-Sat", "time": "1:00pm"}, {"days": "Sun", "time": "Closed"}], "id": "4891200051", "name": "USPS COLLECTION BOX - BLUE BOX", "address": {"city": "LANSING", "state": "MI", "street": "1910 LAKE LANSING RD", "postcode": "48912"}}},
{"geometry": {"type": "Point", "coordinates": [-84.5295219599, 42.7335635396]}, "type": "Feature", "properties": {"collection_times": [{"days": "Mon-Fri", "time": "1:00pm"}, {"days": "Sat", "time": "12:45pm"}, {"days": "Sun", "time": "Closed"}], "id": "4891200052", "name": "USPS COLLECTION BOX - BLUE BOX", "address": {"city": "LANSING", "state": "MI", "street": "1438 E MICHIGAN AVE", "postcode": "48912"}}},
{"geometry": {"type": "Point", "coordinates": [-84.534739988, 42.7335582441]}, "type": "Feature", "properties": {"collection_times": [{"days": "Mon-Fri", "time": "1:00pm"}, {"days": "Sat", "time": "12:45pm"}, {"days": "Sun", "time": "Closed"}], "id": "4891200053", "name": "USPS COLLECTION BOX - BLUE BOX", "address": {"city": "LANSING", "state": "MI", "street": "1200 E MICHIGAN AVE", "postcode": "48912"}}},
{"geometry": {"type": "Point", "coordinates": [-84.5160066184, 42.7606960272]}, "type": "Feature", "properties": {"collection_times": [{"days": "Mon-Sat", "time": "4:00pm"}, {"days": "Sun", "time": "Closed"}], "id": "4891200055", "name": "USPS COLLECTION BOX - BLUE BOX", "address": {"city": "LANSING", "state": "MI", "street": "2510 LAKE LANSING RD", "postcode": "48912"}}},
{"geometry": {"type": "Point", "coordinates": [-84.5380419105, 42.7220657552]}, "type": "Feature", "properties": {"collection_times": [{"days": "Mon-Sat", "time": "4:00pm"}, {"days": "Sun", "time": "Closed"}], "id": "4891200058", "name": "USPS COLLECTION BOX - BLUE BOX", "address": {"city": "LANSING", "state": "MI", "street": "1115 S PENNSYLVANIA AVE", "postcode": "48912"}}},
{"geometry": {"type": "Point", "coordinates": [-84.5288583938, 42.760639946]}, "type": "Feature", "properties": {"collection_times": [{"days": "Mon-Sat", "time": "4:00pm"}, {"days": "Sun", "time": "Closed"}], "id": "4891200059", "name": "USPS COLLECTION BOX - BLUE BOX", "address": {"city": "LANSING", "state": "MI", "street": "1540 LAKE LANSING RD", "postcode": "48912"}}},
{"geometry": {"type": "Point", "coordinates": [-84.5465280678, 42.7335362165]}, "type": "Feature", "properties": {"collection_times": [{"days": "Mon-Sat", "time": "11:00am"}, {"days": "Sun", "time": "Closed"}], "id": "4891200060", "name": "USPS COLLECTION BOX - BLUE BOX", "address": {"city": "LANSING", "state": "MI", "street": "500 E MICHIGAN AVE", "postcode": "48912"}}},
{"geometry": {"type": "Point", "coordinates": [-84.5745986315, 42.748265167]}, "type": "Feature", "properties": {"collection_times": [{"days": "Mon-Sat", "time": "1:00pm"}, {"days": "Sun", "time": "Closed"}], "id": "4891500002", "name": "USPS COLLECTION BOX - BLUE BOX", "address": {"city": "LANSING", "state": "MI", "street": "1701 W WILLOW ST", "postcode": "48915"}}},
{"geometry": {"type": "Point", "coordinates": [-84.5666407728, 42.7409123922]}, "type": "Feature", "properties": {"collection_times": [{"days": "Mon-Sat", "time": "1:30pm"}, {"days": "Sun", "time": "Closed"}], "id": "4891500006", "name": "USPS COLLECTION BOX - BLUE BOX", "address": {"city": "LANSING", "state": "MI", "street": "1019 W SAGINAW ST", "postcode": "48915"}}},
{"geometry": {"type": "Point", "coordinates": [-84.5689680285, 42.741039534]}, "type": "Feature", "properties": {"collection_times": [{"days": "Mon-Sat", "time": "1:30pm"}, {"days": "Sun", "time": "Closed"}], "id": "4891500007", "name": "USPS COLLECTION BOX - BLUE BOX", "address": {"city": "LANSING", "state": "MI", "street": "1210 W SAGINAW ST", "postcode": "48915"}}},
{"geometry": {"type": "Point", "coordinates": [-84.5672370013, 42.7410390515]}, "type": "Feature", "properties": {"collection_times": [{"days": "Mon-Sat", "time": "1:30pm"}, {"days": "Sun", "time": "Closed"}], "id": "4891500011", "name": "USPS COLLECTION BOX - BLUE BOX", "address": {"city": "LANSING", "state": "MI", "street": "1100 W SAGINAW ST", "postcode": "48915"}}},
{"geometry": {"type": "Point", "coordinates": [-84.5770687518, 42.7351327531]}, "type": "Feature", "properties": {"collection_times": [{"days": "Mon-Sat", "time": "2:00pm"}, {"days": "Sun", "time": "Closed"}], "id": "4891500013", "name": "USPS COLLECTION BOX - BLUE BOX", "address": {"city": "LANSING", "state": "MI", "street": "212 N VERLINDEN AVE", "postcode": "48915"}}},
{"geometry": {"type": "Point", "coordinates": [-84.636731142, 42.733752176]}, "type": "Feature", "properties": {"collection_times": [{"days": "Mon-Fri", "time": "3:40pm"}, {"days": "Sat", "time": "3:30pm"}, {"days": "Sun", "time": "Closed"}], "id": "4891700001", "name": "USPS COLLECTION BOX - BLUE BOX", "address": {"city": "LANSING", "state": "MI", "street": "6101 W MICHIGAN AVE", "postcode": "48917"}}},
{"geometry": {"type": "Point", "coordinates": [-84.6053584931, 42.7398806239]}, "type": "Feature", "properties": {"collection_times": [{"days": "Mon-Sat", "time": "3:00pm"}, {"days": "Sun", "time": "Closed"}], "id": "4891700004", "name": "USPS COLLECTION BOX - BLUE BOX", "address": {"city": "LANSING", "state": "MI", "street": "632 N DIBBLE AVE", "postcode": "48917"}}},
{"geometry": {"type": "Point", "coordinates": [-84.5961715835, 42.7316902124]}, "type": "Feature", "properties": {"collection_times": [{"days": "Mon-Sat", "time": "1:00pm"}, {"days": "Sun", "time": "Closed"}], "id": "4891700006", "name": "USPS COLLECTION BOX - BLUE BOX", "address": {"city": "LANSING", "state": "MI", "street": "300 WESTERN AVE", "postcode": "48917"}}},
{"geometry": {"type": "Point", "coordinates": [-84.5963633238, 42.7483017017]}, "type": "Feature", "properties": {"collection_times": [{"days": "Mon-Sat", "time": "10:30am"}, {"days": "Sun", "time": "Closed"}], "id": "4891700012", "name": "USPS COLLECTION BOX - BLUE BOX", "address": {"city": "LANSING", "state": "MI", "street": "3407 W WILLOW ST", "postcode": "48917"}}},
{"geometry": {"type": "Point", "coordinates": [-84.615104892, 42.7410032519]}, "type": "Feature", "properties": {"collection_times": [{"days": "Mon-Sat", "time": "3:40pm"}, {"days": "Sun", "time": "Closed"}], "id": "4891700014", "name": "USPS COLLECTION BOX - BLUE BOX", "address": {"city": "LANSING", "state": "MI", "street": "4601 W SAGINAW HWY", "postcode": "48917"}}},
{"geometry": {"type": "Point", "coordinates": [-84.6431290886, 42.7411074503]}, "type": "Feature", "properties": {"collection_times": [{"days": "Mon-Sat", "time": "10:00am"}, {"days": "Sun", "time": "Closed"}], "id": "4891700020", "name": "USPS COLLECTION BOX - BLUE BOX", "address": {"city": "LANSING", "state": "MI", "street": "6430 W SAGINAW HWY", "postcode": "48917"}}},
{"geometry": {"type": "Point", "coordinates": [-84.6388747311, 42.725208211]}, "type": "Feature", "properties": {"collection_times": [{"days": "Mon-Fri", "time": "3:40pm"}, {"days": "Sat", "time": "3:00pm"}, {"days": "Sun", "time": "Closed"}], "id": "4891700021", "name": "USPS COLLECTION BOX - BLUE BOX", "address": {"city": "LANSING", "state": "MI", "street": "200 VERMILLION DR", "postcode": "48917"}}},
{"geometry": {"type": "Point", "coordinates": [-84.6388747311, 42.725208211]}, "type": "Feature", "properties": {"collection_times": [{"days": "Mon-Fri", "time": "3:40pm"}, {"days": "Sat", "time": "3:00pm"}, {"days": "Sun", "time": "Closed"}], "id": "4891700022", "name": "USPS COLLECTION BOX - BLUE BOX", "address": {"city": "LANSING", "state": "MI", "street": "200 VERMILLION DR", "postcode": "48917"}}},
{"geometry": {"type": "Point", "coordinates": [-84.6443456682, 42.6885654078]}, "type": "Feature", "properties": {"collection_times": [{"days": "Mon-Sat", "time": "10:00am"}, {"days": "Sun", "time": "Closed"}], "id": "4891700023", "name": "USPS COLLECTION BOX - BLUE BOX", "address": {"city": "LANSING", "state": "MI", "street": "6500 WESTLAND WAY", "postcode": "48917"}}},
{"geometry": {"type": "Point", "coordinates": [-84.6388747311, 42.725208211]}, "type": "Feature", "properties": {"collection_times": [{"days": "Mon-Sat", "time": "1:00pm"}, {"days": "Sun", "time": "Closed"}], "id": "4891700024", "name": "USPS COLLECTION BOX - BLUE BOX", "address": {"city": "LANSING", "state": "MI", "street": "200 RYDER RD", "postcode": "48917"}}},
{"geometry": {"type": "Point", "coordinates": [-84.6423796257, 42.7258512604]}, "type": "Feature", "properties": {"collection_times": [{"days": "Mon-Sat", "time": "3:00pm"}, {"days": "Sun", "time": "Closed"}], "id": "4891700025", "name": "USPS COLLECTION BOX - BLUE BOX", "address": {"city": "LANSING", "state": "MI", "street": "612 S CREYTS RD", "postcode": "48917"}}},
{"geometry": {"type": "Point", "coordinates": [-84.6362378697, 42.7265154084]}, "type": "Feature", "properties": {"collection_times": [{"days": "Mon-Sat", "time": "3:00pm"}, {"days": "Sun", "time": "Closed"}], "id": "4891700027", "name": "USPS COLLECTION BOX - BLUE BOX", "address": {"city": "LANSING", "state": "MI", "street": "6105 W ST JOE HWY", "postcode": "48917"}}},
{"geometry": {"type": "Point", "coordinates": [-84.6274691155, 42.736530565]}, "type": "Feature", "properties": {"collection_times": [{"days": "Mon-Sat", "time": "1:00pm"}, {"days": "Sun", "time": "Closed"}], "id": "4891700028", "name": "USPS COLLECTION BOX - BLUE BOX", "address": {"city": "LANSING", "state": "MI", "street": "900 RUNAWAY BAY DR", "postcode": "48917"}}},
{"geometry": {"type": "Point", "coordinates": [-84.6619124214, 42.7457251473]}, "type": "Feature", "properties": {"collection_times": [{"days": "Mon-Sat", "time": "1:00pm"}, {"days": "Sun", "time": "Closed"}], "id": "4891700029", "name": "USPS COLLECTION BOX - BLUE BOX", "address": {"city": "LANSING", "state": "MI", "street": "7600 STREAMWOOD DR", "postcode": "48917"}}},
{"geometry": {"type": "Point", "coordinates": [-84.6277590041, 42.7410221793]}, "type": "Feature", "properties": {"collection_times": [{"days": "Mon-Sat", "time": "3:00pm"}, {"days": "Sun", "time": "Closed"}], "id": "4891700033", "name": "USPS COLLECTION BOX - BLUE BOX", "address": {"city": "LANSING", "state": "MI", "street": "5507 W SAGINAW HWY", "postcode": "48917"}}},
{"geometry": {"type": "Point", "coordinates": [-84.6052146952, 42.7411133334]}, "type": "Feature", "properties": {"collection_times": [{"days": "Mon-Sat", "time": "3:00pm"}, {"days": "Sun", "time": "Closed"}], "id": "4891700035", "name": "USPS COLLECTION BOX - BLUE BOX", "address": {"city": "LANSING", "state": "MI", "street": "4014 W SAGINAW HWY", "postcode": "48917"}}},
{"geometry": {"type": "Point", "coordinates": [-84.6028823553, 42.733691567]}, "type": "Feature", "properties": {"collection_times": [{"days": "Mon-Sat", "time": "3:00pm"}, {"days": "Sun", "time": "Closed"}], "id": "4891700039", "name": "USPS COLLECTION BOX - BLUE BOX", "address": {"city": "LANSING", "state": "MI", "street": "111 S WAVERLY RD", "postcode": "48917"}}},
{"geometry": {"type": "Point", "coordinates": [-84.636731142, 42.733752176]}, "type": "Feature", "properties": {"collection_times": [{"days": "Mon-Fri", "time": "3:40pm"}, {"days": "Sat", "time": "3:30pm"}, {"days": "Sun", "time": "Closed"}], "id": "4891700041", "name": "USPS COLLECTION BOX - BLUE BOX", "address": {"city": "LANSING", "state": "MI", "street": "6101 W MICHIGAN AVE", "postcode": "48917"}}},
{"geometry": {"type": "Point", "coordinates": [-84.6433335263, 42.7244148492]}, "type": "Feature", "properties": {"collection_times": [{"days": "Mon-Sat", "time": "3:00pm"}, {"days": "Sun", "time": "Closed"}], "id": "4891700048", "name": "USPS COLLECTION BOX - BLUE BOX", "address": {"city": "LANSING", "state": "MI", "street": "6412 CENTURION DR", "postcode": "48917"}}},
{"geometry": {"type": "Point", "coordinates": [-84.6007205815, 42.7411631849]}, "type": "Feature", "properties": {"collection_times": [{"days": "Mon-Sat", "time": "3:00pm"}, {"days": "Sun", "time": "Closed"}], "id": "4891700051", "name": "USPS COLLECTION BOX - BLUE BOX", "address": {"city": "LANSING", "state": "MI", "street": "3700 W SAGINAW ST", "postcode": "48917"}}},
{"geometry": {"type": "Point", "coordinates": [-84.6597344381, 42.7460569253]}, "type": "Feature", "properties": {"collection_times": [{"days": "Mon-Sat", "time": "1:00pm"}, {"days": "Sun", "time": "Closed"}], "id": "4891700054", "name": "USPS COLLECTION BOX - BLUE BOX", "address": {"city": "LANSING", "state": "MI", "street": "7436 DELTA COMMERCE DR", "postcode": "48917"}}},
{"geometry": {"type": "Point", "coordinates": [-84.6362378697, 42.7265154084]}, "type": "Feature", "properties": {"collection_times": [{"days": "Mon-Sat", "time": "3:00pm"}, {"days": "Sun", "time": "Closed"}], "id": "4891700055", "name": "USPS COLLECTION BOX - BLUE BOX", "address": {"city": "LANSING", "state": "MI", "street": "6105 W ST JOE HWY", "postcode": "48917"}}},
{"geometry": {"type": "Point", "coordinates": [-84.636731142, 42.733752176]}, "type": "Feature", "properties": {"collection_times": [{"days": "Mon-Fri", "time": "3:40pm"}, {"days": "Sat", "time": "3:30pm"}, {"days": "Sun", "time": "Closed"}], "id": "4891700058", "name": "USPS COLLECTION BOX - PO LOBBY", "address": {"city": "LANSING", "state": "MI", "street": "6101 W MICHIGAN AVE", "postcode": "48917"}}},
{"geometry": {"type": "Point", "coordinates": [-84.6029709836, 42.7138958739]}, "type": "Feature", "properties": {"collection_times": [{"days": "Mon-Sat", "time": "10:00am"}, {"days": "Sun", "time": "Closed"}], "id": "4891700060", "name": "USPS COLLECTION BOX - BLUE BOX", "address": {"city": "LANSING", "state": "MI", "street": "1701 S WAVERLY RD", "postcode": "48917"}}},
{"geometry": {"type": "Point", "coordinates": [-84.6461374546, 42.7231583159]}, "type": "Feature", "properties": {"collection_times": [{"days": "Mon-Sat", "time": "3:00pm"}, {"days": "Sun", "time": "Closed"}], "id": "4891700061", "name": "USPS COLLECTION BOX - BLUE BOX", "address": {"city": "LANSING", "state": "MI", "street": "915 CENTENNIAL WAY", "postcode": "48917"}}},
{"geometry": {"type": "Point", "coordinates": [-84.6274691155, 42.736530565]}, "type": "Feature", "properties": {"collection_times": [{"days": "Mon-Sat", "time": "10:00am"}, {"days": "Sun", "time": "Closed"}], "id": "4891700064", "name": "USPS COLLECTION BOX - BLUE BOX", "address": {"city": "LANSING", "state": "MI", "street": "100 N MARKETPLACE BLVD", "postcode": "48917"}}},
{"geometry": {"type": "Point", "coordinates": [-84.6274691155, 42.736530565]}, "type": "Feature", "properties": {"collection_times": [{"days": "Mon-Sat", "time": "3:40pm"}, {"days": "Sun", "time": "Closed"}], "id": "4891700065", "name": "USPS COLLECTION BOX - BLUE BOX", "address": {"city": "LANSING", "state": "MI", "street": "5208 W SAGINAW HWY", "postcode": "48917"}}},
{"geometry": {"type": "Point", "coordinates": [-84.6236919912, 42.7410115326]}, "type": "Feature", "properties": {"collection_times": [{"days": "Mon-Sat", "time": "3:40pm"}, {"days": "Sun", "time": "Closed"}], "id": "4891700066", "name": "USPS COLLECTION BOX - BLUE BOX", "address": {"city": "LANSING", "state": "MI", "street": "5208 W SAGINAW HWY", "postcode": "48917"}}},
{"geometry": {"type": "Point", "coordinates": [-84.6236919912, 42.7410115326]}, "type": "Feature", "properties": {"collection_times": [{"days": "Mon-Sat", "time": "3:40pm"}, {"days": "Sun", "time": "Closed"}], "id": "4891700067", "name": "USPS COLLECTION BOX - APC", "address": {"city": "LANSING", "state": "MI", "street": "5208 W SAGINAW HWY", "postcode": "48917"}}},
{"geometry": {"type": "Point", "coordinates": [-84.498698151, 42.685439304]}, "type": "Feature", "properties": {"collection_times": [{"days": "Mon-Sat", "time": "5:00pm"}, {"days": "Sun", "time": "Closed"}], "id": "4892400027", "name": "USPS COLLECTION BOX - BLUE BOX", "address": {"city": "LANSING", "state": "MI", "street": "4800 COLLINS RD", "postcode": "48924"}}},
{"geometry": {"type": "Point", "coordinates": [-84.498698151, 42.685439304]}, "type": "Feature", "properties": {"collection_times": [{"days": "Mon-Sat", "time": "5:00pm"}, {"days": "Sun", "time": "Closed"}], "id": "4892400028", "name": "USPS COLLECTION BOX - BLUE BOX", "address": {"city": "LANSING", "state": "MI", "street": "4800 COLLINS RD", "postcode": "48924"}}},
{"geometry": {"type": "Point", "coordinates": [-84.498698151, 42.685439304]}, "type": "Feature", "properties": {"collection_times": [{"days": "Mon-Sat", "time": "5:00pm"}, {"days": "Sun", "time": "Closed"}], "id": "4892400029", "name": "USPS COLLECTION BOX - BLUE BOX", "address": {"city": "LANSING", "state": "MI", "street": "4800 COLLINS RD", "postcode": "48924"}}},
{"geometry": {"type": "Point", "coordinates": [-84.498698151, 42.685439304]}, "type": "Feature", "properties": {"collection_times": [{"days": "Mon-Sat", "time": "5:00pm"}, {"days": "Sun", "time": "Closed"}], "id": "4892400030", "name": "USPS COLLECTION BOX - PO LOBBY", "address": {"city": "LANSING", "state": "MI", "street": "4800 COLLINS RD", "postcode": "48924"}}},
{"geometry": {"type": "Point", "coordinates": [-84.498698151, 42.685439304]}, "type": "Feature", "properties": {"collection_times": [{"days": "Mon-Sat", "time": "5:00pm"}, {"days": "Sun", "time": "Closed"}], "id": "4892400031", "name": "USPS COLLECTION BOX - APC", "address": {"city": "LANSING", "state": "MI", "street": "4800 COLLINS RD", "postcode": "48924"}}},
{"geometry": {"type": "Point", "coordinates": [-84.550668201, 42.732481735]}, "type": "Feature", "properties": {"collection_times": [{"days": "Mon-Sat", "time": "2:55pm"}, {"days": "Sun", "time": "Closed"}], "id": "4893300019", "name": "USPS COLLECTION BOX - BLUE BOX", "address": {"city": "LANSING", "state": "MI", "street": "200 S GRAND AVE", "postcode": "48933"}}},
{"geometry": {"type": "Point", "coordinates": [-84.552711127, 42.732613113]}, "type": "Feature", "properties": {"collection_times": [{"days": "Mon-Sat", "time": "2:55pm"}, {"days": "Sun", "time": "Closed"}], "id": "4893300020", "name": "USPS COLLECTION BOX - BLUE BOX", "address": {"city": "LANSING", "state": "MI", "street": "124 W ALLEGAN ST", "postcode": "48933"}}},
{"geometry": {"type": "Point", "coordinates": [-84.560058399, 42.735125747]}, "type": "Feature", "properties": {"collection_times": [{"days": "Mon-Sat", "time": "2:55pm"}, {"days": "Sun", "time": "Closed"}], "id": "4893300022", "name": "USPS COLLECTION BOX - BLUE BOX", "address": {"city": "LANSING", "state": "MI", "street": "235 N PINE ST", "postcode": "48933"}}},
{"geometry": {"type": "Point", "coordinates": [-84.560649998, 42.734676858]}, "type": "Feature", "properties": {"collection_times": [{"days": "Mon-Sat", "time": "2:55pm"}, {"days": "Sun", "time": "Closed"}], "id": "4893300023", "name": "USPS COLLECTION BOX - BLUE BOX", "address": {"city": "LANSING", "state": "MI", "street": "610 W OTTAWA ST", "postcode": "48933"}}},
{"geometry": {"type": "Point", "coordinates": [-84.5570331088, 42.7363231495]}, "type": "Feature", "properties": {"collection_times": [{"days": "Mon-Sat", "time": "1:00pm"}, {"days": "Sun", "time": "Closed"}], "id": "4893300028", "name": "USPS COLLECTION BOX - BLUE BOX", "address": {"city": "LANSING", "state": "MI", "street": "323 N WALNUT ST", "postcode": "48933"}}},
{"geometry": {"type": "Point", "coordinates": [-84.553360834, 42.733637214]}, "type": "Feature", "properties": {"collection_times": [{"days": "Mon-Sat", "time": "2:55pm"}, {"days": "Sun", "time": "Closed"}], "id": "4893300032", "name": "USPS COLLECTION BOX - BLUE BOX", "address": {"city": "LANSING", "state": "MI", "street": "124 W MICHIGAN AVE", "postcode": "48933"}}},
{"geometry": {"type": "Point", "coordinates": [-84.5539028, 42.728149944]}, "type": "Feature", "properties": {"collection_times": [{"days": "Mon-Sat", "time": "2:55pm"}, {"days": "Sun", "time": "Closed"}], "id": "4893300033", "name": "USPS COLLECTION BOX - BLUE BOX", "address": {"city": "LANSING", "state": "MI", "street": "501 S CAPITOL AVE", "postcode": "48933"}}},
{"geometry": {"type": "Point", "coordinates": [-84.55025006, 42.733561455]}, "type": "Feature", "properties": {"collection_times": [{"days": "Mon-Sat", "time": "2:55pm"}, {"days": "Sun", "time": "Closed"}], "id": "4893300035", "name": "USPS COLLECTION BOX - BLUE BOX", "address": {"city": "LANSING", "state": "MI", "street": "206 E MICHIGAN AVE", "postcode": "48933"}}},
{"geometry": {"type": "Point", "coordinates": [-84.5522431, 42.729648804]}, "type": "Feature", "properties": {"collection_times": [{"days": "Mon-Sat", "time": "2:55pm"}, {"days": "Sun", "time": "Closed"}], "id": "4893300041", "name": "USPS COLLECTION BOX - BLUE BOX", "address": {"city": "LANSING", "state": "MI", "street": "401 S WASHINGTON SQ", "postcode": "48933"}}},
{"geometry": {"type": "Point", "coordinates": [-84.55396807, 42.726928478]}, "type": "Feature", "properties": {"collection_times": [{"days": "Mon-Sat", "time": "2:55pm"}, {"days": "Sun", "time": "Closed"}], "id": "4893300043", "name": "USPS COLLECTION BOX - BLUE BOX", "address": {"city": "LANSING", "state": "MI", "street": "600 S CAPITOL AVE", "postcode": "48933"}}},
{"geometry": {"type": "Point", "coordinates": [-84.55396807, 42.726928478]}, "type": "Feature", "properties": {"collection_times": [{"days": "Mon-Sat", "time": "2:55pm"}, {"days": "Sun", "time": "Closed"}], "id": "4893300052", "name": "USPS COLLECTION BOX - BLUE BOX", "address": {"city": "LANSING", "state": "MI", "street": "600 S CAPITOL AVE", "postcode": "48933"}}},
{"geometry": {"type": "Point", "coordinates": [-84.55213317, 42.734621116]}, "type": "Feature", "properties": {"collection_times": [{"days": "Mon-Sat", "time": "2:55pm"}, {"days": "Sun", "time": "Closed"}], "id": "4893300056", "name": "USPS COLLECTION BOX - BLUE BOX", "address": {"city": "LANSING", "state": "MI", "street": "100 E OTTAWA ST", "postcode": "48933"}}},
{"geometry": {"type": "Point", "coordinates": [-84.55065333, 42.731527622]}, "type": "Feature", "properties": {"collection_times": [{"days": "Mon-Fri", "time": "2:55pm"}, {"days": "Sat", "time": "2:45pm"}, {"days": "Sun", "time": "Closed"}], "id": "4893300058", "name": "USPS COLLECTION BOX - BLUE BOX", "address": {"city": "LANSING", "state": "MI", "street": "235 S GRAND AVE", "postcode": "48933"}}},
{"geometry": {"type": "Point", "coordinates": [-84.552207694, 42.732111815]}, "type": "Feature", "properties": {"collection_times": [{"days": "Mon-Sat", "time": "2:55pm"}, {"days": "Sun", "time": "Closed"}], "id": "4893300060", "name": "USPS COLLECTION BOX - BLUE BOX", "address": {"city": "LANSING", "state": "MI", "street": "235 S WASHINGTON SQ", "postcode": "48933"}}},
{"geometry": {"type": "Point", "coordinates": [-84.552338198, 42.737193209]}, "type": "Feature", "properties": {"collection_times": [{"days": "Mon-Sat", "time": "2:55pm"}, {"days": "Sun", "time": "Closed"}], "id": "4893300064", "name": "USPS COLLECTION BOX - BLUE BOX", "address": {"city": "LANSING", "state": "MI", "street": "101 W SHIAWASSEE ST", "postcode": "48933"}}},
{"geometry": {"type": "Point", "coordinates": [-84.555824469, 42.732621403]}, "type": "Feature", "properties": {"collection_times": [{"days": "Mon-Sat", "time": "2:55pm"}, {"days": "Sun", "time": "Closed"}], "id": "4893300066", "name": "USPS COLLECTION BOX - BLUE BOX", "address": {"city": "LANSING", "state": "MI", "street": "316 W ALLEGAN ST", "postcode": "48933"}}},
{"geometry": {"type": "Point", "coordinates": [-84.555824469, 42.732621403]}, "type": "Feature", "properties": {"collection_times": [{"days": "Mon-Sat", "time": "2:55pm"}, {"days": "Sun", "time": "Closed"}], "id": "4893300067", "name": "USPS COLLECTION BOX - BLUE BOX", "address": {"city": "LANSING", "state": "MI", "street": "316 W ALLEGAN ST", "postcode": "48933"}}},
{"geometry": {"type": "Point", "coordinates": [-84.555533941, 42.732502559]}, "type": "Feature", "properties": {"collection_times": [{"days": "Mon-Sat", "time": "2:55pm"}, {"days": "Sun", "time": "Closed"}], "id": "4893300068", "name": "USPS COLLECTION BOX - BLUE BOX", "address": {"city": "LANSING", "state": "MI", "street": "200 TOWNSEND ST", "postcode": "48933"}}},
{"geometry": {"type": "Point", "coordinates": [-84.552262914, 42.726999575]}, "type": "Feature", "properties": {"collection_times": [{"days": "Mon-Sat", "time": "2:55pm"}, {"days": "Sun", "time": "Closed"}], "id": "4893300078", "name": "USPS COLLECTION BOX - BLUE BOX", "address": {"city": "LANSING", "state": "MI", "street": "603 S WASHINGTON AVE", "postcode": "48933"}}},
{"geometry": {"type": "Point", "coordinates": [-84.561697801, 42.72693081]}, "type": "Feature", "properties": {"collection_times": [{"days": "Mon-Sat", "time": "1:00pm"}, {"days": "Sun", "time": "Closed"}], "id": "4893300081", "name": "USPS COLLECTION BOX - BLUE BOX", "address": {"city": "LANSING", "state": "MI", "street": "600 S SYCAMORE ST", "postcode": "48933"}}},
{"geometry": {"type": "Point", "coordinates": [-84.5562408, 42.732561869]}, "type": "Feature", "properties": {"collection_times": [{"days": "Mon-Fri", "time": "2:55pm"}, {"days": "Sat", "time": "12:00pm"}, {"days": "Sun", "time": "Closed"}], "id": "4893300084", "name": "USPS COLLECTION BOX - PO LOBBY", "address": {"city": "LANSING", "state": "MI", "street": "315 W ALLEGAN ST", "postcode": "48933"}}},
{"geometry": {"type": "Point", "coordinates": [-84.552223286, 42.734180346]}, "type": "Feature", "properties": {"collection_times": [{"days": "Mon-Sat", "time": "2:55pm"}, {"days": "Sun", "time": "Closed"}], "id": "4893300087", "name": "USPS COLLECTION BOX - BLUE BOX", "address": {"city": "LANSING", "state": "MI", "street": "120 N WASHINGTON SQ", "postcode": "48933"}}},
{"geometry": {"type": "Point", "coordinates": [-84.552223286, 42.734180346]}, "type": "Feature", "properties": {"collection_times": [{"days": "Mon-Sat", "time": "2:55pm"}, {"days": "Sun", "time": "Closed"}], "id": "4893300088", "name": "USPS COLLECTION BOX - BLUE BOX", "address": {"city": "LANSING", "state": "MI", "street": "120 N WASHINGTON SQ", "postcode": "48933"}}},
{"geometry": {"type": "Point", "coordinates": [-84.553851447, 42.734692584]}, "type": "Feature", "properties": {"collection_times": [{"days": "Mon-Sat", "time": "2:55pm"}, {"days": "Sun", "time": "Closed"}], "id": "4893300093", "name": "USPS COLLECTION BOX - BLUE BOX", "address": {"city": "LANSING", "state": "MI", "street": "200 N CAPITOL AVE", "postcode": "48933"}}},
{"geometry": {"type": "Point", "coordinates": [-84.555370378, 42.736012249]}, "type": "Feature", "properties": {"collection_times": [{"days": "Mon-Sat", "time": "10:30am"}, {"days": "Sun", "time": "Closed"}], "id": "4893300097", "name": "USPS COLLECTION BOX - BLUE BOX", "address": {"city": "LANSING", "state": "MI", "street": "300 SEYMOUR AVE", "postcode": "48933"}}},
{"geometry": {"type": "Point", "coordinates": [-84.552106597, 42.735886826]}, "type": "Feature", "properties": {"collection_times": [{"days": "Mon-Sat", "time": "2:55pm"}, {"days": "Sun", "time": "Closed"}], "id": "4893300100", "name": "USPS COLLECTION BOX - BLUE BOX", "address": {"city": "LANSING", "state": "MI", "street": "101 E IONIA ST", "postcode": "48933"}}},
{"geometry": {"type": "Point", "coordinates": [-84.555770874, 42.729936645]}, "type": "Feature", "properties": {"collection_times": [{"days": "Mon-Sat", "time": "1:00pm"}, {"days": "Sun", "time": "Closed"}], "id": "4893300102", "name": "USPS COLLECTION BOX - BLUE BOX", "address": {"city": "LANSING", "state": "MI", "street": "313 W KALAMAZOO ST", "postcode": "48933"}}},
{"geometry": {"type": "Point", "coordinates": [-84.552223286, 42.734180346]}, "type": "Feature", "properties": {"collection_times": [{"days": "Mon-Sat", "time": "2:55pm"}, {"days": "Sun", "time": "Closed"}], "id": "4893300103", "name": "USPS COLLECTION BOX - BLUE BOX", "address": {"city": "LANSING", "state": "MI", "street": "120 N WASHINGTON SQ", "postcode": "48933"}}}
]}
