{"type": "FeatureCollection", "features": [
{"geometry": {"type": "Point", "coordinates": [-85.5468911694, 42.3031805758]}, "type": "Feature", "properties": {"collection_times": [{"days": "Mon-Sat", "time": "10:00am"}, {"days": "Sun", "time": "Closed"}], "id": "4900100007", "name": "USPS COLLECTION BOX - BLUE BOX", "address": {"city": "KALAMAZOO", "state": "MI", "street": "2626 E MAIN ST", "postcode": "49001"}}},
{"geometry": {"type": "Point", "coordinates": [-85.5170690769, 42.3283807068]}, "type": "Feature", "properties": {"collection_times": [{"days": "Mon-Sat", "time": "10:00am"}, {"days": "Sun", "time": "Closed"}], "id": "4900100010", "name": "USPS COLLECTION BOX - BLUE BOX", "address": {"city": "KALAMAZOO", "state": "MI", "street": "4495 GULL RUN DR", "postcode": "49001"}}},
{"geometry": {"type": "Point", "coordinates": [-85.5161954267, 42.3259923761]}, "type": "Feature", "properties": {"collection_times": [{"days": "Mon-Fri", "time": "3:00pm"}, {"days": "Sat", "time": "1:30pm"}, {"days": "Sun", "time": "Closed"}], "id": "4900100011", "name": "USPS COLLECTION BOX - BLUE BOX", "address": {"city": "KALAMAZOO", "state": "MI", "street": "5800 GULL RD", "postcode": "49001"}}},
{"geometry": {"type": "Point", "coordinates": [-85.558886728, 42.3078938744]}, "type": "Feature", "properties": {"collection_times": [{"days": "Mon-Fri", "time": "2:45pm"}, {"days": "Sat", "time": "1:30pm"}, {"days": "Sun", "time": "Closed"}], "id": "4900100012", "name": "USPS COLLECTION BOX - BLUE BOX", "address": {"city": "KALAMAZOO", "state": "MI", "street": "1717 SHAFFER ST", "postcode": "49001"}}},
{"geometry": {"type": "Point", "coordinates": [-85.6016825434, 42.2790229569]}, "type": "Feature", "properties": {"collection_times": [{"days": "Mon-Fri", "time": "2:30pm"}, {"days": "Sat", "time": "1:00pm"}, {"days": "Sun", "time": "Closed"}], "id": "4900100015", "name": "USPS COLLECTION BOX - BLUE BOX", "address": {"city": "KALAMAZOO", "state": "MI", "street": "1312 OAKLAND DR", "postcode": "49001"}}},
{"geometry": {"type": "Point", "coordinates": [-85.5609925792, 42.3050324728]}, "type": "Feature", "properties": {"collection_times": [{"days": "Mon-Fri", "time": "2:45pm"}, {"days": "Sat", "time": "1:30pm"}, {"days": "Sun", "time": "Closed"}], "id": "4900100016", "name": "USPS COLLECTION BOX - BLUE BOX", "address": {"city": "KALAMAZOO", "state": "MI", "street": "1521 GULL RD", "postcode": "49001"}}},
{"geometry": {"type": "Point", "coordinates": [-85.5240835593, 42.2608958453]}, "type": "Feature", "properties": {"collection_times": [{"days": "Mon-Sat", "time": "10:30am"}, {"days": "Sun", "time": "Closed"}], "id": "4900100018", "name": "USPS COLLECTION BOX - BLUE BOX", "address": {"city": "KALAMAZOO", "state": "MI", "street": "3005 BUSINESS ONE DR", "postcode": "49001"}}},
{"geometry": {"type": "Point", "coordinates": [-85.5604152988, 42.2516898197]}, "type": "Feature", "properties": {"collection_times": [{"days": "Mon-Sat", "time": "11:00am"}, {"days": "Sun", "time": "Closed"}], "id": "4900100022", "name": "USPS COLLECTION BOX - BLUE BOX", "address": {"city": "KALAMAZOO", "state": "MI", "street": "4002 PORTAGE ST", "postcode": "49001"}}},
{"geometry": {"type": "Point", "coordinates": [-85.5878980136, 42.274054689]}, "type": "Feature", "properties": {"collection_times": [{"days": "Mon-Fri", "time": "2:00pm"}, {"days": "Sat", "time": "1:00pm"}, {"days": "Sun", "time": "Closed"}], "id": "4900100025", "name": "USPS COLLECTION BOX - BLUE BOX", "address": {"city": "KALAMAZOO", "state": "MI", "street": "400 HOWARD ST", "postcode": "49001"}}},
{"geometry": {"type": "Point", "coordinates": [-85.5784391655, 42.2775089657]}, "type": "Feature", "properties": {"collection_times": [{"days": "Mon-Fri", "time": "2:00pm"}, {"days": "Sat", "time": "1:00pm"}, {"days": "Sun", "time": "Closed"}], "id": "4900100026", "name": "USPS COLLECTION BOX - BLUE BOX", "address": {"city": "KALAMAZOO", "state": "MI", "street": "322 E STOCKBRIDGE AVE", "postcode": "49001"}}},
{"geometry": {"type": "Point", "coordinates": [-85.5682830292, 42.2595268691]}, "type": "Feature", "properties": {"collection_times": [{"days": "Mon-Sat", "time": "9:00am"}, {"days": "Sun", "time": "Closed"}], "id": "4900100031", "name": "USPS COLLECTION BOX - BLUE BOX", "address": {"city": "KALAMAZOO", "state": "MI", "street": "1010 E CORK ST", "postcode": "49001"}}},
{"geometry": {"type": "Point", "coordinates": [-85.5601005512, 42.2596125534]}, "type": "Feature", "properties": {"collection_times": [{"days": "Mon-Sat", "time": "11:30am"}, {"days": "Sun", "time": "Closed"}], "id": "4900100032", "name": "USPS COLLECTION BOX - BLUE BOX", "address": {"city": "KALAMAZOO", "state": "MI", "street": "1609 E CORK ST", "postcode": "49001"}}},
{"geometry": {"type": "Point", "coordinates": [-85.5516269749, 42.2587261196]}, "type": "Feature", "properties": {"collection_times": [{"days": "Mon-Sat", "time": "1:00pm"}, {"days": "Sun", "time": "Closed"}], "id": "4900100033", "name": "USPS COLLECTION BOX - BLUE BOX", "address": {"city": "KALAMAZOO", "state": "MI", "street": "2210 E CORK ST", "postcode": "49001"}}},
{"geometry": {"type": "Point", "coordinates": [-85.5740404297, 42.2665233788]}, "type": "Feature", "properties": {"collection_times": [{"days": "Mon-Sat", "time": "1:00pm"}, {"days": "Sun", "time": "Closed"}], "id": "4900100035", "name": "USPS COLLECTION BOX - BLUE BOX", "address": {"city": "KALAMAZOO", "state": "MI", "street": "549 GOLDEN DR", "postcode": "49001"}}},
{"geometry": {"type": "Point", "coordinates": [-85.5871300657, 42.2682133076]}, "type": "Feature", "properties": {"collection_times": [{"days": "Mon-Sat", "time": "12:00pm"}, {"days": "Sun", "time": "Closed"}], "id": "4900100039", "name": "USPS COLLECTION BOX - BLUE BOX", "address": {"city": "KALAMAZOO", "state": "MI", "street": "2321 S PARK ST", "postcode": "49001"}}},
{"geometry": {"type": "Point", "coordinates": [-85.5699097905, 42.3278676252]}, "type": "Feature", "properties": {"collection_times": [{"days": "Mon-Sat", "time": "11:00am"}, {"days": "Sun", "time": "Closed"}], "id": "4900100060", "name": "USPS COLLECTION BOX - BLUE BOX", "address": {"city": "KALAMAZOO", "state": "MI", "street": "142 N RIVERVIEW DR", "postcode": "49001"}}},
{"geometry": {"type": "Point", "coordinates": [-85.5663125527, 42.3315490255]}, "type": "Feature", "properties": {"collection_times": [{"days": "Mon-Fri", "time": "2:45pm"}, {"days": "Sat", "time": "2:30pm"}, {"days": "Sun", "time": "Closed"}], "id": "4900100061", "name": "USPS COLLECTION BOX - BLUE BOX", "address": {"city": "KALAMAZOO", "state": "MI", "street": "618 N RIVERVIEW DR", "postcode": "49001"}}},
{"geometry": {"type": "Point", "coordinates": [-85.5706345011, 42.3127758956]}, "type": "Feature", "properties": {"collection_times": [{"days": "Mon-Sat", "time": "2:00pm"}, {"days": "Sun", "time": "Closed"}], "id": "4900100062", "name": "USPS COLLECTION BOX - BLUE BOX", "address": {"city": "KALAMAZOO", "state": "MI", "street": "1720 RIVERVIEW DR", "postcode": "49001"}}},
{"geometry": {"type": "Point", "coordinates": [-85.572495131, 42.31873217]}, "type": "Feature", "properties": {"collection_times": [{"days": "Mon-Fri", "time": "4:05pm"}, {"days": "Sat", "time": "3:00pm"}, {"days": "Sun", "time": "Closed"}], "id": "4900100064", "name": "USPS COLLECTION BOX - PO LOBBY", "address": {"city": "KALAMAZOO", "state": "MI", "street": "839 COMMERCE LN", "postcode": "49001"}}},
{"geometry": {"type": "Point", "coordinates": [-85.5663928421, 42.2668568585]}, "type": "Feature", "properties": {"collection_times": [{"days": "Mon-Sat", "time": "4:05pm"}, {"days": "Sun", "time": "Closed"}], "id": "4900100072", "name": "USPS COLLECTION BOX - BLUE BOX", "address": {"city": "KALAMAZOO", "state": "MI", "street": "1121 MILLER RD", "postcode": "49001"}}},
{"geometry": {"type": "Point", "coordinates": [-85.5775076836, 42.283776991]}, "type": "Feature", "properties": {"collection_times": [{"days": "Mon-Fri", "time": "2:00pm"}, {"days": "Sat", "time": "1:00pm"}, {"days": "Sun", "time": "Closed"}], "id": "4900100076", "name": "USPS COLLECTION BOX - BLUE BOX", "address": {"city": "KALAMAZOO", "state": "MI", "street": "505 W CROSSTOWN PKWY", "postcode": "49001"}}},
{"geometry": {"type": "Point", "coordinates": [-85.572495131, 42.31873217]}, "type": "Feature", "properties": {"collection_times": [{"days": "Mon-Fri", "time": "4:05pm"}, {"days": "Sat", "time": "3:00pm"}, {"days": "Sun", "time": "Closed"}], "id": "4900100086", "name": "USPS COLLECTION BOX - BLUE BOX", "address": {"city": "KALAMAZOO", "state": "MI", "street": "839 COMMERCE LN", "postcode": "49001"}}},
{"geometry": {"type": "Point", "coordinates": [-85.558886728, 42.3078938744]}, "type": "Feature", "properties": {"collection_times": [{"days": "Mon-Fri", "time": "2:45pm"}, {"days": "Sat", "time": "1:30pm"}, {"days": "Sun", "time": "Closed"}], "id": "4900100087", "name": "USPS COLLECTION BOX - BLUE BOX", "address": {"city": "KALAMAZOO", "state": "MI", "street": "1717 SHAFFER ST", "postcode": "49001"}}},
{"geometry": {"type": "Point", "coordinates": [-85.566392842, 42.266856858]}, "type": "Feature", "properties": {"collection_times": [{"days": "Mon-Fri", "time": "4:05pm"}, {"days": "Sat", "time": "2:00pm"}, {"days": "Sun", "time": "Closed"}], "id": "4900100088", "name": "USPS COLLECTION BOX - PO LOBBY", "address": {"city": "KALAMAZOO", "state": "MI", "street": "1121 MILLER RD", "postcode": "49001"}}},
{"geometry": {"type": "Point", "coordinates": [-85.572495131, 42.31873217]}, "type": "Feature", "properties": {"collection_times": [{"days": "Mon-Fri", "time": "4:05pm"}, {"days": "Sat", "time": "3:00pm"}, {"days": "Sun", "time": "Closed"}], "id": "4900100089", "name": "USPS COLLECTION BOX - BLUE BOX", "address": {"city": "KALAMAZOO", "state": "MI", "street": "839 COMMERCE LN", "postcode": "49001"}}},
{"geometry": {"type": "Point", "coordinates": [-85.6306402431, 42.2575081185]}, "type": "Feature", "properties": {"collection_times": [{"days": "Mon-Sat", "time": "10:45am"}, {"days": "Sun", "time": "Closed"}], "id": "4900100098", "name": "USPS COLLECTION BOX - BLUE BOX", "address": {"city": "KALAMAZOO", "state": "MI", "street": "3301 GREENLEAF BLVD", "postcode": "49001"}}},
{"geometry": {"type": "Point", "coordinates": [-85.6133895065, 42.2610072605]}, "type": "Feature", "properties": {"collection_times": [{"days": "Mon-Fri", "time": "3:30pm"}, {"days": "Sat", "time": "1:00pm"}, {"days": "Sun", "time": "Closed"}], "id": "4900100105", "name": "USPS COLLECTION BOX - BLUE BOX", "address": {"city": "KALAMAZOO", "state": "MI", "street": "3015 OAKLAND DR", "postcode": "49001"}}},
{"geometry": {"type": "Point", "coordinates": [-85.5900861644, 42.2496441759]}, "type": "Feature", "properties": {"collection_times": [{"days": "Mon-Sat", "time": "11:30am"}, {"days": "Sun", "time": "Closed"}], "id": "4900100108", "name": "USPS COLLECTION BOX - BLUE BOX", "address": {"city": "KALAMAZOO", "state": "MI", "street": "526 PLEASANT AVE", "postcode": "49001"}}},
{"geometry": {"type": "Point", "coordinates": [-85.5896330081, 42.2840909903]}, "type": "Feature", "properties": {"collection_times": [{"days": "Mon-Sat", "time": "10:30am"}, {"days": "Sun", "time": "Closed"}], "id": "4900100111", "name": "USPS COLLECTION BOX - BLUE BOX", "address": {"city": "KALAMAZOO", "state": "MI", "street": "800 S WESTNEDGE AVE", "postcode": "49001"}}},
{"geometry": {"type": "Point", "coordinates": [-85.5895642721, 42.2471832269]}, "type": "Feature", "properties": {"collection_times": [{"days": "Mon-Fri", "time": "3:00pm"}, {"days": "Sat", "time": "1:00pm"}, {"days": "Sun", "time": "Closed"}], "id": "4900100112", "name": "USPS COLLECTION BOX - BLUE BOX", "address": {"city": "KALAMAZOO", "state": "MI", "street": "4341 S WESTNEDGE AVE", "postcode": "49001"}}},
{"geometry": {"type": "Point", "coordinates": [-85.6102874598, 42.2670772278]}, "type": "Feature", "properties": {"collection_times": [{"days": "Mon-Sat", "time": "12:30pm"}, {"days": "Sun", "time": "Closed"}], "id": "4900100114", "name": "USPS COLLECTION BOX - BLUE BOX", "address": {"city": "KALAMAZOO", "state": "MI", "street": "1820 WINCHELL AVE", "postcode": "49001"}}},
{"geometry": {"type": "Point", "coordinates": [-85.5896917382, 42.2606733413]}, "type": "Feature", "properties": {"collection_times": [{"days": "Mon-Sat", "time": "11:00am"}, {"days": "Sun", "time": "Closed"}], "id": "4900100129", "name": "USPS COLLECTION BOX - BLUE BOX", "address": {"city": "KALAMAZOO", "state": "MI", "street": "3016 S WESTNEDGE AVE", "postcode": "49001"}}},
{"geometry": {"type": "Point", "coordinates": [-85.5809675558, 42.2934820744]}, "type": "Feature", "properties": {"collection_times": [{"days": "Mon-Fri", "time": "2:45pm"}, {"days": "Sat", "time": "1:30pm"}, {"days": "Sun", "time": "Closed"}], "id": "4900100130", "name": "USPS COLLECTION BOX - BLUE BOX", "address": {"city": "KALAMAZOO", "state": "MI", "street": "211 E WATER ST", "postcode": "49001"}}},
{"geometry": {"type": "Point", "coordinates": [-85.4985409241, 42.2448140953]}, "type": "Feature", "properties": {"collection_times": [{"days": "Mon-Sat", "time": "10:30am"}, {"days": "Sun", "time": "Closed"}], "id": "4900100131", "name": "USPS COLLECTION BOX - BLUE BOX", "address": {"city": "KALAMAZOO", "state": "MI", "street": "6710 E N AVE", "postcode": "49001"}}},
{"geometry": {"type": "Point", "coordinates": [-85.5671069699, 42.2668832655]}, "type": "Feature", "properties": {"collection_times": [{"days": "Mon-Fri", "time": "2:45pm"}, {"days": "Sat", "time": "1:30pm"}, {"days": "Sun", "time": "Closed"}], "id": "4900100134", "name": "USPS COLLECTION BOX - BLUE BOX", "address": {"city": "KALAMAZOO", "state": "MI", "street": "5555 GULL RD", "postcode": "49001"}}},
{"geometry": {"type": "Point", "coordinates": [-85.5750610296, 42.212100355]}, "type": "Feature", "properties": {"collection_times": [{"days": "Mon-Fri", "time": "11:00am"}, {"days": "Sat", "time": "10:30am"}, {"days": "Sun", "time": "Closed"}], "id": "4900200002", "name": "USPS COLLECTION BOX - BLUE BOX", "address": {"city": "PORTAGE", "state": "MI", "street": "1267 BLUE BROOK LN", "postcode": "49002"}}},
{"geometry": {"type": "Point", "coordinates": [-85.5751632414, 42.243707578]}, "type": "Feature", "properties": {"collection_times": [{"days": "Mon-Fri", "time": "2:30pm"}, {"days": "Sat", "time": "1:00pm"}, {"days": "Sun", "time": "Closed"}], "id": "4900200003", "name": "USPS COLLECTION BOX - BLUE BOX", "address": {"city": "PORTAGE", "state": "MI", "street": "5084 LOVERS LN", "postcode": "49002"}}},
{"geometry": {"type": "Point", "coordinates": [-85.5894480231, 42.2064997961]}, "type": "Feature", "properties": {"collection_times": [{"days": "Mon-Fri", "time": "2:45pm"}, {"days": "Sat", "time": "1:00pm"}, {"days": "Sun", "time": "Closed"}], "id": "4900200005", "name": "USPS COLLECTION BOX - BLUE BOX", "address": {"city": "PORTAGE", "state": "MI", "street": "7616 S WESTNEDGE AVE", "postcode": "49002"}}},
{"geometry": {"type": "Point", "coordinates": [-85.5894555898, 42.2026755873]}, "type": "Feature", "properties": {"collection_times": [{"days": "Mon-Fri", "time": "2:45pm"}, {"days": "Sat", "time": "1:00pm"}, {"days": "Sun", "time": "Closed"}], "id": "4900200006", "name": "USPS COLLECTION BOX - BLUE BOX", "address": {"city": "PORTAGE", "state": "MI", "street": "7900 S WESTNEDGE AVE", "postcode": "49002"}}},
{"geometry": {"type": "Point", "coordinates": [-85.5892894536, 42.2020960557]}, "type": "Feature", "properties": {"collection_times": [{"days": "Mon-Fri", "time": "2:45pm"}, {"days": "Sat", "time": "1:00pm"}, {"days": "Sun", "time": "Closed"}], "id": "4900200007", "name": "USPS COLLECTION BOX - BLUE BOX", "address": {"city": "PORTAGE", "state": "MI", "street": "7941 S WESTNEDGE AVE", "postcode": "49002"}}},
{"geometry": {"type": "Point", "coordinates": [-85.5893383008, 42.2137969853]}, "type": "Feature", "properties": {"collection_times": [{"days": "Mon-Fri", "time": "2:30pm"}, {"days": "Sat", "time": "1:00pm"}, {"days": "Sun", "time": "Closed"}], "id": "4900200008", "name": "USPS COLLECTION BOX - BLUE BOX", "address": {"city": "PORTAGE", "state": "MI", "street": "7117 S WESTNEDGE AVE", "postcode": "49002"}}},
{"geometry": {"type": "Point", "coordinates": [-85.5895138452, 42.2188565213]}, "type": "Feature", "properties": {"collection_times": [{"days": "Mon-Sat", "time": "10:00am"}, {"days": "Sun", "time": "Closed"}], "id": "4900200012", "name": "USPS COLLECTION BOX - BLUE BOX", "address": {"city": "PORTAGE", "state": "MI", "street": "6772 S WESTNEDGE AVE", "postcode": "49002"}}},
{"geometry": {"type": "Point", "coordinates": [-85.5895427811, 42.2212467596]}, "type": "Feature", "properties": {"collection_times": [{"days": "Mon-Fri", "time": "2:30pm"}, {"days": "Sat", "time": "1:00pm"}, {"days": "Sun", "time": "Closed"}], "id": "4900200013", "name": "USPS COLLECTION BOX - BLUE BOX", "address": {"city": "PORTAGE", "state": "MI", "street": "6650 S WESTNEDGE AVE", "postcode": "49002"}}},
{"geometry": {"type": "Point", "coordinates": [-85.589589415, 42.2254373561]}, "type": "Feature", "properties": {"collection_times": [{"days": "Mon-Fri", "time": "2:30pm"}, {"days": "Sat", "time": "1:00pm"}, {"days": "Sun", "time": "Closed"}], "id": "4900200014", "name": "USPS COLLECTION BOX - BLUE BOX", "address": {"city": "PORTAGE", "state": "MI", "street": "6330 S WESTNEDGE AVE", "postcode": "49002"}}},
{"geometry": {"type": "Point", "coordinates": [-85.589370225, 42.2191540086]}, "type": "Feature", "properties": {"collection_times": [{"days": "Mon-Fri", "time": "2:30pm"}, {"days": "Sat", "time": "1:00pm"}, {"days": "Sun", "time": "Closed"}], "id": "4900200015", "name": "USPS COLLECTION BOX - BLUE BOX", "address": {"city": "PORTAGE", "state": "MI", "street": "6749 S WESTNEDGE AVE", "postcode": "49002"}}},
{"geometry": {"type": "Point", "coordinates": [-85.5317129705, 42.2429195838]}, "type": "Feature", "properties": {"collection_times": [{"days": "Mon-Fri", "time": "1:45pm"}, {"days": "Sat", "time": "1:00pm"}, {"days": "Sun", "time": "Closed"}], "id": "4900200016", "name": "USPS COLLECTION BOX - BLUE BOX", "address": {"city": "PORTAGE", "state": "MI", "street": "5124 S SPRINKLE RD", "postcode": "49002"}}},
{"geometry": {"type": "Point", "coordinates": [-85.5593231975, 42.1977247257]}, "type": "Feature", "properties": {"collection_times": [{"days": "Mon-Sat", "time": "1:00pm"}, {"days": "Sun", "time": "Closed"}], "id": "4900200018", "name": "USPS COLLECTION BOX - BLUE BOX", "address": {"city": "PORTAGE", "state": "MI", "street": "625 DELTA CT", "postcode": "49002"}}},
{"geometry": {"type": "Point", "coordinates": [-85.5482927812, 42.2008729408]}, "type": "Feature", "properties": {"collection_times": [{"days": "Mon-Fri", "time": "2:45pm"}, {"days": "Sat", "time": "1:00pm"}, {"days": "Sun", "time": "Closed"}], "id": "4900200019", "name": "USPS COLLECTION BOX - BLUE BOX", "address": {"city": "PORTAGE", "state": "MI", "street": "3774 W CENTRE AVE", "postcode": "49002"}}},
{"geometry": {"type": "Point", "coordinates": [-85.5625166358, 42.1878703002]}, "type": "Feature", "properties": {"collection_times": [{"days": "Mon-Fri", "time": "2:45pm"}, {"days": "Sat", "time": "1:00pm"}, {"days": "Sun", "time": "Closed"}], "id": "4900200021", "name": "USPS COLLECTION BOX - BLUE BOX", "address": {"city": "PORTAGE", "state": "MI", "street": "8901 PORTAGE RD", "postcode": "49002"}}},
{"geometry": {"type": "Point", "coordinates": [-85.5965699405, 42.2155747023]}, "type": "Feature", "properties": {"collection_times": [{"days": "Mon-Sat", "time": "9:45am"}, {"days": "Sun", "time": "Closed"}], "id": "4900200024", "name": "USPS COLLECTION BOX - BLUE BOX", "address": {"city": "PORTAGE", "state": "MI", "street": "640 ROMENCE RD", "postcode": "49002"}}},
{"geometry": {"type": "Point", "coordinates": [-85.5701738701, 42.2010490518]}, "type": "Feature", "properties": {"collection_times": [{"days": "Mon-Fri", "time": "4:00pm"}, {"days": "Sat", "time": "1:00pm"}, {"days": "Sun", "time": "Closed"}], "id": "4900200028", "name": "USPS COLLECTION BOX - BLUE BOX", "address": {"city": "PORTAGE", "state": "MI", "street": "1615 W CENTRE AVE", "postcode": "49002"}}},
{"geometry": {"type": "Point", "coordinates": [-85.5894472214, 42.2433390525]}, "type": "Feature", "properties": {"collection_times": [{"days": "Mon-Fri", "time": "3:00pm"}, {"days": "Sat", "time": "1:00pm"}, {"days": "Sun", "time": "Closed"}], "id": "4900200037", "name": "USPS COLLECTION BOX - BLUE BOX", "address": {"city": "PORTAGE", "state": "MI", "street": "5121 S WESTNEDGE AVE", "postcode": "49002"}}},
{"geometry": {"type": "Point", "coordinates": [-85.5397410549, 42.2243888346]}, "type": "Feature", "properties": {"collection_times": [{"days": "Mon-Fri", "time": "1:45pm"}, {"days": "Sat", "time": "1:00pm"}, {"days": "Sun", "time": "Closed"}], "id": "4900200043", "name": "USPS COLLECTION BOX - BLUE BOX", "address": {"city": "PORTAGE", "state": "MI", "street": "4169 COMMERCIAL AVE", "postcode": "49002"}}},
{"geometry": {"type": "Point", "coordinates": [-85.5600795071, 42.2018365371]}, "type": "Feature", "properties": {"collection_times": [{"days": "Mon-Fri", "time": "2:45pm"}, {"days": "Sat", "time": "1:00pm"}, {"days": "Sun", "time": "Closed"}], "id": "4900200044", "name": "USPS COLLECTION BOX - BLUE BOX", "address": {"city": "PORTAGE", "state": "MI", "street": "7920 PORTAGE RD", "postcode": "49002"}}},
{"geometry": {"type": "Point", "coordinates": [-85.5827904804, 42.2300583939]}, "type": "Feature", "properties": {"collection_times": [{"days": "Mon-Fri", "time": "10:30am"}, {"days": "Sat", "time": "10:00am"}, {"days": "Sun", "time": "Closed"}], "id": "4900200069", "name": "USPS COLLECTION BOX - BLUE BOX", "address": {"city": "PORTAGE", "state": "MI", "street": "800 E MILHAM AVE", "postcode": "49002"}}},
{"geometry": {"type": "Point", "coordinates": [-85.540039992, 42.185014644]}, "type": "Feature", "properties": {"collection_times": [{"days": "Mon-Fri", "time": "11:00am"}, {"days": "Sat", "time": "10:30am"}, {"days": "Sun", "time": "Closed"}], "id": "4900200071", "name": "USPS COLLECTION BOX - BLUE BOX", "address": {"city": "PORTAGE", "state": "MI", "street": "9119 S SPRINKLE RD", "postcode": "49002"}}},
{"geometry": {"type": "Point", "coordinates": [-85.5355844802, 42.2397380408]}, "type": "Feature", "properties": {"collection_times": [{"days": "Mon-Sat", "time": "1:00pm"}, {"days": "Sun", "time": "Closed"}], "id": "4900200087", "name": "USPS COLLECTION BOX - BLUE BOX", "address": {"city": "PORTAGE", "state": "MI", "street": "5419 MEREDITH ST", "postcode": "49002"}}},
{"geometry": {"type": "Point", "coordinates": [-85.5397410549, 42.2243888346]}, "type": "Feature", "properties": {"collection_times": [{"days": "Mon-Fri", "time": "1:45pm"}, {"days": "Sat", "time": "1:00pm"}, {"days": "Sun", "time": "Closed"}], "id": "4900200088", "name": "USPS COLLECTION BOX - BLUE BOX", "address": {"city": "PORTAGE", "state": "MI", "street": "4169 COMMERCIAL AVE", "postcode": "49002"}}},
{"geometry": {"type": "Point", "coordinates": [-85.566420679, 42.2009269626]}, "type": "Feature", "properties": {"collection_times": [{"days": "Mon-Fri", "time": "4:00pm"}, {"days": "Sat", "time": "1:00pm"}, {"days": "Sun", "time": "Closed"}], "id": "4900200090", "name": "USPS COLLECTION BOX - BLUE BOX", "address": {"city": "PORTAGE", "state": "MI", "street": "1950 W CENTRE AVE", "postcode": "49002"}}},
{"geometry": {"type": "Point", "coordinates": [-85.5951236804, 42.215460337]}, "type": "Feature", "properties": {"collection_times": [{"days": "Mon-Fri", "time": "10:00am"}, {"days": "Sat", "time": "9:45am"}, {"days": "Sun", "time": "Closed"}], "id": "4900200091", "name": "USPS COLLECTION BOX - BLUE BOX", "address": {"city": "PORTAGE", "state": "MI", "street": "525 ROMENCE RD", "postcode": "49002"}}},
{"geometry": {"type": "Point", "coordinates": [-85.5600055507, 42.2406865806]}, "type": "Feature", "properties": {"collection_times": [{"days": "Mon-Sat", "time": "10:00am"}, {"days": "Sun", "time": "Closed"}], "id": "4900200092", "name": "USPS COLLECTION BOX - BLUE BOX", "address": {"city": "PORTAGE", "state": "MI", "street": "5235 PORTAGE RD", "postcode": "49002"}}},
{"geometry": {"type": "Point", "coordinates": [-85.5957637276, 42.1957670666]}, "type": "Feature", "properties": {"collection_times": [{"days": "Mon-Fri", "time": "2:45pm"}, {"days": "Sat", "time": "1:00pm"}, {"days": "Sun", "time": "Closed"}], "id": "4900500002", "name": "USPS COLLECTION BOX - BLUE BOX", "address": {"city": "PORTAGE", "state": "MI", "street": "8350 SHAVER RD", "postcode": "49005"}}},
{"geometry": {"type": "Point", "coordinates": [-85.6774980748, 42.2547956355]}, "type": "Feature", "properties": {"collection_times": [{"days": "Mon-Sat", "time": "4:30pm"}, {"days": "Sun", "time": "Closed"}], "id": "4900600014", "name": "USPS COLLECTION BOX - BLUE BOX", "address": {"city": "KALAMAZOO", "state": "MI", "street": "3885 S 9TH ST", "postcode": "49006"}}},
{"geometry": {"type": "Point", "coordinates": [-85.6248299113, 42.2920463803]}, "type": "Feature", "properties": {"collection_times": [{"days": "Mon-Fri", "time": "4:00pm"}, {"days": "Sat", "time": "1:00pm"}, {"days": "Sun", "time": "Closed"}], "id": "4900600017", "name": "USPS COLLECTION BOX - BLUE BOX", "address": {"city": "KALAMAZOO", "state": "MI", "street": "8550 SHAVER RD", "postcode": "49006"}}},
{"geometry": {"type": "Point", "coordinates": [-85.6248299113, 42.2920463803]}, "type": "Feature", "properties": {"collection_times": [{"days": "Mon-Fri", "time": "4:00pm"}, {"days": "Sat", "time": "1:00pm"}, {"days": "Sun", "time": "Closed"}], "id": "4900600018", "name": "USPS COLLECTION BOX - BLUE BOX", "address": {"city": "KALAMAZOO", "state": "MI", "street": "951 W CENTRE AVE", "postcode": "49006"}}},
{"geometry": {"type": "Point", "coordinates": [-85.6248299113, 42.2920463803]}, "type": "Feature", "properties": {"collection_times": [{"days": "Mon-Fri", "time": "4:00pm"}, {"days": "Sat", "time": "1:00pm"}, {"days": "Sun", "time": "Closed"}], "id": "4900600019", "name": "USPS COLLECTION BOX - BLUE BOX", "address": {"city": "KALAMAZOO", "state": "MI", "street": "951 W CENTRE ST", "postcode": "49006"}}},
{"geometry": {"type": "Point", "coordinates": [-85.6306570204, 42.2931618588]}, "type": "Feature", "properties": {"collection_times": [{"days": "Mon-Sat", "time": "10:00am"}, {"days": "Sun", "time": "Closed"}], "id": "4900600020", "name": "USPS COLLECTION BOX - BLUE BOX", "address": {"city": "KALAMAZOO", "state": "MI", "street": "3506 SHADOW BEND DR", "postcode": "49006"}}},
{"geometry": {"type": "Point", "coordinates": [-85.5270184304, 42.2667005012]}, "type": "Feature", "properties": {"collection_times": [{"days": "Mon-Fri", "time": "1:45pm"}, {"days": "Sat", "time": "1:00pm"}, {"days": "Sun", "time": "Closed"}], "id": "4900600021", "name": "USPS COLLECTION BOX - BLUE BOX", "address": {"city": "KALAMAZOO", "state": "MI", "street": "5121 E ML AVE", "postcode": "49006"}}},
{"geometry": {"type": "Point", "coordinates": [-85.53094598, 42.3328330199]}, "type": "Feature", "properties": {"collection_times": [{"days": "Mon-Sat", "time": "11:00am"}, {"days": "Sun", "time": "Closed"}], "id": "4900600022", "name": "USPS COLLECTION BOX - BLUE BOX", "address": {"city": "KALAMAZOO", "state": "MI", "street": "5001 E G AVE", "postcode": "49006"}}},
{"geometry": {"type": "Point", "coordinates": [-85.5822097848, 42.2805336206]}, "type": "Feature", "properties": {"collection_times": [{"days": "Mon-Fri", "time": "2:00pm"}, {"days": "Sat", "time": "1:00pm"}, {"days": "Sun", "time": "Closed"}], "id": "4900600023", "name": "USPS COLLECTION BOX - BLUE BOX", "address": {"city": "KALAMAZOO", "state": "MI", "street": "150 E CROSSTOWN PKWY", "postcode": "49006"}}},
{"geometry": {"type": "Point", "coordinates": [-85.6306570204, 42.2931618588]}, "type": "Feature", "properties": {"collection_times": [{"days": "Mon-Sat", "time": "4:30pm"}, {"days": "Sun", "time": "Closed"}], "id": "4900600024", "name": "USPS COLLECTION BOX - EXPRESS", "address": {"city": "KALAMAZOO", "state": "MI", "street": "3885 S 9TH ST", "postcode": "49006"}}},
{"geometry": {"type": "Point", "coordinates": [-85.6489453228, 42.2963445276]}, "type": "Feature", "properties": {"collection_times": [{"days": "Mon-Sat", "time": "2:45pm"}, {"days": "Sun", "time": "Closed"}], "id": "4900600025", "name": "USPS COLLECTION BOX - BLUE BOX", "address": {"city": "KALAMAZOO", "state": "MI", "street": "5020 W MAIN ST", "postcode": "49006"}}},
{"geometry": {"type": "Point", "coordinates": [-85.5807085696, 42.2892365212]}, "type": "Feature", "properties": {"collection_times": [{"days": "Mon-Fri", "time": "2:00pm"}, {"days": "Sat", "time": "1:00pm"}, {"days": "Sun", "time": "Closed"}], "id": "4900700001", "name": "USPS COLLECTION BOX - BLUE BOX", "address": {"city": "WESTWOOD", "state": "MI", "street": "1 HEALTHCARE PLZ", "postcode": "49007"}}},
{"geometry": {"type": "Point", "coordinates": [-85.6797435395, 42.2611606136]}, "type": "Feature", "properties": {"collection_times": [{"days": "Mon-Sat", "time": "11:00am"}, {"days": "Sun", "time": "Closed"}], "id": "4900900000", "name": "USPS COLLECTION BOX - BLUE BOX", "address": {"city": "KALAMAZOO", "state": "MI", "street": "3080 MILL CREEK DR", "postcode": "49009"}}},
{"geometry": {"type": "Point", "coordinates": [-85.7214568911, 42.2956554218]}, "type": "Feature", "properties": {"collection_times": [{"days": "Mon-Sat", "time": "12:30pm"}, {"days": "Sun", "time": "Closed"}], "id": "4900900001", "name": "USPS COLLECTION BOX - BLUE BOX", "address": {"city": "KALAMAZOO", "state": "MI", "street": "8441 W MAIN ST", "postcode": "49009"}}},
{"geometry": {"type": "Point", "coordinates": [-85.6800494854, 42.2957263463]}, "type": "Feature", "properties": {"collection_times": [{"days": "Mon-Fri", "time": "2:45pm"}, {"days": "Sat", "time": "12:30pm"}, {"days": "Sun", "time": "Closed"}], "id": "4900900002", "name": "USPS COLLECTION BOX - BLUE BOX", "address": {"city": "KALAMAZOO", "state": "MI", "street": "5955 W MAIN ST", "postcode": "49009"}}},
{"geometry": {"type": "Point", "coordinates": [-85.6770877491, 42.275942602]}, "type": "Feature", "properties": {"collection_times": [{"days": "Mon-Sat", "time": "10:30am"}, {"days": "Sun", "time": "Closed"}], "id": "4900900003", "name": "USPS COLLECTION BOX - BLUE BOX", "address": {"city": "KALAMAZOO", "state": "MI", "street": "4695 MAPLE LAWN ST", "postcode": "49009"}}},
{"geometry": {"type": "Point", "coordinates": [-85.5896506521, 42.2886629189]}, "type": "Feature", "properties": {"collection_times": [{"days": "Mon-Fri", "time": "2:45pm"}, {"days": "Sat", "time": "1:00pm"}, {"days": "Sun", "time": "Closed"}], "id": "4900900008", "name": "USPS COLLECTION BOX - BLUE BOX", "address": {"city": "KALAMAZOO", "state": "MI", "street": "402 S WESTNEDGE AVE", "postcode": "49009"}}},
{"geometry": {"type": "Point", "coordinates": [-85.5914042916, 42.2915844397]}, "type": "Feature", "properties": {"collection_times": [{"days": "Mon-Sat", "time": "10:00am"}, {"days": "Sun", "time": "Closed"}], "id": "4900900012", "name": "USPS COLLECTION BOX - BLUE BOX", "address": {"city": "KALAMAZOO", "state": "MI", "street": "600 W MICHIGAN AVE", "postcode": "49009"}}},
{"geometry": {"type": "Point", "coordinates": [-85.5823173192, 42.2916271758]}, "type": "Feature", "properties": {"collection_times": [{"days": "Mon-Fri", "time": "3:00pm"}, {"days": "Sat", "time": "1:00pm"}, {"days": "Sun", "time": "Closed"}], "id": "4900900017", "name": "USPS COLLECTION BOX - BLUE BOX", "address": {"city": "KALAMAZOO", "state": "MI", "street": "136 E MICHIGAN AVE", "postcode": "49009"}}},
{"geometry": {"type": "Point", "coordinates": [-85.5829315196, 42.2864615793]}, "type": "Feature", "properties": {"collection_times": [{"days": "Mon-Fri", "time": "2:45pm"}, {"days": "Sat", "time": "1:00pm"}, {"days": "Sun", "time": "Closed"}], "id": "4900900021", "name": "USPS COLLECTION BOX - BLUE BOX", "address": {"city": "KALAMAZOO", "state": "MI", "street": "535 S BURDICK ST", "postcode": "49009"}}},
{"geometry": {"type": "Point", "coordinates": [-85.5829315196, 42.2864615793]}, "type": "Feature", "properties": {"collection_times": [{"days": "Mon-Fri", "time": "2:45pm"}, {"days": "Sat", "time": "1:00pm"}, {"days": "Sun", "time": "Closed"}], "id": "4900900022", "name": "USPS COLLECTION BOX - BLUE BOX", "address": {"city": "KALAMAZOO", "state": "MI", "street": "535 S BURDICK ST", "postcode": "49009"}}},
{"geometry": {"type": "Point", "coordinates": [-85.5843745233, 42.3032842267]}, "type": "Feature", "properties": {"collection_times": [{"days": "Mon-Sat", "time": "9:15am"}, {"days": "Sun", "time": "Closed"}], "id": "4900900024", "name": "USPS COLLECTION BOX - BLUE BOX", "address": {"city": "KALAMAZOO", "state": "MI", "street": "117 W PATERSON ST", "postcode": "49009"}}},
{"geometry": {"type": "Point", "coordinates": [-85.5833611412, 42.2916146592]}, "type": "Feature", "properties": {"collection_times": [{"days": "Mon-Fri", "time": "3:00pm"}, {"days": "Sat", "time": "1:00pm"}, {"days": "Sun", "time": "Closed"}], "id": "4900900025", "name": "USPS COLLECTION BOX - BLUE BOX", "address": {"city": "KALAMAZOO", "state": "MI", "street": "107 W MICHIGAN AVE", "postcode": "49009"}}},
{"geometry": {"type": "Point", "coordinates": [-85.5845882636, 42.2868629768]}, "type": "Feature", "properties": {"collection_times": [{"days": "Mon-Fri", "time": "3:00pm"}, {"days": "Sat", "time": "1:00pm"}, {"days": "Sun", "time": "Closed"}], "id": "4900900031", "name": "USPS COLLECTION BOX - BLUE BOX", "address": {"city": "KALAMAZOO", "state": "MI", "street": "527 S ROSE ST", "postcode": "49009"}}},
{"geometry": {"type": "Point", "coordinates": [-85.6481875327, 42.2793494883]}, "type": "Feature", "properties": {"collection_times": [{"days": "Mon-Sat", "time": "1:00pm"}, {"days": "Sun", "time": "Closed"}], "id": "4900900041", "name": "USPS COLLECTION BOX - BLUE BOX", "address": {"city": "KALAMAZOO", "state": "MI", "street": "855 S DRAKE RD", "postcode": "49009"}}},
{"geometry": {"type": "Point", "coordinates": [-85.6481681749, 42.2826556283]}, "type": "Feature", "properties": {"collection_times": [{"days": "Mon-Sat", "time": "1:00pm"}, {"days": "Sun", "time": "Closed"}], "id": "4900900042", "name": "USPS COLLECTION BOX - BLUE BOX", "address": {"city": "KALAMAZOO", "state": "MI", "street": "555 S DRAKE RD", "postcode": "49009"}}},
{"geometry": {"type": "Point", "coordinates": [-85.6556577686, 42.2650373872]}, "type": "Feature", "properties": {"collection_times": [{"days": "Mon-Fri", "time": "2:15pm"}, {"days": "Sat", "time": "12:30pm"}, {"days": "Sun", "time": "Closed"}], "id": "4900900043", "name": "USPS COLLECTION BOX - BLUE BOX", "address": {"city": "KALAMAZOO", "state": "MI", "street": "5340 HOLIDAY TER", "postcode": "49009"}}},
{"geometry": {"type": "Point", "coordinates": [-85.58856822, 42.294376108]}, "type": "Feature", "properties": {"collection_times": [{"days": "Mon-Fri", "time": "4:00pm"}, {"days": "Sat", "time": "1:00pm"}, {"days": "Sun", "time": "Closed"}], "id": "4900900046", "name": "USPS COLLECTION BOX - BLUE BOX", "address": {"city": "KALAMAZOO", "state": "MI", "street": "429 W KALAMAZOO AVE", "postcode": "49009"}}},
{"geometry": {"type": "Point", "coordinates": [-85.6221756493, 42.2917494561]}, "type": "Feature", "properties": {"collection_times": [{"days": "Mon-Sat", "time": "11:00am"}, {"days": "Sun", "time": "Closed"}], "id": "4900900047", "name": "USPS COLLECTION BOX - BLUE BOX", "address": {"city": "KALAMAZOO", "state": "MI", "street": "200 LAKE FOREST BLVD", "postcode": "49009"}}},
{"geometry": {"type": "Point", "coordinates": [-85.6305076036, 42.2962400127]}, "type": "Feature", "properties": {"collection_times": [{"days": "Mon-Sat", "time": "9:45am"}, {"days": "Sun", "time": "Closed"}], "id": "4900900048", "name": "USPS COLLECTION BOX - BLUE BOX", "address": {"city": "KALAMAZOO", "state": "MI", "street": "3306 W MAIN ST", "postcode": "49009"}}},
{"geometry": {"type": "Point", "coordinates": [-85.6480567977, 42.306214932]}, "type": "Feature", "properties": {"collection_times": [{"days": "Mon-Sat", "time": "9:45am"}, {"days": "Sun", "time": "Closed"}], "id": "4900900050", "name": "USPS COLLECTION BOX - BLUE BOX", "address": {"city": "KALAMAZOO", "state": "MI", "street": "1400 N DRAKE RD", "postcode": "49009"}}},
{"geometry": {"type": "Point", "coordinates": [-85.645216353, 42.2726078934]}, "type": "Feature", "properties": {"collection_times": [{"days": "Mon-Sat", "time": "1:00pm"}, {"days": "Sun", "time": "Closed"}], "id": "4900900054", "name": "USPS COLLECTION BOX - BLUE BOX", "address": {"city": "KALAMAZOO", "state": "MI", "street": "4412 RIDGEWAY CIR", "postcode": "49009"}}},
{"geometry": {"type": "Point", "coordinates": [-85.6524064003, 42.2780283807]}, "type": "Feature", "properties": {"collection_times": [{"days": "Mon-Sat", "time": "11:00am"}, {"days": "Sun", "time": "Closed"}], "id": "4900900055", "name": "USPS COLLECTION BOX - BLUE BOX", "address": {"city": "KALAMAZOO", "state": "MI", "street": "4717 W KL AVE", "postcode": "49009"}}},
{"geometry": {"type": "Point", "coordinates": [-85.6398981681, 42.2963105366]}, "type": "Feature", "properties": {"collection_times": [{"days": "Mon-Sat", "time": "9:45am"}, {"days": "Sun", "time": "Closed"}], "id": "4900900058", "name": "USPS COLLECTION BOX - BLUE BOX", "address": {"city": "KALAMAZOO", "state": "MI", "street": "4200 W MAIN ST", "postcode": "49009"}}},
{"geometry": {"type": "Point", "coordinates": [-85.5875572085, 42.2916355768]}, "type": "Feature", "properties": {"collection_times": [{"days": "Mon-Fri", "time": "4:00pm"}, {"days": "Sat", "time": "1:00pm"}, {"days": "Sun", "time": "Closed"}], "id": "4900900074", "name": "USPS COLLECTION BOX - BLUE BOX", "address": {"city": "KALAMAZOO", "state": "MI", "street": "410 W MICHIGAN AVE", "postcode": "49009"}}},
{"geometry": {"type": "Point", "coordinates": [-85.5849114809, 42.2935917738]}, "type": "Feature", "properties": {"collection_times": [{"days": "Mon-Fri", "time": "3:00pm"}, {"days": "Sat", "time": "1:00pm"}, {"days": "Sun", "time": "Closed"}], "id": "4900900075", "name": "USPS COLLECTION BOX - BLUE BOX", "address": {"city": "KALAMAZOO", "state": "MI", "street": "303 N ROSE ST", "postcode": "49009"}}},
{"geometry": {"type": "Point", "coordinates": [-85.5846680164, 42.2911694357]}, "type": "Feature", "properties": {"collection_times": [{"days": "Mon-Fri", "time": "2:45pm"}, {"days": "Sat", "time": "1:00pm"}, {"days": "Sun", "time": "Closed"}], "id": "4900900076", "name": "USPS COLLECTION BOX - BLUE BOX", "address": {"city": "KALAMAZOO", "state": "MI", "street": "151 S ROSE ST", "postcode": "49009"}}},
{"geometry": {"type": "Point", "coordinates": [-85.6097661571, 42.2848930864]}, "type": "Feature", "properties": {"collection_times": [{"days": "Mon-Fri", "time": "2:30pm"}, {"days": "Sat", "time": "1:00pm"}, {"days": "Sun", "time": "Closed"}], "id": "4900900077", "name": "USPS COLLECTION BOX - BLUE BOX", "address": {"city": "KALAMAZOO", "state": "MI", "street": "1921 W MICHIGAN AVE", "postcode": "49009"}}},
{"geometry": {"type": "Point", "coordinates": [-85.6904111602, 42.2957860953]}, "type": "Feature", "properties": {"collection_times": [{"days": "Mon-Fri", "time": "3:00pm"}, {"days": "Sat", "time": "1:00pm"}, {"days": "Sun", "time": "Closed"}], "id": "4900900080", "name": "USPS COLLECTION BOX - BLUE BOX", "address": {"city": "KALAMAZOO", "state": "MI", "street": "6660 W MAIN ST", "postcode": "49009"}}},
{"geometry": {"type": "Point", "coordinates": [-85.5897891149, 42.2903746159]}, "type": "Feature", "properties": {"collection_times": [{"days": "Mon-Fri", "time": "2:45pm"}, {"days": "Sat", "time": "1:00pm"}, {"days": "Sun", "time": "Closed"}], "id": "4900900083", "name": "USPS COLLECTION BOX - BLUE BOX", "address": {"city": "KALAMAZOO", "state": "MI", "street": "222 S WESTNEDGE AVE", "postcode": "49009"}}},
{"geometry": {"type": "Point", "coordinates": [-85.5875572085, 42.2916355768]}, "type": "Feature", "properties": {"collection_times": [{"days": "Mon-Fri", "time": "4:00pm"}, {"days": "Sat", "time": "1:00pm"}, {"days": "Sun", "time": "Closed"}], "id": "4900900099", "name": "USPS COLLECTION BOX - BLUE BOX", "address": {"city": "KALAMAZOO", "state": "MI", "street": "410 W MICHIGAN AVE", "postcode": "49009"}}},
{"geometry": {"type": "Point", "coordinates": [-85.5849114809, 42.2935917738]}, "type": "Feature", "properties": {"collection_times": [{"days": "Mon-Fri", "time": "3:00pm"}, {"days": "Sat", "time": "1:00pm"}, {"days": "Sun", "time": "Closed"}], "id": "4900900107", "name": "USPS COLLECTION BOX - BLUE BOX", "address": {"city": "KALAMAZOO", "state": "MI", "street": "303 N ROSE ST", "postcode": "49009"}}},
{"geometry": {"type": "Point", "coordinates": [-85.5833611412, 42.2916146592]}, "type": "Feature", "properties": {"collection_times": [{"days": "Mon-Fri", "time": "3:00pm"}, {"days": "Sat", "time": "1:00pm"}, {"days": "Sun", "time": "Closed"}], "id": "4900900108", "name": "USPS COLLECTION BOX - BLUE BOX", "address": {"city": "KALAMAZOO", "state": "MI", "street": "107 W MICHIGAN AVE", "postcode": "49009"}}},
{"geometry": {"type": "Point", "coordinates": [-85.6800494854, 42.2957263463]}, "type": "Feature", "properties": {"collection_times": [{"days": "Mon-Fri", "time": "2:45pm"}, {"days": "Sat", "time": "12:30pm"}, {"days": "Sun", "time": "Closed"}], "id": "4900900111", "name": "USPS COLLECTION BOX - BLUE BOX", "address": {"city": "KALAMAZOO", "state": "MI", "street": "5955 W MAIN ST", "postcode": "49009"}}},
{"geometry": {"type": "Point", "coordinates": [-85.6676635338, 42.2959585299]}, "type": "Feature", "properties": {"collection_times": [{"days": "Mon-Sat", "time": "2:00pm"}, {"days": "Sun", "time": "Closed"}], "id": "4900900113", "name": "USPS COLLECTION BOX - BLUE BOX", "address": {"city": "KALAMAZOO", "state": "MI", "street": "5350 W MAIN ST", "postcode": "49009"}}},
{"geometry": {"type": "Point", "coordinates": [-85.6724756806, 42.2366330631]}, "type": "Feature", "properties": {"collection_times": [{"days": "Mon-Sat", "time": "9:45am"}, {"days": "Sun", "time": "Closed"}], "id": "4900900115", "name": "USPS COLLECTION BOX - BLUE BOX", "address": {"city": "KALAMAZOO", "state": "MI", "street": "5596 AL SABO DR", "postcode": "49009"}}},
{"geometry": {"type": "Point", "coordinates": [-85.6776002392, 42.2812498177]}, "type": "Feature", "properties": {"collection_times": [{"days": "Mon-Sat", "time": "9:30am"}, {"days": "Sun", "time": "Closed"}], "id": "4900900116", "name": "USPS COLLECTION BOX - BLUE BOX", "address": {"city": "KALAMAZOO", "state": "MI", "street": "1410 S 9TH ST", "postcode": "49009"}}},
{"geometry": {"type": "Point", "coordinates": [-85.648207702, 42.293714677]}, "type": "Feature", "properties": {"collection_times": [{"days": "Mon-Sat", "time": "4:30pm"}, {"days": "Sun", "time": "Closed"}], "id": "4900900117", "name": "USPS COLLECTION BOX - BLUE BOX", "address": {"city": "KALAMAZOO", "state": "MI", "street": "167 N DRAKE RD", "postcode": "49009"}}},
{"geometry": {"type": "Point", "coordinates": [-85.6551856013, 42.2795822836]}, "type": "Feature", "properties": {"collection_times": [{"days": "Mon-Sat", "time": "11:00am"}, {"days": "Sun", "time": "Closed"}], "id": "4900900118", "name": "USPS COLLECTION BOX - BLUE BOX", "address": {"city": "KALAMAZOO", "state": "MI", "street": "1434 CONCORD PLACE DR", "postcode": "49009"}}},
{"geometry": {"type": "Point", "coordinates": [-85.6098516296, 42.2942564606]}, "type": "Feature", "properties": {"collection_times": [{"days": "Mon-Sat", "time": "12:00pm"}, {"days": "Sun", "time": "Closed"}], "id": "4900900121", "name": "USPS COLLECTION BOX - BLUE BOX", "address": {"city": "KALAMAZOO", "state": "MI", "street": "1722 W MAIN ST", "postcode": "49009"}}},
{"geometry": {"type": "Point", "coordinates": [-85.6060604134, 42.2860374227]}, "type": "Feature", "properties": {"collection_times": [{"days": "Mon-Sat", "time": "12:00pm"}, {"days": "Sun", "time": "Closed"}], "id": "4900900122", "name": "USPS COLLECTION BOX - BLUE BOX", "address": {"city": "KALAMAZOO", "state": "MI", "street": "1550 W MICHIGAN AVE", "postcode": "49009"}}},
{"geometry": {"type": "Point", "coordinates": [-85.6792458912, 42.3806746435]}, "type": "Feature", "properties": {"collection_times": [{"days": "Mon-Sat", "time": "10:00am"}, {"days": "Sun", "time": "Closed"}], "id": "4900900123", "name": "USPS COLLECTION BOX - BLUE BOX", "address": {"city": "KALAMAZOO", "state": "MI", "street": "8300 RAVINE RD", "postcode": "49009"}}},
{"geometry": {"type": "Point", "coordinates": [-85.6585241416, 42.3005221778]}, "type": "Feature", "properties": {"collection_times": [{"days": "Mon-Sat", "time": "1:00pm"}, {"days": "Sun", "time": "Closed"}], "id": "4900900124", "name": "USPS COLLECTION BOX - BLUE BOX", "address": {"city": "KALAMAZOO", "state": "MI", "street": "5545 SUMMER RIDGE BLVD", "postcode": "49009"}}},
{"geometry": {"type": "Point", "coordinates": [-85.6431765999, 42.2746752592]}, "type": "Feature", "properties": {"collection_times": [{"days": "Mon-Sat", "time": "1:00pm"}, {"days": "Sun", "time": "Closed"}], "id": "4900900125", "name": "USPS COLLECTION BOX - BLUE BOX", "address": {"city": "KALAMAZOO", "state": "MI", "street": "1802 TRAY LN", "postcode": "49009"}}},
{"geometry": {"type": "Point", "coordinates": [-85.6770877491, 42.275942602]}, "type": "Feature", "properties": {"collection_times": [{"days": "Mon-Fri", "time": "4:00pm"}, {"days": "Sat", "time": "1:00pm"}, {"days": "Sun", "time": "Closed"}], "id": "4900900134", "name": "USPS COLLECTION BOX - BLUE BOX", "address": {"city": "KALAMAZOO", "state": "MI", "street": "429 W KALAMAZOO AVE", "postcode": "49009"}}},
{"geometry": {"type": "Point", "coordinates": [-85.5816500302, 42.2918722724]}, "type": "Feature", "properties": {"collection_times": [{"days": "Mon-Fri", "time": "3:00pm"}, {"days": "Sat", "time": "1:00pm"}, {"days": "Sun", "time": "Closed"}], "id": "4900900135", "name": "USPS COLLECTION BOX - BLUE BOX", "address": {"city": "KALAMAZOO", "state": "MI", "street": "215 E MICHIGAN AVE", "postcode": "49009"}}},
{"geometry": {"type": "Point", "coordinates": [-85.5823173192, 42.2916271758]}, "type": "Feature", "properties": {"collection_times": [{"days": "Mon-Fri", "time": "3:00pm"}, {"days": "Sat", "time": "1:00pm"}, {"days": "Sun", "time": "Closed"}], "id": "4900900137", "name": "USPS COLLECTION BOX - BLUE BOX", "address": {"city": "KALAMAZOO", "state": "MI", "street": "136 E MICHIGAN AVE", "postcode": "49009"}}},
{"geometry": {"type": "Point", "coordinates": [-85.6226740208, 42.2941715734]}, "type": "Feature", "properties": {"collection_times": [{"days": "Mon-Sat", "time": "11:00am"}, {"days": "Sun", "time": "Closed"}], "id": "4900900138", "name": "USPS COLLECTION BOX - BLUE BOX", "address": {"city": "KALAMAZOO", "state": "MI", "street": "200 BRAEMAR LN", "postcode": "49009"}}},
{"geometry": {"type": "Point", "coordinates": [-85.6454576404, 42.2963375986]}, "type": "Feature", "properties": {"collection_times": [{"days": "Mon-Sat", "time": "9:45am"}, {"days": "Sun", "time": "Closed"}], "id": "4900900142", "name": "USPS COLLECTION BOX - BLUE BOX", "address": {"city": "KALAMAZOO", "state": "MI", "street": "4600 W MAIN ST", "postcode": "49009"}}},
{"geometry": {"type": "Point", "coordinates": [-85.648207702, 42.293714677]}, "type": "Feature", "properties": {"collection_times": [{"days": "Mon-Sat", "time": "4:30pm"}, {"days": "Sun", "time": "Closed"}], "id": "4900900144", "name": "USPS COLLECTION BOX - PO LOBBY", "address": {"city": "KALAMAZOO", "state": "MI", "street": "167 N DRAKE RD", "postcode": "49009"}}},
{"geometry": {"type": "Point", "coordinates": [-85.6012619329, 42.2904360087]}, "type": "Feature", "properties": {"collection_times": [{"days": "Mon-Fri", "time": "2:30pm"}, {"days": "Sat", "time": "1:00pm"}, {"days": "Sun", "time": "Closed"}], "id": "4900900150", "name": "USPS COLLECTION BOX - BLUE BOX", "address": {"city": "KALAMAZOO", "state": "MI", "street": "1200 ACADEMY ST", "postcode": "49009"}}},
{"geometry": {"type": "Point", "coordinates": [-85.628692911, 42.3032830742]}, "type": "Feature", "properties": {"collection_times": [{"days": "Mon-Sat", "time": "9:00am"}, {"days": "Sun", "time": "Closed"}], "id": "4900900155", "name": "USPS COLLECTION BOX - BLUE BOX", "address": {"city": "KALAMAZOO", "state": "MI", "street": "1306 NICHOLS RD", "postcode": "49009"}}},
{"geometry": {"type": "Point", "coordinates": [-85.5800920069, 42.2924634383]}, "type": "Feature", "properties": {"collection_times": [{"days": "Mon-Fri", "time": "4:30pm"}, {"days": "Sat", "time": "1:30pm"}, {"days": "Sun", "time": "Closed"}], "id": "4900900163", "name": "USPS COLLECTION BOX - BLUE BOX", "address": {"city": "KALAMAZOO", "state": "MI", "street": "310 E MICHIGAN AVE", "postcode": "49009"}}},
{"geometry": {"type": "Point", "coordinates": [-85.5812559548, 42.286149702]}, "type": "Feature", "properties": {"collection_times": [{"days": "Mon-Fri", "time": "2:00pm"}, {"days": "Sat", "time": "1:00pm"}, {"days": "Sun", "time": "Closed"}], "id": "4900900172", "name": "USPS COLLECTION BOX - BLUE BOX", "address": {"city": "KALAMAZOO", "state": "MI", "street": "601 JOHN ST", "postcode": "49009"}}},
{"geometry": {"type": "Point", "coordinates": [-85.5812559548, 42.286149702]}, "type": "Feature", "properties": {"collection_times": [{"days": "Mon-Fri", "time": "2:00pm"}, {"days": "Sat", "time": "1:00pm"}, {"days": "Sun", "time": "Closed"}], "id": "4900900173", "name": "USPS COLLECTION BOX - BLUE BOX", "address": {"city": "KALAMAZOO", "state": "MI", "street": "601 JOHN ST", "postcode": "49009"}}},
{"geometry": {"type": "Point", "coordinates": [-85.6550242495, 42.296106485]}, "type": "Feature", "properties": {"collection_times": [{"days": "Mon-Sat", "time": "1:00pm"}, {"days": "Sun", "time": "Closed"}], "id": "4900900177", "name": "USPS COLLECTION BOX - BLUE BOX", "address": {"city": "KALAMAZOO", "state": "MI", "street": "5161 W MAIN ST", "postcode": "49009"}}},
{"geometry": {"type": "Point", "coordinates": [-85.6848186217, 42.2010108968]}, "type": "Feature", "properties": {"collection_times": [{"days": "Mon-Sat", "time": "12:00pm"}, {"days": "Sun", "time": "Closed"}], "id": "4900900178", "name": "USPS COLLECTION BOX - BLUE BOX", "address": {"city": "KALAMAZOO", "state": "MI", "street": "6909 W Q AVE", "postcode": "49009"}}},
{"geometry": {"type": "Point", "coordinates": [-85.5873443676, 42.295788532]}, "type": "Feature", "properties": {"collection_times": [{"days": "Mon-Sat", "time": "10:30am"}, {"days": "Sun", "time": "Closed"}], "id": "4900900180", "name": "USPS COLLECTION BOX - BLUE BOX", "address": {"city": "KALAMAZOO", "state": "MI", "street": "512 N PARK ST", "postcode": "49009"}}},
{"geometry": {"type": "Point", "coordinates": [-85.648207702, 42.293714677]}, "type": "Feature", "properties": {"collection_times": [{"days": "Mon-Sat", "time": "4:30pm"}, {"days": "Sun", "time": "Closed"}], "id": "4900900181", "name": "USPS COLLECTION BOX - APC", "address": {"city": "KALAMAZOO", "state": "MI", "street": "167 N DRAKE RD", "postcode": "49009"}}},
{"geometry": {"type": "Point", "coordinates": [-85.8614301846, 42.5284415235]}, "type": "Feature", "properties": {"collection_times": [{"days": "Mon-Fri", "time": "2:30pm"}, {"days": "Sat", "time": "1:00pm"}, {"days": "Sun", "time": "Closed"}], "id": "4901000034", "name": "USPS COLLECTION BOX - BLUE BOX", "address": {"city": "ALLEGAN", "state": "MI", "street": "231 WESTERN AVE", "postcode": "49010"}}},
{"geometry": {"type": "Point", "coordinates": [-85.8499465187, 42.5275943409]}, "type": "Feature", "properties": {"collection_times": [{"days": "Mon-Fri", "time": "2:30pm"}, {"days": "Sat", "time": "1:00pm"}, {"days": "Sun", "time": "Closed"}], "id": "4901000035", "name": "USPS COLLECTION BOX - BLUE BOX", "address": {"city": "ALLEGAN", "state": "MI", "street": "236 HUBBARD ST", "postcode": "49010"}}},
{"geometry": {"type": "Point", "coordinates": [-85.851099053, 42.528777373]}, "type": "Feature", "properties": {"collection_times": [{"days": "Mon-Fri", "time": "3:25pm"}, {"days": "Sat", "time": "2:30pm"}, {"days": "Sun", "time": "Closed"}], "id": "4901000038", "name": "USPS COLLECTION BOX - PO LOBBY", "address": {"city": "ALLEGAN", "state": "MI", "street": "300 TROWBRIDGE ST", "postcode": "49010"}}},
{"geometry": {"type": "Point", "coordinates": [-85.8506263033, 42.529208388]}, "type": "Feature", "properties": {"collection_times": [{"days": "Mon-Fri", "time": "3:25pm"}, {"days": "Sat", "time": "2:30pm"}, {"days": "Sun", "time": "Closed"}], "id": "4901000039", "name": "USPS COLLECTION BOX - BLUE BOX", "address": {"city": "ALLEGAN", "state": "MI", "street": "300 TROWBRIDGE ST", "postcode": "49010"}}},
{"geometry": {"type": "Point", "coordinates": [-85.8305102614, 42.537053279]}, "type": "Feature", "properties": {"collection_times": [{"days": "Mon-Fri", "time": "2:30pm"}, {"days": "Sat", "time": "12:30pm"}, {"days": "Sun", "time": "Closed"}], "id": "4901000040", "name": "USPS COLLECTION BOX - BLUE BOX", "address": {"city": "ALLEGAN", "state": "MI", "street": "690 AIRWAY DR", "postcode": "49010"}}},
{"geometry": {"type": "Point", "coordinates": [-85.8506263033, 42.529208388]}, "type": "Feature", "properties": {"collection_times": [{"days": "Mon-Fri", "time": "2:30pm"}, {"days": "Sat", "time": "1:00pm"}, {"days": "Sun", "time": "Closed"}], "id": "4901000041", "name": "USPS COLLECTION BOX - BLUE BOX", "address": {"city": "ALLEGAN", "state": "MI", "street": "250 CHESTNUT ST", "postcode": "49010"}}},
{"geometry": {"type": "Point", "coordinates": [-85.235588133, 42.088899552]}, "type": "Feature", "properties": {"collection_times": [{"days": "Mon-Fri", "time": "2:35pm"}, {"days": "Sat", "time": "11:00am"}, {"days": "Sun", "time": "Closed"}], "id": "4901100002", "name": "USPS COLLECTION BOX - PO LOBBY", "address": {"city": "ATHENS", "state": "MI", "street": "115 N CAPITAL AVE", "postcode": "49011"}}},
{"geometry": {"type": "Point", "coordinates": [-85.235588133, 42.088899552]}, "type": "Feature", "properties": {"collection_times": [{"days": "Mon-Fri", "time": "2:30pm"}, {"days": "Sat", "time": "11:00am"}, {"days": "Sun", "time": "Closed"}], "id": "4901100003", "name": "USPS COLLECTION BOX - BLUE BOX", "address": {"city": "ATHENS", "state": "MI", "street": "115 N CAPITAL AVE", "postcode": "49011"}}},
{"geometry": {"type": "Point", "coordinates": [-85.351841303, 42.335200731]}, "type": "Feature", "properties": {"collection_times": [{"days": "Mon-Fri", "time": "2:00pm"}, {"days": "Sat", "time": "11:00am"}, {"days": "Sun", "time": "Closed"}], "id": "4901200001", "name": "USPS COLLECTION BOX - BLUE BOX", "address": {"city": "AUGUSTA", "state": "MI", "street": "112 S WEBSTER ST", "postcode": "49012"}}},
{"geometry": {"type": "Point", "coordinates": [-85.351841303, 42.335200731]}, "type": "Feature", "properties": {"collection_times": [{"days": "Mon-Fri", "time": "2:00pm"}, {"days": "Sat", "time": "11:00am"}, {"days": "Sun", "time": "Closed"}], "id": "4901200002", "name": "USPS COLLECTION BOX - PO LOBBY", "address": {"city": "AUGUSTA", "state": "MI", "street": "112 S WEBSTER ST", "postcode": "49012"}}},
{"geometry": {"type": "Point", "coordinates": [-86.111813185, 42.314451803]}, "type": "Feature", "properties": {"collection_times": [{"days": "Mon-Fri", "time": "4:10pm"}, {"days": "Sat", "time": "11:30am"}, {"days": "Sun", "time": "Closed"}], "id": "4901300002", "name": "USPS COLLECTION BOX - BLUE BOX", "address": {"city": "BANGOR", "state": "MI", "street": "538 RAILROAD ST", "postcode": "49013"}}},
{"geometry": {"type": "Point", "coordinates": [-86.111813185, 42.314451803]}, "type": "Feature", "properties": {"collection_times": [{"days": "Mon-Fri", "time": "4:10pm"}, {"days": "Sat", "time": "11:30am"}, {"days": "Sun", "time": "Closed"}], "id": "4901300007", "name": "USPS COLLECTION BOX - PO LOBBY", "address": {"city": "BANGOR", "state": "MI", "street": "538 RAILROAD ST", "postcode": "49013"}}},
{"geometry": {"type": "Point", "coordinates": [-85.0816645791, 42.3054608551]}, "type": "Feature", "properties": {"collection_times": [{"days": "Mon-Sat", "time": "10:30am"}, {"days": "Sun", "time": "Closed"}], "id": "4901400000", "name": "USPS COLLECTION BOX - BLUE BOX", "address": {"city": "BATTLE CREEK", "state": "MI", "street": "15874 11 MILE RD", "postcode": "49014"}}},
{"geometry": {"type": "Point", "coordinates": [-85.1786031883, 42.2196685584]}, "type": "Feature", "properties": {"collection_times": [{"days": "Mon-Sat", "time": "9:30am"}, {"days": "Sun", "time": "Closed"}], "id": "4901400001", "name": "USPS COLLECTION BOX - BLUE BOX", "address": {"city": "BATTLE CREEK", "state": "MI", "street": "10450 6 MILE RD", "postcode": "49014"}}},
{"geometry": {"type": "Point", "coordinates": [-85.1617653043, 42.3094823281]}, "type": "Feature", "properties": {"collection_times": [{"days": "Mon-Sat", "time": "9:45am"}, {"days": "Sun", "time": "Closed"}], "id": "4901400002", "name": "USPS COLLECTION BOX - BLUE BOX", "address": {"city": "BATTLE CREEK", "state": "MI", "street": "274 CLIFF ST", "postcode": "49014"}}},
{"geometry": {"type": "Point", "coordinates": [-85.1663156696, 42.3009919965]}, "type": "Feature", "properties": {"collection_times": [{"days": "Mon-Sat", "time": "1:00pm"}, {"days": "Sun", "time": "Closed"}], "id": "4901400003", "name": "USPS COLLECTION BOX - BLUE BOX", "address": {"city": "BATTLE CREEK", "state": "MI", "street": "1125 COLUMBIA AVE E", "postcode": "49014"}}},
{"geometry": {"type": "Point", "coordinates": [-85.1756762318, 42.3152452539]}, "type": "Feature", "properties": {"collection_times": [{"days": "Mon-Sat", "time": "1:00pm"}, {"days": "Sun", "time": "Closed"}], "id": "4901400007", "name": "USPS COLLECTION BOX - BLUE BOX", "address": {"city": "BATTLE CREEK", "state": "MI", "street": "190 E MICHIGAN AVE", "postcode": "49014"}}},
{"geometry": {"type": "Point", "coordinates": [-85.128183504, 42.31050718]}, "type": "Feature", "properties": {"collection_times": [{"days": "Mon-Sat", "time": "10:30am"}, {"days": "Sun", "time": "Closed"}], "id": "4901400010", "name": "USPS COLLECTION BOX - BLUE BOX", "address": {"city": "BATTLE CREEK", "state": "MI", "street": "1131 MICHIGAN AVE E", "postcode": "49014"}}},
{"geometry": {"type": "Point", "coordinates": [-85.1105101517, 42.3083351384]}, "type": "Feature", "properties": {"collection_times": [{"days": "Mon-Sat", "time": "10:30am"}, {"days": "Sun", "time": "Closed"}], "id": "4901400011", "name": "USPS COLLECTION BOX - BLUE BOX", "address": {"city": "BATTLE CREEK", "state": "MI", "street": "1391 MICHIGAN AVE E", "postcode": "49014"}}},
{"geometry": {"type": "Point", "coordinates": [-85.1248013662, 42.3098581806]}, "type": "Feature", "properties": {"collection_times": [{"days": "Mon-Sat", "time": "10:00am"}, {"days": "Sun", "time": "Closed"}], "id": "4901400012", "name": "USPS COLLECTION BOX - BLUE BOX", "address": {"city": "BATTLE CREEK", "state": "MI", "street": "115 PINE KNOLL DR", "postcode": "49014"}}},
{"geometry": {"type": "Point", "coordinates": [-85.1783582405, 42.2609957557]}, "type": "Feature", "properties": {"collection_times": [{"days": "Mon-Sat", "time": "9:30am"}, {"days": "Sun", "time": "Closed"}], "id": "4901400018", "name": "USPS COLLECTION BOX - BLUE BOX", "address": {"city": "BATTLE CREEK", "state": "MI", "street": "6020 B DR N", "postcode": "49014"}}},
{"geometry": {"type": "Point", "coordinates": [-85.1711630013, 42.2611403855]}, "type": "Feature", "properties": {"collection_times": [{"days": "Mon-Sat", "time": "1:30pm"}, {"days": "Sun", "time": "Closed"}], "id": "4901400020", "name": "USPS COLLECTION BOX - BLUE BOX", "address": {"city": "BATTLE CREEK", "state": "MI", "street": "6405 B DR N", "postcode": "49014"}}},
{"geometry": {"type": "Point", "coordinates": [-85.1482940691, 42.317398718]}, "type": "Feature", "properties": {"collection_times": [{"days": "Mon-Sat", "time": "2:00pm"}, {"days": "Sun", "time": "Closed"}], "id": "4901400021", "name": "USPS COLLECTION BOX - BLUE BOX", "address": {"city": "BATTLE CREEK", "state": "MI", "street": "425 PORTER ST", "postcode": "49014"}}},
{"geometry": {"type": "Point", "coordinates": [-85.2303994494, 42.3180685965]}, "type": "Feature", "properties": {"collection_times": [{"days": "Mon-Sat", "time": "1:00pm"}, {"days": "Sun", "time": "Closed"}], "id": "4901500001", "name": "USPS COLLECTION BOX - BLUE BOX", "address": {"city": "BATTLE CREEK", "state": "MI", "street": "2851 W DICKMAN RD", "postcode": "49015"}}},
{"geometry": {"type": "Point", "coordinates": [-85.2870434536, 42.2789347463]}, "type": "Feature", "properties": {"collection_times": [{"days": "Mon-Sat", "time": "10:30am"}, {"days": "Sun", "time": "Closed"}], "id": "4901500002", "name": "USPS COLLECTION BOX - BLUE BOX", "address": {"city": "BATTLE CREEK", "state": "MI", "street": "4647 COLUMBIA AVE W", "postcode": "49015"}}},
{"geometry": {"type": "Point", "coordinates": [-85.191216554, 42.2567609269]}, "type": "Feature", "properties": {"collection_times": [{"days": "Mon-Sat", "time": "10:30am"}, {"days": "Sun", "time": "Closed"}], "id": "4901500003", "name": "USPS COLLECTION BOX - BLUE BOX", "address": {"city": "BATTLE CREEK", "state": "MI", "street": "100 MINGES CREEK PL", "postcode": "49015"}}},
{"geometry": {"type": "Point", "coordinates": [-85.2189798511, 42.3074013665]}, "type": "Feature", "properties": {"collection_times": [{"days": "Mon-Sat", "time": "1:00pm"}, {"days": "Sun", "time": "Closed"}], "id": "4901500004", "name": "USPS COLLECTION BOX - BLUE BOX", "address": {"city": "BATTLE CREEK", "state": "MI", "street": "80 20TH ST N", "postcode": "49015"}}},
{"geometry": {"type": "Point", "coordinates": [-85.2392578557, 42.3263779441]}, "type": "Feature", "properties": {"collection_times": [{"days": "Mon-Sat", "time": "1:00pm"}, {"days": "Sun", "time": "Closed"}], "id": "4901500007", "name": "USPS COLLECTION BOX - BLUE BOX", "address": {"city": "BATTLE CREEK", "state": "MI", "street": "601 AVENUE A", "postcode": "49015"}}},
{"geometry": {"type": "Point", "coordinates": [-85.2518475191, 42.3262354622]}, "type": "Feature", "properties": {"collection_times": [{"days": "Mon-Sat", "time": "1:00pm"}, {"days": "Sun", "time": "Closed"}], "id": "4901500008", "name": "USPS COLLECTION BOX - BLUE BOX", "address": {"city": "BATTLE CREEK", "state": "MI", "street": "1267 AVENUE A", "postcode": "49015"}}},
{"geometry": {"type": "Point", "coordinates": [-85.1962379678, 42.2609833832]}, "type": "Feature", "properties": {"collection_times": [{"days": "Mon-Sat", "time": "10:30am"}, {"days": "Sun", "time": "Closed"}], "id": "4901500010", "name": "USPS COLLECTION BOX - BLUE BOX", "address": {"city": "BATTLE CREEK", "state": "MI", "street": "5050 BECKLEY RD", "postcode": "49015"}}},
{"geometry": {"type": "Point", "coordinates": [-85.19518147, 42.2985392966]}, "type": "Feature", "properties": {"collection_times": [{"days": "Mon-Sat", "time": "1:15pm"}, {"days": "Sun", "time": "Closed"}], "id": "4901500020", "name": "USPS COLLECTION BOX - BLUE BOX", "address": {"city": "BATTLE CREEK", "state": "MI", "street": "100 COLUMBIA AVE E", "postcode": "49015"}}},
{"geometry": {"type": "Point", "coordinates": [-85.1994264022, 42.3027730364]}, "type": "Feature", "properties": {"collection_times": [{"days": "Mon-Sat", "time": "1:00pm"}, {"days": "Sun", "time": "Closed"}], "id": "4901500021", "name": "USPS COLLECTION BOX - BLUE BOX", "address": {"city": "BATTLE CREEK", "state": "MI", "street": "691 CAPITAL AVE SW", "postcode": "49015"}}},
{"geometry": {"type": "Point", "coordinates": [-85.1984903618, 42.2606916452]}, "type": "Feature", "properties": {"collection_times": [{"days": "Mon-Sat", "time": "1:30pm"}, {"days": "Sun", "time": "Closed"}], "id": "4901500024", "name": "USPS COLLECTION BOX - BLUE BOX", "address": {"city": "BATTLE CREEK", "state": "MI", "street": "2845 CAPITAL AVE SW", "postcode": "49015"}}},
{"geometry": {"type": "Point", "coordinates": [-85.1938423818, 42.2986489421]}, "type": "Feature", "properties": {"collection_times": [{"days": "Mon-Sat", "time": "1:00pm"}, {"days": "Sun", "time": "Closed"}], "id": "4901500026", "name": "USPS COLLECTION BOX - BLUE BOX", "address": {"city": "BATTLE CREEK", "state": "MI", "street": "131 COLUMBIA AVE E", "postcode": "49015"}}},
{"geometry": {"type": "Point", "coordinates": [-85.2229275504, 42.2975146118]}, "type": "Feature", "properties": {"collection_times": [{"days": "Mon-Sat", "time": "1:15pm"}, {"days": "Sun", "time": "Closed"}], "id": "4901500027", "name": "USPS COLLECTION BOX - BLUE BOX", "address": {"city": "BATTLE CREEK", "state": "MI", "street": "1346 COLUMBIA AVE W", "postcode": "49015"}}},
{"geometry": {"type": "Point", "coordinates": [-85.2377671366, 42.2973085098]}, "type": "Feature", "properties": {"collection_times": [{"days": "Mon-Sat", "time": "1:15pm"}, {"days": "Sun", "time": "Closed"}], "id": "4901500029", "name": "USPS COLLECTION BOX - BLUE BOX", "address": {"city": "BATTLE CREEK", "state": "MI", "street": "2191 COLUMBIA AVE W", "postcode": "49015"}}},
{"geometry": {"type": "Point", "coordinates": [-85.207097195, 42.2985229415]}, "type": "Feature", "properties": {"collection_times": [{"days": "Mon-Sat", "time": "1:00pm"}, {"days": "Sun", "time": "Closed"}], "id": "4901500030", "name": "USPS COLLECTION BOX - BLUE BOX", "address": {"city": "BATTLE CREEK", "state": "MI", "street": "503 COLUMBIA AVE E", "postcode": "49015"}}},
{"geometry": {"type": "Point", "coordinates": [-85.2000241879, 42.2595377409]}, "type": "Feature", "properties": {"collection_times": [{"days": "Mon-Sat", "time": "1:30pm"}, {"days": "Sun", "time": "Closed"}], "id": "4901500031", "name": "USPS COLLECTION BOX - BLUE BOX", "address": {"city": "BATTLE CREEK", "state": "MI", "street": "500 COUNTRY PINE LN", "postcode": "49015"}}},
{"geometry": {"type": "Point", "coordinates": [-85.267519864, 42.3299635895]}, "type": "Feature", "properties": {"collection_times": [{"days": "Mon-Fri", "time": "1:00pm"}, {"days": "Sat", "time": "10:30am"}, {"days": "Sun", "time": "Closed"}], "id": "4901500035", "name": "USPS COLLECTION BOX - BLUE BOX", "address": {"city": "BATTLE CREEK", "state": "MI", "street": "4315 W DICKMAN RD", "postcode": "49015"}}},
{"geometry": {"type": "Point", "coordinates": [-85.1902860657, 42.2853187071]}, "type": "Feature", "properties": {"collection_times": [{"days": "Mon-Sat", "time": "1:00pm"}, {"days": "Sun", "time": "Closed"}], "id": "4901500042", "name": "USPS COLLECTION BOX - BLUE BOX", "address": {"city": "BATTLE CREEK", "state": "MI", "street": "810 MEADOW DR", "postcode": "49015"}}},
{"geometry": {"type": "Point", "coordinates": [-85.1971883032, 42.2541663184]}, "type": "Feature", "properties": {"collection_times": [{"days": "Mon-Sat", "time": "9:30am"}, {"days": "Sun", "time": "Closed"}], "id": "4901500044", "name": "USPS COLLECTION BOX - BLUE BOX", "address": {"city": "BATTLE CREEK", "state": "MI", "street": "400 OAKBROOK BLVD", "postcode": "49015"}}},
{"geometry": {"type": "Point", "coordinates": [-85.1848308874, 42.2609898275]}, "type": "Feature", "properties": {"collection_times": [{"days": "Mon-Sat", "time": "12:00pm"}, {"days": "Sun", "time": "Closed"}], "id": "4901500052", "name": "USPS COLLECTION BOX - BLUE BOX", "address": {"city": "BATTLE CREEK", "state": "MI", "street": "5700 BECKLEY RD", "postcode": "49015"}}},
{"geometry": {"type": "Point", "coordinates": [-85.2058898743, 42.2611064065]}, "type": "Feature", "properties": {"collection_times": [{"days": "Mon-Sat", "time": "10:00am"}, {"days": "Sun", "time": "Closed"}], "id": "4901500054", "name": "USPS COLLECTION BOX - BLUE BOX", "address": {"city": "BATTLE CREEK", "state": "MI", "street": "4625 BECKLEY RD", "postcode": "49015"}}},
{"geometry": {"type": "Point", "coordinates": [-85.2194417814, 42.3176620466]}, "type": "Feature", "properties": {"collection_times": [{"days": "Mon-Sat", "time": "1:00pm"}, {"days": "Sun", "time": "Closed"}], "id": "4901500057", "name": "USPS COLLECTION BOX - BLUE BOX", "address": {"city": "BATTLE CREEK", "state": "MI", "street": "341 20TH ST N", "postcode": "49015"}}},
{"geometry": {"type": "Point", "coordinates": [-85.1922366104, 42.2483895391]}, "type": "Feature", "properties": {"collection_times": [{"days": "Mon-Sat", "time": "10:45am"}, {"days": "Sun", "time": "Closed"}], "id": "4901500059", "name": "USPS COLLECTION BOX - BLUE BOX", "address": {"city": "BATTLE CREEK", "state": "MI", "street": "5255 GLENN VALLEY DR", "postcode": "49015"}}},
{"geometry": {"type": "Point", "coordinates": [-85.1848308874, 42.2609898275]}, "type": "Feature", "properties": {"collection_times": [{"days": "Mon-Sat", "time": "10:00am"}, {"days": "Sun", "time": "Closed"}], "id": "4901500061", "name": "USPS COLLECTION BOX - BLUE BOX", "address": {"city": "BATTLE CREEK", "state": "MI", "street": "5700 BECKLEY RD", "postcode": "49015"}}},
{"geometry": {"type": "Point", "coordinates": [-85.183587832, 42.2610977957]}, "type": "Feature", "properties": {"collection_times": [{"days": "Mon-Sat", "time": "10:00am"}, {"days": "Sun", "time": "Closed"}], "id": "4901500062", "name": "USPS COLLECTION BOX - BLUE BOX", "address": {"city": "BATTLE CREEK", "state": "MI", "street": "5775 BECKLEY RD", "postcode": "49015"}}},
{"geometry": {"type": "Point", "coordinates": [-85.183587832, 42.2610977957]}, "type": "Feature", "properties": {"collection_times": [{"days": "Mon-Sat", "time": "10:00am"}, {"days": "Sun", "time": "Closed"}], "id": "4901500063", "name": "USPS COLLECTION BOX - BLUE BOX", "address": {"city": "BATTLE CREEK", "state": "MI", "street": "5775 BECKLEY RD", "postcode": "49015"}}},
{"geometry": {"type": "Point", "coordinates": [-85.1976636739, 42.2986460137]}, "type": "Feature", "properties": {"collection_times": [{"days": "Mon-Sat", "time": "1:15pm"}, {"days": "Sun", "time": "Closed"}], "id": "4901500068", "name": "USPS COLLECTION BOX - BLUE BOX", "address": {"city": "BATTLE CREEK", "state": "MI", "street": "45 COLUMBIA AVE E", "postcode": "49015"}}},
{"geometry": {"type": "Point", "coordinates": [-85.2976240237, 42.3241948226]}, "type": "Feature", "properties": {"collection_times": [{"days": "Mon-Sat", "time": "9:15am"}, {"days": "Sun", "time": "Closed"}], "id": "4901500070", "name": "USPS COLLECTION BOX - BLUE BOX", "address": {"city": "BATTLE CREEK", "state": "MI", "street": "5500 ARMSTRONG RD", "postcode": "49015"}}},
{"geometry": {"type": "Point", "coordinates": [-85.1881993558, 42.3161927299]}, "type": "Feature", "properties": {"collection_times": [{"days": "Mon-Sat", "time": "12:00pm"}, {"days": "Sun", "time": "Closed"}], "id": "4901500071", "name": "USPS COLLECTION BOX - BLUE BOX", "address": {"city": "BATTLE CREEK", "state": "MI", "street": "170 CAPITAL AVE SW", "postcode": "49015"}}},
{"geometry": {"type": "Point", "coordinates": [-85.2190495075, 42.2987170825]}, "type": "Feature", "properties": {"collection_times": [{"days": "Mon-Sat", "time": "1:15pm"}, {"days": "Sun", "time": "Closed"}], "id": "4901500072", "name": "USPS COLLECTION BOX - BLUE BOX", "address": {"city": "BATTLE CREEK", "state": "MI", "street": "84 20TH ST S", "postcode": "49015"}}},
{"geometry": {"type": "Point", "coordinates": [-85.1913168972, 42.2609897678]}, "type": "Feature", "properties": {"collection_times": [{"days": "Mon-Sat", "time": "10:00am"}, {"days": "Sun", "time": "Closed"}], "id": "4901500073", "name": "USPS COLLECTION BOX - BLUE BOX", "address": {"city": "BATTLE CREEK", "state": "MI", "street": "5424 BECKLEY RD", "postcode": "49015"}}},
{"geometry": {"type": "Point", "coordinates": [-85.2782090038, 42.3298030746]}, "type": "Feature", "properties": {"collection_times": [{"days": "Mon-Fri", "time": "1:00pm"}, {"days": "Sat", "time": "10:30am"}, {"days": "Sun", "time": "Closed"}], "id": "4901500074", "name": "USPS COLLECTION BOX - BLUE BOX", "address": {"city": "BATTLE CREEK", "state": "MI", "street": "1 DENSO RD", "postcode": "49015"}}},
{"geometry": {"type": "Point", "coordinates": [-85.1875768977, 42.3192037937]}, "type": "Feature", "properties": {"collection_times": [{"days": "Mon-Fri", "time": "4:20pm"}, {"days": "Sat", "time": "5:00pm"}, {"days": "Sun", "time": "Closed"}], "id": "4901600125", "name": "USPS COLLECTION BOX - APC", "address": {"city": "BATTLE CREEK", "state": "MI", "street": "90 MCCAMLY ST S", "postcode": "49016"}}},
{"geometry": {"type": "Point", "coordinates": [-85.1893984638, 42.3239791754]}, "type": "Feature", "properties": {"collection_times": [{"days": "Mon-Sat", "time": "1:00pm"}, {"days": "Sun", "time": "Closed"}], "id": "4901700000", "name": "USPS COLLECTION BOX - BLUE BOX", "address": {"city": "BATTLE CREEK", "state": "MI", "street": "200 MICHIGAN AVE W", "postcode": "49017"}}},
{"geometry": {"type": "Point", "coordinates": [-85.1838814118, 42.3407818489]}, "type": "Feature", "properties": {"collection_times": [{"days": "Mon-Sat", "time": "2:00pm"}, {"days": "Sun", "time": "Closed"}], "id": "4901700004", "name": "USPS COLLECTION BOX - BLUE BOX", "address": {"city": "BATTLE CREEK", "state": "MI", "street": "166 GOODALE AVE E", "postcode": "49017"}}},
{"geometry": {"type": "Point", "coordinates": [-85.1555028892, 42.3307592411]}, "type": "Feature", "properties": {"collection_times": [{"days": "Mon-Sat", "time": "1:45pm"}, {"days": "Sun", "time": "Closed"}], "id": "4901700009", "name": "USPS COLLECTION BOX - BLUE BOX", "address": {"city": "BATTLE CREEK", "state": "MI", "street": "800 CAPITAL AVE NE", "postcode": "49017"}}},
{"geometry": {"type": "Point", "coordinates": [-85.1539799126, 42.3470372507]}, "type": "Feature", "properties": {"collection_times": [{"days": "Mon-Sat", "time": "2:00pm"}, {"days": "Sun", "time": "Closed"}], "id": "4901700012", "name": "USPS COLLECTION BOX - BLUE BOX", "address": {"city": "BATTLE CREEK", "state": "MI", "street": "1603 CAPITAL AVE NE", "postcode": "49017"}}},
{"geometry": {"type": "Point", "coordinates": [-85.1906161441, 42.3243067289]}, "type": "Feature", "properties": {"collection_times": [{"days": "Mon-Sat", "time": "1:15pm"}, {"days": "Sun", "time": "Closed"}], "id": "4901700039", "name": "USPS COLLECTION BOX - BLUE BOX", "address": {"city": "BATTLE CREEK", "state": "MI", "street": "300 MICHIGAN AVE W", "postcode": "49017"}}},
{"geometry": {"type": "Point", "coordinates": [-85.2333789527, 42.3451949339]}, "type": "Feature", "properties": {"collection_times": [{"days": "Mon-Sat", "time": "1:30pm"}, {"days": "Sun", "time": "Closed"}], "id": "4901700040", "name": "USPS COLLECTION BOX - BLUE BOX", "address": {"city": "BATTLE CREEK", "state": "MI", "street": "1525 MICHIGAN AVE W", "postcode": "49017"}}},
{"geometry": {"type": "Point", "coordinates": [-85.2333789527, 42.3451949339]}, "type": "Feature", "properties": {"collection_times": [{"days": "Mon-Sat", "time": "1:30pm"}, {"days": "Sun", "time": "Closed"}], "id": "4901700041", "name": "USPS COLLECTION BOX - BLUE BOX", "address": {"city": "BATTLE CREEK", "state": "MI", "street": "1525 MICHIGAN AVE W", "postcode": "49017"}}},
{"geometry": {"type": "Point", "coordinates": [-85.1803360868, 42.3302615667]}, "type": "Feature", "properties": {"collection_times": [{"days": "Mon-Sat", "time": "2:00pm"}, {"days": "Sun", "time": "Closed"}], "id": "4901700046", "name": "USPS COLLECTION BOX - BLUE BOX", "address": {"city": "BATTLE CREEK", "state": "MI", "street": "300 NORTH AVE", "postcode": "49017"}}},
{"geometry": {"type": "Point", "coordinates": [-85.1808660926, 42.3554973962]}, "type": "Feature", "properties": {"collection_times": [{"days": "Mon-Sat", "time": "2:00pm"}, {"days": "Sun", "time": "Closed"}], "id": "4901700049", "name": "USPS COLLECTION BOX - BLUE BOX", "address": {"city": "BATTLE CREEK", "state": "MI", "street": "1051 NORTH AVE", "postcode": "49017"}}},
{"geometry": {"type": "Point", "coordinates": [-85.1800580811, 42.3209374422]}, "type": "Feature", "properties": {"collection_times": [{"days": "Mon-Sat", "time": "2:00pm"}, {"days": "Sun", "time": "Closed"}], "id": "4901700051", "name": "USPS COLLECTION BOX - BLUE BOX", "address": {"city": "BATTLE CREEK", "state": "MI", "street": "7 VAN BUREN ST W", "postcode": "49017"}}},
{"geometry": {"type": "Point", "coordinates": [-85.1902273956, 42.3301816731]}, "type": "Feature", "properties": {"collection_times": [{"days": "Mon-Sat", "time": "1:00pm"}, {"days": "Sun", "time": "Closed"}], "id": "4901700054", "name": "USPS COLLECTION BOX - BLUE BOX", "address": {"city": "BATTLE CREEK", "state": "MI", "street": "165 WASHINGTON AVE N", "postcode": "49017"}}},
{"geometry": {"type": "Point", "coordinates": [-85.1846412752, 42.3215848295]}, "type": "Feature", "properties": {"collection_times": [{"days": "Mon-Sat", "time": "2:00pm"}, {"days": "Sun", "time": "Closed"}], "id": "4901700058", "name": "USPS COLLECTION BOX - BLUE BOX", "address": {"city": "BATTLE CREEK", "state": "MI", "street": "70 MICHIGAN AVE W", "postcode": "49017"}}},
{"geometry": {"type": "Point", "coordinates": [-85.1759823224, 42.3312122125]}, "type": "Feature", "properties": {"collection_times": [{"days": "Mon-Sat", "time": "2:00pm"}, {"days": "Sun", "time": "Closed"}], "id": "4901700061", "name": "USPS COLLECTION BOX - BLUE BOX", "address": {"city": "BATTLE CREEK", "state": "MI", "street": "363 FREMONT ST", "postcode": "49017"}}},
{"geometry": {"type": "Point", "coordinates": [-85.1555028892, 42.3307592411]}, "type": "Feature", "properties": {"collection_times": [{"days": "Mon-Sat", "time": "1:45pm"}, {"days": "Sun", "time": "Closed"}], "id": "4901700062", "name": "USPS COLLECTION BOX - BLUE BOX", "address": {"city": "BATTLE CREEK", "state": "MI", "street": "800 CAPITAL AVE NE", "postcode": "49017"}}},
{"geometry": {"type": "Point", "coordinates": [-85.1818001065, 42.319595224]}, "type": "Feature", "properties": {"collection_times": [{"days": "Mon-Sat", "time": "2:15pm"}, {"days": "Sun", "time": "Closed"}], "id": "4901700064", "name": "USPS COLLECTION BOX - BLUE BOX", "address": {"city": "BATTLE CREEK", "state": "MI", "street": "15 CAPITAL AVE NE", "postcode": "49017"}}},
{"geometry": {"type": "Point", "coordinates": [-85.1804675401, 42.3172415792]}, "type": "Feature", "properties": {"collection_times": [{"days": "Mon-Sat", "time": "2:00pm"}, {"days": "Sun", "time": "Closed"}], "id": "4901700066", "name": "USPS COLLECTION BOX - BLUE BOX", "address": {"city": "BATTLE CREEK", "state": "MI", "street": "77 MICHIGAN AVE E", "postcode": "49017"}}},
{"geometry": {"type": "Point", "coordinates": [-85.189881115, 42.3266770602]}, "type": "Feature", "properties": {"collection_times": [{"days": "Mon-Sat", "time": "1:00pm"}, {"days": "Sun", "time": "Closed"}], "id": "4901700067", "name": "USPS COLLECTION BOX - BLUE BOX", "address": {"city": "BATTLE CREEK", "state": "MI", "street": "74 WASHINGTON AVE N", "postcode": "49017"}}},
{"geometry": {"type": "Point", "coordinates": [-85.166931556, 42.330107251]}, "type": "Feature", "properties": {"collection_times": [{"days": "Mon-Sat", "time": "2:00pm"}, {"days": "Sun", "time": "Closed"}], "id": "4901700068", "name": "USPS COLLECTION BOX - BLUE BOX", "address": {"city": "BATTLE CREEK", "state": "MI", "street": "321 EMMETT ST E", "postcode": "49017"}}},
{"geometry": {"type": "Point", "coordinates": [-85.233109974, 42.396054647]}, "type": "Feature", "properties": {"collection_times": [{"days": "Mon-Fri", "time": "3:00pm"}, {"days": "Sat", "time": "10:00am"}, {"days": "Sun", "time": "Closed"}], "id": "4902000001", "name": "USPS COLLECTION BOX - BLUE BOX", "address": {"city": "BEDFORD", "state": "MI", "street": "22115 BEDFORD RD", "postcode": "49020"}}},
{"geometry": {"type": "Point", "coordinates": [-85.233109974, 42.396054647]}, "type": "Feature", "properties": {"collection_times": [{"days": "Mon-Fri", "time": "3:00pm"}, {"days": "Sat", "time": "10:00am"}, {"days": "Sun", "time": "Closed"}], "id": "4902000002", "name": "USPS COLLECTION BOX - PO LOBBY", "address": {"city": "BEDFORD", "state": "MI", "street": "22115 BEDFORD RD", "postcode": "49020"}}},
{"geometry": {"type": "Point", "coordinates": [-85.018083418, 42.445120561]}, "type": "Feature", "properties": {"collection_times": [{"days": "Mon-Fri", "time": "2:35pm"}, {"days": "Sat", "time": "10:15am"}, {"days": "Sun", "time": "Closed"}], "id": "4902100002", "name": "USPS COLLECTION BOX - BLUE BOX", "address": {"city": "BELLEVUE", "state": "MI", "street": "202 N MAIN ST", "postcode": "49021"}}},
{"geometry": {"type": "Point", "coordinates": [-85.018083418, 42.445120561]}, "type": "Feature", "properties": {"collection_times": [{"days": "Mon-Fri", "time": "2:35pm"}, {"days": "Sat", "time": "10:15am"}, {"days": "Sun", "time": "Closed"}], "id": "4902100003", "name": "USPS COLLECTION BOX - PO LOBBY", "address": {"city": "BELLEVUE", "state": "MI", "street": "202 N MAIN ST", "postcode": "49021"}}},
{"geometry": {"type": "Point", "coordinates": [-86.4568298784, 42.087050236]}, "type": "Feature", "properties": {"collection_times": [{"days": "Mon-Sat", "time": "12:30pm"}, {"days": "Sun", "time": "Closed"}], "id": "4902200032", "name": "USPS COLLECTION BOX - BLUE BOX", "address": {"city": "BENTON HARBOR", "state": "MI", "street": "130 W NAPIER AVE", "postcode": "49022"}}},
{"geometry": {"type": "Point", "coordinates": [-86.4413622784, 42.083267508]}, "type": "Feature", "properties": {"collection_times": [{"days": "Mon-Sat", "time": "12:30pm"}, {"days": "Sun", "time": "Closed"}], "id": "4902200037", "name": "USPS COLLECTION BOX - BLUE BOX", "address": {"city": "BENTON HARBOR", "state": "MI", "street": "1905 UNION AVE", "postcode": "49022"}}},
{"geometry": {"type": "Point", "coordinates": [-86.4235262403, 42.07951706]}, "type": "Feature", "properties": {"collection_times": [{"days": "Mon-Fri", "time": "3:00pm"}, {"days": "Sat", "time": "12:30pm"}, {"days": "Sun", "time": "Closed"}], "id": "4902200039", "name": "USPS COLLECTION BOX - BLUE BOX", "address": {"city": "BENTON HARBOR", "state": "MI", "street": "1400 MALL DR", "postcode": "49022"}}},
{"geometry": {"type": "Point", "coordinates": [-86.4198059413, 42.0860347174]}, "type": "Feature", "properties": {"collection_times": [{"days": "Mon-Fri", "time": "4:35pm"}, {"days": "Sat", "time": "12:30pm"}, {"days": "Sun", "time": "Closed"}], "id": "4902200042", "name": "USPS COLLECTION BOX - BLUE BOX", "address": {"city": "BENTON HARBOR", "state": "MI", "street": "1800 PIPESTONE RD", "postcode": "49022"}}},
{"geometry": {"type": "Point", "coordinates": [-86.4145310451, 42.0905630552]}, "type": "Feature", "properties": {"collection_times": [{"days": "Mon-Sat", "time": "12:30pm"}, {"days": "Sun", "time": "Closed"}], "id": "4902200044", "name": "USPS COLLECTION BOX - BLUE BOX", "address": {"city": "BENTON HARBOR", "state": "MI", "street": "1860 E NAPIER AVE", "postcode": "49022"}}},
{"geometry": {"type": "Point", "coordinates": [-86.365668946, 42.1266105737]}, "type": "Feature", "properties": {"collection_times": [{"days": "Mon-Sat", "time": "12:30pm"}, {"days": "Sun", "time": "Closed"}], "id": "4902200047", "name": "USPS COLLECTION BOX - BLUE BOX", "address": {"city": "BENTON HARBOR", "state": "MI", "street": "4781 TERRITORIAL RD", "postcode": "49022"}}},
{"geometry": {"type": "Point", "coordinates": [-86.4536954044, 42.1153425258]}, "type": "Feature", "properties": {"collection_times": [{"days": "Mon-Sat", "time": "12:30pm"}, {"days": "Sun", "time": "Closed"}], "id": "4902200053", "name": "USPS COLLECTION BOX - BLUE BOX", "address": {"city": "BENTON HARBOR", "state": "MI", "street": "200 E WALL ST", "postcode": "49022"}}},
{"geometry": {"type": "Point", "coordinates": [-86.4541122401, 42.1163565024]}, "type": "Feature", "properties": {"collection_times": [{"days": "Mon-Sat", "time": "12:30pm"}, {"days": "Sun", "time": "Closed"}], "id": "4902200054", "name": "USPS COLLECTION BOX - BLUE BOX", "address": {"city": "BENTON HARBOR", "state": "MI", "street": "185 E MAIN ST", "postcode": "49022"}}},
{"geometry": {"type": "Point", "coordinates": [-86.4649262726, 42.1093040347]}, "type": "Feature", "properties": {"collection_times": [{"days": "Mon-Sat", "time": "4:35pm"}, {"days": "Sun", "time": "Closed"}], "id": "4902200057", "name": "USPS COLLECTION BOX - PO LOBBY", "address": {"city": "BENTON HARBOR", "state": "MI", "street": "525 RIVERVIEW DR", "postcode": "49022"}}},
{"geometry": {"type": "Point", "coordinates": [-86.4649262726, 42.1093040347]}, "type": "Feature", "properties": {"collection_times": [{"days": "Mon-Sat", "time": "4:35pm"}, {"days": "Sun", "time": "Closed"}], "id": "4902200059", "name": "USPS COLLECTION BOX - BLUE BOX", "address": {"city": "BENTON HARBOR", "state": "MI", "street": "525 RIVERVIEW DR", "postcode": "49022"}}},
{"geometry": {"type": "Point", "coordinates": [-86.4367077656, 42.084826555]}, "type": "Feature", "properties": {"collection_times": [{"days": "Mon-Fri", "time": "3:00pm"}, {"days": "Sat", "time": "12:30pm"}, {"days": "Sun", "time": "Closed"}], "id": "4902200060", "name": "USPS COLLECTION BOX - BLUE BOX", "address": {"city": "BENTON HARBOR", "state": "MI", "street": "1800 M 139", "postcode": "49022"}}},
{"geometry": {"type": "Point", "coordinates": [-86.4367077656, 42.084826555]}, "type": "Feature", "properties": {"collection_times": [{"days": "Mon-Fri", "time": "3:00pm"}, {"days": "Sat", "time": "12:30pm"}, {"days": "Sun", "time": "Closed"}], "id": "4902200061", "name": "USPS COLLECTION BOX - BLUE BOX", "address": {"city": "BENTON HARBOR", "state": "MI", "street": "1800 M 139", "postcode": "49022"}}},
{"geometry": {"type": "Point", "coordinates": [-86.4198059413, 42.0860347174]}, "type": "Feature", "properties": {"collection_times": [{"days": "Mon-Fri", "time": "3:00pm"}, {"days": "Sat", "time": "12:30pm"}, {"days": "Sun", "time": "Closed"}], "id": "4902200063", "name": "USPS COLLECTION BOX - BLUE BOX", "address": {"city": "BENTON HARBOR", "state": "MI", "street": "1800 PIPESTONE RD", "postcode": "49022"}}},
{"geometry": {"type": "Point", "coordinates": [-86.453905769, 42.1307621476]}, "type": "Feature", "properties": {"collection_times": [{"days": "Mon-Sat", "time": "12:30pm"}, {"days": "Sun", "time": "Closed"}], "id": "4902200064", "name": "USPS COLLECTION BOX - BLUE BOX", "address": {"city": "BENTON HARBOR", "state": "MI", "street": "197 MADELINE AVE", "postcode": "49022"}}},
{"geometry": {"type": "Point", "coordinates": [-85.956217496, 42.383075762]}, "type": "Feature", "properties": {"collection_times": [{"days": "Mon-Fri", "time": "2:35pm"}, {"days": "Sat", "time": "10:45am"}, {"days": "Sun", "time": "Closed"}], "id": "4902600002", "name": "USPS COLLECTION BOX - BLUE BOX", "address": {"city": "BLOOMINGDALE", "state": "MI", "street": "110 CHESTNUT ST", "postcode": "49026"}}},
{"geometry": {"type": "Point", "coordinates": [-85.956217496, 42.383075762]}, "type": "Feature", "properties": {"collection_times": [{"days": "Mon-Fri", "time": "2:35pm"}, {"days": "Sat", "time": "10:45am"}, {"days": "Sun", "time": "Closed"}], "id": "4902600004", "name": "USPS COLLECTION BOX - BLUE BOX", "address": {"city": "BLOOMINGDALE", "state": "MI", "street": "110 CHESTNUT ST", "postcode": "49026"}}},
{"geometry": {"type": "Point", "coordinates": [-85.956217496, 42.383075762]}, "type": "Feature", "properties": {"collection_times": [{"days": "Mon-Fri", "time": "2:35pm"}, {"days": "Sat", "time": "10:45am"}, {"days": "Sun", "time": "Closed"}], "id": "4902600005", "name": "USPS COLLECTION BOX - PO LOBBY", "address": {"city": "BLOOMINGDALE", "state": "MI", "street": "110 CHESTNUT ST", "postcode": "49026"}}},
{"geometry": {"type": "Point", "coordinates": [-86.072877183, 42.346599662]}, "type": "Feature", "properties": {"collection_times": [{"days": "Mon-Fri", "time": "3:00pm"}, {"days": "Sat", "time": "11:00am"}, {"days": "Sun", "time": "Closed"}], "id": "4902700001", "name": "USPS COLLECTION BOX - BLUE BOX", "address": {"city": "BREEDSVILLE", "state": "MI", "street": "18 E MAIN ST", "postcode": "49027"}}},
{"geometry": {"type": "Point", "coordinates": [-86.072877183, 42.346599662]}, "type": "Feature", "properties": {"collection_times": [{"days": "Mon-Fri", "time": "3:00pm"}, {"days": "Sat", "time": "11:00am"}, {"days": "Sun", "time": "Closed"}], "id": "4902700002", "name": "USPS COLLECTION BOX - PO LOBBY", "address": {"city": "BREEDSVILLE", "state": "MI", "street": "18 E MAIN ST", "postcode": "49027"}}},
{"geometry": {"type": "Point", "coordinates": [-85.1931817004, 41.8725420755]}, "type": "Feature", "properties": {"collection_times": [{"days": "Mon-Sat", "time": "2:00pm"}, {"days": "Sun", "time": "Closed"}], "id": "4902800001", "name": "USPS COLLECTION BOX - BLUE BOX", "address": {"city": "BRONSON", "state": "MI", "street": "215 E CHICAGO ST", "postcode": "49028"}}},
{"geometry": {"type": "Point", "coordinates": [-85.192876503, 41.872642757]}, "type": "Feature", "properties": {"collection_times": [{"days": "Mon-Fri", "time": "3:15pm"}, {"days": "Sat", "time": "2:00pm"}, {"days": "Sun", "time": "Closed"}], "id": "4902800010", "name": "USPS COLLECTION BOX - BLUE BOX", "address": {"city": "BRONSON", "state": "MI", "street": "220 E CHICAGO ST", "postcode": "49028"}}},
{"geometry": {"type": "Point", "coordinates": [-85.1862581382, 41.8737645129]}, "type": "Feature", "properties": {"collection_times": [{"days": "Mon-Sat", "time": "2:00pm"}, {"days": "Sun", "time": "Closed"}], "id": "4902800012", "name": "USPS COLLECTION BOX - BLUE BOX", "address": {"city": "BRONSON", "state": "MI", "street": "714 E CHICAGO ST", "postcode": "49028"}}},
{"geometry": {"type": "Point", "coordinates": [-85.195079976, 41.8723387715]}, "type": "Feature", "properties": {"collection_times": [{"days": "Mon-Sat", "time": "2:00pm"}, {"days": "Sun", "time": "Closed"}], "id": "4902800013", "name": "USPS COLLECTION BOX - BLUE BOX", "address": {"city": "BRONSON", "state": "MI", "street": "120 W CHICAGO ST", "postcode": "49028"}}},
{"geometry": {"type": "Point", "coordinates": [-85.192876503, 41.872642757]}, "type": "Feature", "properties": {"collection_times": [{"days": "Mon-Fri", "time": "3:15pm"}, {"days": "Sat", "time": "2:00pm"}, {"days": "Sun", "time": "Closed"}], "id": "4902800014", "name": "USPS COLLECTION BOX - PO LOBBY", "address": {"city": "BRONSON", "state": "MI", "street": "220 E CHICAGO ST", "postcode": "49028"}}},
{"geometry": {"type": "Point", "coordinates": [-85.078358127, 42.106209129]}, "type": "Feature", "properties": {"collection_times": [{"days": "Mon-Fri", "time": "2:45pm"}, {"days": "Sat", "time": "10:45am"}, {"days": "Sun", "time": "Closed"}], "id": "4902900002", "name": "USPS COLLECTION BOX - BLUE BOX", "address": {"city": "BURLINGTON", "state": "MI", "street": "119 N ELM ST", "postcode": "49029"}}},
{"geometry": {"type": "Point", "coordinates": [-85.078358127, 42.106209129]}, "type": "Feature", "properties": {"collection_times": [{"days": "Mon-Fri", "time": "2:45pm"}, {"days": "Sat", "time": "10:45am"}, {"days": "Sun", "time": "Closed"}], "id": "4902900004", "name": "USPS COLLECTION BOX - PO LOBBY", "address": {"city": "BURLINGTON", "state": "MI", "street": "119 N ELM ST", "postcode": "49029"}}},
{"geometry": {"type": "Point", "coordinates": [-85.3174623649, 41.8451781204]}, "type": "Feature", "properties": {"collection_times": [{"days": "Mon-Fri", "time": "3:35pm"}, {"days": "Sat", "time": "10:30am"}, {"days": "Sun", "time": "Closed"}], "id": "4903000001", "name": "USPS COLLECTION BOX - BLUE BOX", "address": {"city": "BURR OAK", "state": "MI", "street": "235 S 3RD ST", "postcode": "49030"}}},
{"geometry": {"type": "Point", "coordinates": [-85.317462365, 41.84517812]}, "type": "Feature", "properties": {"collection_times": [{"days": "Mon-Fri", "time": "3:35pm"}, {"days": "Sat", "time": "10:30am"}, {"days": "Sun", "time": "Closed"}], "id": "4903000002", "name": "USPS COLLECTION BOX - PO LOBBY", "address": {"city": "BURR OAK", "state": "MI", "street": "235 S 3RD ST", "postcode": "49030"}}},
{"geometry": {"type": "Point", "coordinates": [-86.011164538, 41.911025962]}, "type": "Feature", "properties": {"collection_times": [{"days": "Mon-Fri", "time": "3:30pm"}, {"days": "Sat", "time": "12:00pm"}, {"days": "Sun", "time": "Closed"}], "id": "4903100005", "name": "USPS COLLECTION BOX - BLUE BOX", "address": {"city": "CASSOPOLIS", "state": "MI", "street": "129 S ROWLAND ST", "postcode": "49031"}}},
{"geometry": {"type": "Point", "coordinates": [-86.011164538, 41.911025962]}, "type": "Feature", "properties": {"collection_times": [{"days": "Mon-Fri", "time": "3:30pm"}, {"days": "Sat", "time": "12:00pm"}, {"days": "Sun", "time": "Closed"}], "id": "4903100007", "name": "USPS COLLECTION BOX - PO LOBBY", "address": {"city": "CASSOPOLIS", "state": "MI", "street": "129 S ROWLAND ST", "postcode": "49031"}}},
{"geometry": {"type": "Point", "coordinates": [-85.528246973, 41.923170315]}, "type": "Feature", "properties": {"collection_times": [{"days": "Mon-Fri", "time": "3:30pm"}, {"days": "Sat", "time": "11:00am"}, {"days": "Sun", "time": "Closed"}], "id": "4903200002", "name": "USPS COLLECTION BOX - BLUE BOX", "address": {"city": "CENTREVILLE", "state": "MI", "street": "116 S CLARK ST", "postcode": "49032"}}},
{"geometry": {"type": "Point", "coordinates": [-85.528246973, 41.923170315]}, "type": "Feature", "properties": {"collection_times": [{"days": "Mon-Fri", "time": "3:45pm"}, {"days": "Sat", "time": "12:00pm"}, {"days": "Sun", "time": "Closed"}], "id": "4903200003", "name": "USPS COLLECTION BOX - PO LOBBY", "address": {"city": "CENTREVILLE", "state": "MI", "street": "116 S CLARK ST", "postcode": "49032"}}},
{"geometry": {"type": "Point", "coordinates": [-85.5266908278, 41.9237054523]}, "type": "Feature", "properties": {"collection_times": [{"days": "Mon-Fri", "time": "12:00pm"}, {"days": "Sat", "time": "9:00am"}, {"days": "Sun", "time": "Closed"}], "id": "4903200004", "name": "USPS COLLECTION BOX - BLUE BOX", "address": {"city": "CENTREVILLE", "state": "MI", "street": "201 E MAIN ST", "postcode": "49032"}}},
{"geometry": {"type": "Point", "coordinates": [-85.5173923521, 41.9236575757]}, "type": "Feature", "properties": {"collection_times": [{"days": "Mon-Sat", "time": "9:00am"}, {"days": "Sun", "time": "Closed"}], "id": "4903200005", "name": "USPS COLLECTION BOX - BLUE BOX", "address": {"city": "CENTREVILLE", "state": "MI", "street": "666 E MAIN ST", "postcode": "49032"}}},
{"geometry": {"type": "Point", "coordinates": [-85.059763756, 42.271470539]}, "type": "Feature", "properties": {"collection_times": [{"days": "Mon-Fri", "time": "2:20pm"}, {"days": "Sat", "time": "10:30am"}, {"days": "Sun", "time": "Closed"}], "id": "4903300002", "name": "USPS COLLECTION BOX - PO LOBBY", "address": {"city": "CERESCO", "state": "MI", "street": "150 MANSIE ST", "postcode": "49033"}}},
{"geometry": {"type": "Point", "coordinates": [-85.059763756, 42.271470539]}, "type": "Feature", "properties": {"collection_times": [{"days": "Mon-Fri", "time": "2:20pm"}, {"days": "Sat", "time": "10:30am"}, {"days": "Sun", "time": "Closed"}], "id": "4903300003", "name": "USPS COLLECTION BOX - BLUE BOX", "address": {"city": "CERESCO", "state": "MI", "street": "150 MANSIE ST", "postcode": "49033"}}},
{"geometry": {"type": "Point", "coordinates": [-85.335843565, 42.238700797]}, "type": "Feature", "properties": {"collection_times": [{"days": "Mon-Fri", "time": "1:10pm"}, {"days": "Sat", "time": "10:15am"}, {"days": "Sun", "time": "Closed"}], "id": "4903400001", "name": "USPS COLLECTION BOX - BLUE BOX", "address": {"city": "CLIMAX", "state": "MI", "street": "116 N MAIN ST", "postcode": "49034"}}},
{"geometry": {"type": "Point", "coordinates": [-85.335843565, 42.238700797]}, "type": "Feature", "properties": {"collection_times": [{"days": "Mon-Fri", "time": "1:10pm"}, {"days": "Sat", "time": "10:15am"}, {"days": "Sun", "time": "Closed"}], "id": "4903400002", "name": "USPS COLLECTION BOX - PO LOBBY", "address": {"city": "CLIMAX", "state": "MI", "street": "116 N MAIN ST", "postcode": "49034"}}},
{"geometry": {"type": "Point", "coordinates": [-85.386485198, 42.543116368]}, "type": "Feature", "properties": {"collection_times": [{"days": "Mon-Fri", "time": "3:55pm"}, {"days": "Sat", "time": "10:00am"}, {"days": "Sun", "time": "Closed"}], "id": "4903500001", "name": "USPS COLLECTION BOX - BLUE BOX", "address": {"city": "CLOVERDALE", "state": "MI", "street": "7560 S M 43 HWY", "postcode": "49035"}}},
{"geometry": {"type": "Point", "coordinates": [-85.386485198, 42.543116368]}, "type": "Feature", "properties": {"collection_times": [{"days": "Mon-Fri", "time": "3:55pm"}, {"days": "Sat", "time": "10:00am"}, {"days": "Sun", "time": "Closed"}], "id": "4903500002", "name": "USPS COLLECTION BOX - PO LOBBY", "address": {"city": "CLOVERDALE", "state": "MI", "street": "7560 S M 43 HWY", "postcode": "49035"}}},
{"geometry": {"type": "Point", "coordinates": [-84.9712175054, 41.9510097827]}, "type": "Feature", "properties": {"collection_times": [{"days": "Mon-Sat", "time": "10:00am"}, {"days": "Sun", "time": "Closed"}], "id": "4903600003", "name": "USPS COLLECTION BOX - BLUE BOX", "address": {"city": "COLDWATER", "state": "MI", "street": "375 N WILLOWBROOK RD", "postcode": "49036"}}},
{"geometry": {"type": "Point", "coordinates": [-85.0004461413, 41.9535443458]}, "type": "Feature", "properties": {"collection_times": [{"days": "Mon-Sat", "time": "12:00pm"}, {"days": "Sun", "time": "Closed"}], "id": "4903600006", "name": "USPS COLLECTION BOX - BLUE BOX", "address": {"city": "COLDWATER", "state": "MI", "street": "410 MARSHALL ST", "postcode": "49036"}}},
{"geometry": {"type": "Point", "coordinates": [-85.005437039, 41.940066865]}, "type": "Feature", "properties": {"collection_times": [{"days": "Mon-Sat", "time": "3:00pm"}, {"days": "Sun", "time": "Closed"}], "id": "4903600013", "name": "USPS COLLECTION BOX - PO LOBBY", "address": {"city": "COLDWATER", "state": "MI", "street": "100 W PEARL ST", "postcode": "49036"}}},
{"geometry": {"type": "Point", "coordinates": [-84.9810187504, 41.9458698457]}, "type": "Feature", "properties": {"collection_times": [{"days": "Mon-Sat", "time": "10:00am"}, {"days": "Sun", "time": "Closed"}], "id": "4903600016", "name": "USPS COLLECTION BOX - BLUE BOX", "address": {"city": "COLDWATER", "state": "MI", "street": "175 N MICHIGAN AVE", "postcode": "49036"}}},
{"geometry": {"type": "Point", "coordinates": [-85.005437039, 41.940066865]}, "type": "Feature", "properties": {"collection_times": [{"days": "Mon-Sat", "time": "3:00pm"}, {"days": "Sun", "time": "Closed"}], "id": "4903600025", "name": "USPS COLLECTION BOX - BLUE BOX", "address": {"city": "COLDWATER", "state": "MI", "street": "100 W PEARL ST", "postcode": "49036"}}},
{"geometry": {"type": "Point", "coordinates": [-85.005437039, 41.940066865]}, "type": "Feature", "properties": {"collection_times": [{"days": "Mon-Sat", "time": "3:00pm"}, {"days": "Sun", "time": "Closed"}], "id": "4903600027", "name": "USPS COLLECTION BOX - EXPRESS", "address": {"city": "COLDWATER", "state": "MI", "street": "100 W PEARL ST", "postcode": "49036"}}},
{"geometry": {"type": "Point", "coordinates": [-86.308304, 42.187965]}, "type": "Feature", "properties": {"collection_times": [{"days": "Mon-Fri", "time": "3:15pm"}, {"days": "Sat", "time": "1:30pm"}, {"days": "Sun", "time": "Closed"}], "id": "4903800004", "name": "USPS COLLECTION BOX - BLUE BOX", "address": {"city": "COLOMA", "state": "MI", "street": "201 N WEST ST", "postcode": "49038"}}},
{"geometry": {"type": "Point", "coordinates": [-86.3081616471, 42.1878903819]}, "type": "Feature", "properties": {"collection_times": [{"days": "Mon-Fri", "time": "3:15pm"}, {"days": "Sat", "time": "1:30pm"}, {"days": "Sun", "time": "Closed"}], "id": "4903800005", "name": "USPS COLLECTION BOX - BLUE BOX", "address": {"city": "COLOMA", "state": "MI", "street": "201 N WEST ST", "postcode": "49038"}}},
{"geometry": {"type": "Point", "coordinates": [-86.2976276454, 42.1933555245]}, "type": "Feature", "properties": {"collection_times": [{"days": "Mon-Sat", "time": "12:00pm"}, {"days": "Sun", "time": "Closed"}], "id": "4903800006", "name": "USPS COLLECTION BOX - BLUE BOX", "address": {"city": "COLOMA", "state": "MI", "street": "6577 PAW PAW AVE", "postcode": "49038"}}},
{"geometry": {"type": "Point", "coordinates": [-85.325567516, 41.958228489]}, "type": "Feature", "properties": {"collection_times": [{"days": "Mon-Fri", "time": "2:45pm"}, {"days": "Sat", "time": "12:15pm"}, {"days": "Sun", "time": "Closed"}], "id": "4904000003", "name": "USPS COLLECTION BOX - BLUE BOX", "address": {"city": "COLON", "state": "MI", "street": "123 S BLACKSTONE AVE", "postcode": "49040"}}},
{"geometry": {"type": "Point", "coordinates": [-85.325567516, 41.958228489]}, "type": "Feature", "properties": {"collection_times": [{"days": "Mon-Fri", "time": "2:45pm"}, {"days": "Sat", "time": "12:15pm"}, {"days": "Sun", "time": "Closed"}], "id": "4904000004", "name": "USPS COLLECTION BOX - PO LOBBY", "address": {"city": "COLON", "state": "MI", "street": "123 S BLACKSTONE AVE", "postcode": "49040"}}},
{"geometry": {"type": "Point", "coordinates": [-85.3145904897, 41.95565273]}, "type": "Feature", "properties": {"collection_times": [{"days": "Mon-Fri", "time": "1:00pm"}, {"days": "Sat", "time": "12:15pm"}, {"days": "Sun", "time": "Closed"}], "id": "4904000005", "name": "USPS COLLECTION BOX - BLUE BOX", "address": {"city": "COLON", "state": "MI", "street": "898 E STATE ST", "postcode": "49040"}}},
{"geometry": {"type": "Point", "coordinates": [-85.510121291, 42.28681871]}, "type": "Feature", "properties": {"collection_times": [{"days": "Mon-Fri", "time": "2:40pm"}, {"days": "Sat", "time": "11:00am"}, {"days": "Sun", "time": "Closed"}], "id": "4904100001", "name": "USPS COLLECTION BOX - BLUE BOX", "address": {"city": "COMSTOCK", "state": "MI", "street": "6095 KING HWY", "postcode": "49041"}}},
{"geometry": {"type": "Point", "coordinates": [-85.510121291, 42.28681871]}, "type": "Feature", "properties": {"collection_times": [{"days": "Mon-Fri", "time": "2:40pm"}, {"days": "Sat", "time": "11:00am"}, {"days": "Sun", "time": "Closed"}], "id": "4904100002", "name": "USPS COLLECTION BOX - PO LOBBY", "address": {"city": "COMSTOCK", "state": "MI", "street": "6095 KING HWY", "postcode": "49041"}}},
{"geometry": {"type": "Point", "coordinates": [-85.6674666135, 41.8398411297]}, "type": "Feature", "properties": {"collection_times": [{"days": "Mon-Fri", "time": "4:25pm"}, {"days": "Sat", "time": "12:15pm"}, {"days": "Sun", "time": "Closed"}], "id": "4904200004", "name": "USPS COLLECTION BOX - BLUE BOX", "address": {"city": "CONSTANTINE", "state": "MI", "street": "340 S WASHINGTON ST", "postcode": "49042"}}},
{"geometry": {"type": "Point", "coordinates": [-85.667466814, 41.839841903]}, "type": "Feature", "properties": {"collection_times": [{"days": "Mon-Fri", "time": "4:25pm"}, {"days": "Sat", "time": "12:15pm"}, {"days": "Sun", "time": "Closed"}], "id": "4904200007", "name": "USPS COLLECTION BOX - PO LOBBY", "address": {"city": "CONSTANTINE", "state": "MI", "street": "340 S WASHINGTON ST", "postcode": "49042"}}},
{"geometry": {"type": "Point", "coordinates": [-86.26248325, 42.294859555]}, "type": "Feature", "properties": {"collection_times": [{"days": "Mon-Fri", "time": "2:40pm"}, {"days": "Sat", "time": "10:00am"}, {"days": "Sun", "time": "Closed"}], "id": "4904300001", "name": "USPS COLLECTION BOX - BLUE BOX", "address": {"city": "COVERT", "state": "MI", "street": "33845 M 140 HWY", "postcode": "49043"}}},
{"geometry": {"type": "Point", "coordinates": [-86.26248325, 42.294859555]}, "type": "Feature", "properties": {"collection_times": [{"days": "Mon-Fri", "time": "2:40pm"}, {"days": "Sat", "time": "10:00am"}, {"days": "Sun", "time": "Closed"}], "id": "4904300002", "name": "USPS COLLECTION BOX - PO LOBBY", "address": {"city": "COVERT", "state": "MI", "street": "33845 M 140 HWY", "postcode": "49043"}}},
{"geometry": {"type": "Point", "coordinates": [-85.974046388, 42.108446122]}, "type": "Feature", "properties": {"collection_times": [{"days": "Mon-Fri", "time": "4:25pm"}, {"days": "Sat", "time": "12:00pm"}, {"days": "Sun", "time": "Closed"}], "id": "4904500002", "name": "USPS COLLECTION BOX - PO LOBBY", "address": {"city": "DECATUR", "state": "MI", "street": "127 S PHELPS ST", "postcode": "49045"}}},
{"geometry": {"type": "Point", "coordinates": [-85.9733395441, 42.1077640702]}, "type": "Feature", "properties": {"collection_times": [{"days": "Mon-Fri", "time": "4:25pm"}, {"days": "Sat", "time": "12:00pm"}, {"days": "Sun", "time": "Closed"}], "id": "4904500004", "name": "USPS COLLECTION BOX - BLUE BOX", "address": {"city": "DECATUR", "state": "MI", "street": "100 E SHERWOOD ST", "postcode": "49045"}}},
{"geometry": {"type": "Point", "coordinates": [-85.974046388, 42.108446122]}, "type": "Feature", "properties": {"collection_times": [{"days": "Mon-Fri", "time": "4:25pm"}, {"days": "Sat", "time": "12:00pm"}, {"days": "Sun", "time": "Closed"}], "id": "4904500005", "name": "USPS COLLECTION BOX - BLUE BOX", "address": {"city": "DECATUR", "state": "MI", "street": "127 S PHELPS ST", "postcode": "49045"}}},
{"geometry": {"type": "Point", "coordinates": [-85.408844074, 42.505534696]}, "type": "Feature", "properties": {"collection_times": [{"days": "Mon-Fri", "time": "4:15pm"}, {"days": "Sat", "time": "10:30am"}, {"days": "Sun", "time": "Closed"}], "id": "4904600001", "name": "USPS COLLECTION BOX - BLUE BOX", "address": {"city": "DELTON", "state": "MI", "street": "10155 S M 43 HWY", "postcode": "49046"}}},
{"geometry": {"type": "Point", "coordinates": [-85.408844074, 42.505534696]}, "type": "Feature", "properties": {"collection_times": [{"days": "Mon-Fri", "time": "4:15pm"}, {"days": "Sat", "time": "10:30am"}, {"days": "Sun", "time": "Closed"}], "id": "4904600002", "name": "USPS COLLECTION BOX - PO LOBBY", "address": {"city": "DELTON", "state": "MI", "street": "10155 S M 43 HWY", "postcode": "49046"}}},
{"geometry": {"type": "Point", "coordinates": [-86.10998797, 41.983056706]}, "type": "Feature", "properties": {"collection_times": [{"days": "Mon-Sat", "time": "3:45pm"}, {"days": "Sun", "time": "Closed"}], "id": "4904700001", "name": "USPS COLLECTION BOX - BLUE BOX", "address": {"city": "DOWAGIAC", "state": "MI", "street": "202 COMMERCIAL ST", "postcode": "49047"}}},
{"geometry": {"type": "Point", "coordinates": [-86.10998797, 41.983056706]}, "type": "Feature", "properties": {"collection_times": [{"days": "Mon-Sat", "time": "3:45pm"}, {"days": "Sun", "time": "Closed"}], "id": "4904700002", "name": "USPS COLLECTION BOX - BLUE BOX", "address": {"city": "DOWAGIAC", "state": "MI", "street": "202 COMMERCIAL ST", "postcode": "49047"}}},
{"geometry": {"type": "Point", "coordinates": [-86.10998797, 41.983056706]}, "type": "Feature", "properties": {"collection_times": [{"days": "Mon-Sat", "time": "3:45pm"}, {"days": "Sun", "time": "Closed"}], "id": "4904700015", "name": "USPS COLLECTION BOX - PO LOBBY", "address": {"city": "DOWAGIAC", "state": "MI", "street": "202 COMMERCIAL ST", "postcode": "49047"}}},
{"geometry": {"type": "Point", "coordinates": [-86.2018919156, 42.0858614914]}, "type": "Feature", "properties": {"collection_times": [{"days": "Mon-Fri", "time": "10:45am"}, {"days": "Sat", "time": "10:30am"}, {"days": "Sun", "time": "Closed"}], "id": "4904700016", "name": "USPS COLLECTION BOX - BLUE BOX", "address": {"city": "DOWAGIAC", "state": "MI", "street": "67900 M 152", "postcode": "49047"}}},
{"geometry": {"type": "Point", "coordinates": [-85.253475623, 42.528234234]}, "type": "Feature", "properties": {"collection_times": [{"days": "Mon-Fri", "time": "3:00pm"}, {"days": "Sat", "time": "11:00am"}, {"days": "Sun", "time": "Closed"}], "id": "4905000001", "name": "USPS COLLECTION BOX - BLUE BOX", "address": {"city": "DOWLING", "state": "MI", "street": "8599 S M 37 HWY", "postcode": "49050"}}},
{"geometry": {"type": "Point", "coordinates": [-85.253475623, 42.528234234]}, "type": "Feature", "properties": {"collection_times": [{"days": "Mon-Fri", "time": "3:00pm"}, {"days": "Sat", "time": "11:00am"}, {"days": "Sun", "time": "Closed"}], "id": "4905000002", "name": "USPS COLLECTION BOX - PO LOBBY", "address": {"city": "DOWLING", "state": "MI", "street": "8599 S M 37 HWY", "postcode": "49050"}}},
{"geometry": {"type": "Point", "coordinates": [-85.217080183, 42.166327128]}, "type": "Feature", "properties": {"collection_times": [{"days": "Mon-Fri", "time": "3:45pm"}, {"days": "Sat", "time": "11:00am"}, {"days": "Sun", "time": "Closed"}], "id": "4905100001", "name": "USPS COLLECTION BOX - BLUE BOX", "address": {"city": "EAST LEROY", "state": "MI", "street": "4005 K DR S", "postcode": "49051"}}},
{"geometry": {"type": "Point", "coordinates": [-85.217080183, 42.166327128]}, "type": "Feature", "properties": {"collection_times": [{"days": "Mon-Fri", "time": "3:45pm"}, {"days": "Sat", "time": "11:00am"}, {"days": "Sun", "time": "Closed"}], "id": "4905100002", "name": "USPS COLLECTION BOX - PO LOBBY", "address": {"city": "EAST LEROY", "state": "MI", "street": "4005 K DR S", "postcode": "49051"}}},
{"geometry": {"type": "Point", "coordinates": [-85.353582182, 42.115073035]}, "type": "Feature", "properties": {"collection_times": [{"days": "Mon-Fri", "time": "1:55pm"}, {"days": "Sat", "time": "9:00am"}, {"days": "Sun", "time": "Closed"}], "id": "4905200001", "name": "USPS COLLECTION BOX - BLUE BOX", "address": {"city": "FULTON", "state": "MI", "street": "13957 E W AVE", "postcode": "49052"}}},
{"geometry": {"type": "Point", "coordinates": [-85.353582182, 42.115073035]}, "type": "Feature", "properties": {"collection_times": [{"days": "Mon-Fri", "time": "1:55pm"}, {"days": "Sat", "time": "9:00am"}, {"days": "Sun", "time": "Closed"}], "id": "4905200002", "name": "USPS COLLECTION BOX - PO LOBBY", "address": {"city": "FULTON", "state": "MI", "street": "13957 E W AVE", "postcode": "49052"}}},
{"geometry": {"type": "Point", "coordinates": [-85.415330269, 42.288902258]}, "type": "Feature", "properties": {"collection_times": [{"days": "Mon-Fri", "time": "3:00pm"}, {"days": "Sat", "time": "10:30am"}, {"days": "Sun", "time": "Closed"}], "id": "4905300001", "name": "USPS COLLECTION BOX - BLUE BOX", "address": {"city": "GALESBURG", "state": "MI", "street": "124 E MICHIGAN AVE", "postcode": "49053"}}},
{"geometry": {"type": "Point", "coordinates": [-85.415330269, 42.288902258]}, "type": "Feature", "properties": {"collection_times": [{"days": "Mon-Fri", "time": "3:00pm"}, {"days": "Sat", "time": "10:30am"}, {"days": "Sun", "time": "Closed"}], "id": "4905300002", "name": "USPS COLLECTION BOX - PO LOBBY", "address": {"city": "GALESBURG", "state": "MI", "street": "124 E MICHIGAN AVE", "postcode": "49053"}}},
{"geometry": {"type": "Point", "coordinates": [-85.4241153513, 42.2761941398]}, "type": "Feature", "properties": {"collection_times": [{"days": "Mon-Fri", "time": "10:00am"}, {"days": "Sat", "time": "9:00am"}, {"days": "Sun", "time": "Closed"}], "id": "4905300005", "name": "USPS COLLECTION BOX - BLUE BOX", "address": {"city": "GALESBURG", "state": "MI", "street": "10305 MILLER DR", "postcode": "49053"}}},
{"geometry": {"type": "Point", "coordinates": [-85.87820994, 42.359432276]}, "type": "Feature", "properties": {"collection_times": [{"days": "Mon-Fri", "time": "4:30pm"}, {"days": "Sat", "time": "10:30am"}, {"days": "Sun", "time": "Closed"}], "id": "4905500001", "name": "USPS COLLECTION BOX - BLUE BOX", "address": {"city": "GOBLES", "state": "MI", "street": "106 E EXCHANGE ST", "postcode": "49055"}}},
{"geometry": {"type": "Point", "coordinates": [-85.87820994, 42.359432276]}, "type": "Feature", "properties": {"collection_times": [{"days": "Mon-Fri", "time": "4:30pm"}, {"days": "Sat", "time": "10:30am"}, {"days": "Sun", "time": "Closed"}], "id": "4905500002", "name": "USPS COLLECTION BOX - PO LOBBY", "address": {"city": "GOBLES", "state": "MI", "street": "106 E EXCHANGE ST", "postcode": "49055"}}},
{"geometry": {"type": "Point", "coordinates": [-86.072630994, 42.404436947]}, "type": "Feature", "properties": {"collection_times": [{"days": "Mon-Fri", "time": "3:10pm"}, {"days": "Sat", "time": "11:00am"}, {"days": "Sun", "time": "Closed"}], "id": "4905600001", "name": "USPS COLLECTION BOX - BLUE BOX", "address": {"city": "GRAND JUNCTION", "state": "MI", "street": "54014 COUNTY ROAD 388", "postcode": "49056"}}},
{"geometry": {"type": "Point", "coordinates": [-86.072630994, 42.404436947]}, "type": "Feature", "properties": {"collection_times": [{"days": "Mon-Fri", "time": "3:10pm"}, {"days": "Sat", "time": "11:00am"}, {"days": "Sun", "time": "Closed"}], "id": "4905600002", "name": "USPS COLLECTION BOX - PO LOBBY", "address": {"city": "GRAND JUNCTION", "state": "MI", "street": "54014 COUNTY ROAD 388", "postcode": "49056"}}},
{"geometry": {"type": "Point", "coordinates": [-86.0579970013, 42.3931404354]}, "type": "Feature", "properties": {"collection_times": [{"days": "Mon-Sat", "time": "10:00am"}, {"days": "Sun", "time": "Closed"}], "id": "4905600003", "name": "USPS COLLECTION BOX - BLUE BOX", "address": {"city": "GRAND JUNCTION", "state": "MI", "street": "54099 COUNTY ROAD 388", "postcode": "49056"}}},
{"geometry": {"type": "Point", "coordinates": [-86.166703281, 42.205869983]}, "type": "Feature", "properties": {"collection_times": [{"days": "Mon-Fri", "time": "3:55pm"}, {"days": "Sat", "time": "11:00am"}, {"days": "Sun", "time": "Closed"}], "id": "4905700002", "name": "USPS COLLECTION BOX - PO LOBBY", "address": {"city": "HARTFORD", "state": "MI", "street": "19 N CENTER ST", "postcode": "49057"}}},
{"geometry": {"type": "Point", "coordinates": [-86.166703281, 42.205869983]}, "type": "Feature", "properties": {"collection_times": [{"days": "Mon-Fri", "time": "3:55pm"}, {"days": "Sat", "time": "11:00am"}, {"days": "Sun", "time": "Closed"}], "id": "4905700003", "name": "USPS COLLECTION BOX - BLUE BOX", "address": {"city": "HARTFORD", "state": "MI", "street": "19 N CENTER ST", "postcode": "49057"}}},
{"geometry": {"type": "Point", "coordinates": [-85.2884300621, 42.6486917574]}, "type": "Feature", "properties": {"collection_times": [{"days": "Mon-Sat", "time": "11:00am"}, {"days": "Sun", "time": "Closed"}], "id": "4905800003", "name": "USPS COLLECTION BOX - BLUE BOX", "address": {"city": "HASTINGS", "state": "MI", "street": "130 W STATE ST", "postcode": "49058"}}},
{"geometry": {"type": "Point", "coordinates": [-85.289481506, 42.650577018]}, "type": "Feature", "properties": {"collection_times": [{"days": "Mon-Fri", "time": "4:00pm"}, {"days": "Sat", "time": "3:30pm"}, {"days": "Sun", "time": "Closed"}], "id": "4905800009", "name": "USPS COLLECTION BOX - BLUE BOX", "address": {"city": "HASTINGS", "state": "MI", "street": "209 W MILL ST", "postcode": "49058"}}},
{"geometry": {"type": "Point", "coordinates": [-85.289481506, 42.650577018]}, "type": "Feature", "properties": {"collection_times": [{"days": "Mon-Fri", "time": "4:00pm"}, {"days": "Sat", "time": "3:30pm"}, {"days": "Sun", "time": "Closed"}], "id": "4905800011", "name": "USPS COLLECTION BOX - BLUE BOX", "address": {"city": "HASTINGS", "state": "MI", "street": "209 W MILL ST", "postcode": "49058"}}},
{"geometry": {"type": "Point", "coordinates": [-85.289481506, 42.650577018]}, "type": "Feature", "properties": {"collection_times": [{"days": "Mon-Fri", "time": "4:00pm"}, {"days": "Sat", "time": "3:30pm"}, {"days": "Sun", "time": "Closed"}], "id": "4905800012", "name": "USPS COLLECTION BOX - BLUE BOX", "address": {"city": "HASTINGS", "state": "MI", "street": "209 W MILL ST", "postcode": "49058"}}},
{"geometry": {"type": "Point", "coordinates": [-85.2874290292, 42.6486311039]}, "type": "Feature", "properties": {"collection_times": [{"days": "Mon-Sat", "time": "9:15am"}, {"days": "Sun", "time": "Closed"}], "id": "4905800013", "name": "USPS COLLECTION BOX - BLUE BOX", "address": {"city": "HASTINGS", "state": "MI", "street": "108 E STATE ST", "postcode": "49058"}}},
{"geometry": {"type": "Point", "coordinates": [-85.2951781272, 42.6474939633]}, "type": "Feature", "properties": {"collection_times": [{"days": "Mon-Sat", "time": "9:30am"}, {"days": "Sun", "time": "Closed"}], "id": "4905800015", "name": "USPS COLLECTION BOX - BLUE BOX", "address": {"city": "HASTINGS", "state": "MI", "street": "220 S MARKET ST", "postcode": "49058"}}},
{"geometry": {"type": "Point", "coordinates": [-85.289481506, 42.650577018]}, "type": "Feature", "properties": {"collection_times": [{"days": "Mon-Fri", "time": "4:20pm"}, {"days": "Sat", "time": "3:30pm"}, {"days": "Sun", "time": "Closed"}], "id": "4905800018", "name": "USPS COLLECTION BOX - PO LOBBY", "address": {"city": "HASTINGS", "state": "MI", "street": "209 W MILL ST", "postcode": "49058"}}},
{"geometry": {"type": "Point", "coordinates": [-85.376013261, 42.439219726]}, "type": "Feature", "properties": {"collection_times": [{"days": "Mon-Fri", "time": "2:00pm"}, {"days": "Sat", "time": "10:30am"}, {"days": "Sun", "time": "Closed"}], "id": "4906000001", "name": "USPS COLLECTION BOX - BLUE BOX", "address": {"city": "HICKORY CORNERS", "state": "MI", "street": "14737 KELLOGG SCHOOL RD", "postcode": "49060"}}},
{"geometry": {"type": "Point", "coordinates": [-85.376013261, 42.439219726]}, "type": "Feature", "properties": {"collection_times": [{"days": "Mon-Fri", "time": "2:00pm"}, {"days": "Sat", "time": "10:30am"}, {"days": "Sun", "time": "Closed"}], "id": "4906000002", "name": "USPS COLLECTION BOX - PO LOBBY", "address": {"city": "HICKORY CORNERS", "state": "MI", "street": "14737 KELLOGG SCHOOL RD", "postcode": "49060"}}},
{"geometry": {"type": "Point", "coordinates": [-85.800388292, 41.904380426]}, "type": "Feature", "properties": {"collection_times": [{"days": "Mon-Fri", "time": "2:10pm"}, {"days": "Sat", "time": "10:45am"}, {"days": "Sun", "time": "Closed"}], "id": "4906100001", "name": "USPS COLLECTION BOX - BLUE BOX", "address": {"city": "JONES", "state": "MI", "street": "12081 M 60", "postcode": "49061"}}},
{"geometry": {"type": "Point", "coordinates": [-85.800388292, 41.904380426]}, "type": "Feature", "properties": {"collection_times": [{"days": "Mon-Fri", "time": "2:10pm"}, {"days": "Sat", "time": "10:45am"}, {"days": "Sun", "time": "Closed"}], "id": "4906100003", "name": "USPS COLLECTION BOX - PO LOBBY", "address": {"city": "JONES", "state": "MI", "street": "12081 M 60", "postcode": "49061"}}},
{"geometry": {"type": "Point", "coordinates": [-86.129830263, 42.41185649]}, "type": "Feature", "properties": {"collection_times": [{"days": "Mon-Fri", "time": "3:20pm"}, {"days": "Sat", "time": "10:00am"}, {"days": "Sun", "time": "Closed"}], "id": "4906300000", "name": "USPS COLLECTION BOX - BLUE BOX", "address": {"city": "LACOTA", "state": "MI", "street": "60062 CHURCH ST", "postcode": "49063"}}},
{"geometry": {"type": "Point", "coordinates": [-86.129830263, 42.41185649]}, "type": "Feature", "properties": {"collection_times": [{"days": "Mon-Fri", "time": "3:20pm"}, {"days": "Sat", "time": "10:00am"}, {"days": "Sun", "time": "Closed"}], "id": "4906300001", "name": "USPS COLLECTION BOX - PO LOBBY", "address": {"city": "LACOTA", "state": "MI", "street": "60062 CHURCH ST", "postcode": "49063"}}},
{"geometry": {"type": "Point", "coordinates": [-86.05127806, 42.21660925]}, "type": "Feature", "properties": {"collection_times": [{"days": "Mon-Fri", "time": "4:00pm"}, {"days": "Sat", "time": "10:30am"}, {"days": "Sun", "time": "Closed"}], "id": "4906400004", "name": "USPS COLLECTION BOX - BLUE BOX", "address": {"city": "LAWRENCE", "state": "MI", "street": "310 S PAW PAW ST", "postcode": "49064"}}},
{"geometry": {"type": "Point", "coordinates": [-86.05127806, 42.21660925]}, "type": "Feature", "properties": {"collection_times": [{"days": "Mon-Fri", "time": "4:00pm"}, {"days": "Sat", "time": "10:30am"}, {"days": "Sun", "time": "Closed"}], "id": "4906400006", "name": "USPS COLLECTION BOX - PO LOBBY", "address": {"city": "LAWRENCE", "state": "MI", "street": "310 S PAW PAW ST", "postcode": "49064"}}},
{"geometry": {"type": "Point", "coordinates": [-85.849406351, 42.166112804]}, "type": "Feature", "properties": {"collection_times": [{"days": "Mon-Fri", "time": "2:35pm"}, {"days": "Sat", "time": "12:00pm"}, {"days": "Sun", "time": "Closed"}], "id": "4906500001", "name": "USPS COLLECTION BOX - BLUE BOX", "address": {"city": "LAWTON", "state": "MI", "street": "210 S MAIN ST", "postcode": "49065"}}},
{"geometry": {"type": "Point", "coordinates": [-85.849406351, 42.166112804]}, "type": "Feature", "properties": {"collection_times": [{"days": "Mon-Fri", "time": "2:35pm"}, {"days": "Sat", "time": "12:00pm"}, {"days": "Sun", "time": "Closed"}], "id": "4906500002", "name": "USPS COLLECTION BOX - PO LOBBY", "address": {"city": "LAWTON", "state": "MI", "street": "210 S MAIN ST", "postcode": "49065"}}},
{"geometry": {"type": "Point", "coordinates": [-85.35245025, 42.023068539]}, "type": "Feature", "properties": {"collection_times": [{"days": "Mon-Fri", "time": "2:10pm"}, {"days": "Sat", "time": "11:00am"}, {"days": "Sun", "time": "Closed"}], "id": "4906600001", "name": "USPS COLLECTION BOX - BLUE BOX", "address": {"city": "LEONIDAS", "state": "MI", "street": "30980 KING RD", "postcode": "49066"}}},
{"geometry": {"type": "Point", "coordinates": [-85.35245025, 42.023068539]}, "type": "Feature", "properties": {"collection_times": [{"days": "Mon-Fri", "time": "2:10pm"}, {"days": "Sat", "time": "11:00am"}, {"days": "Sun", "time": "Closed"}], "id": "4906600002", "name": "USPS COLLECTION BOX - PO LOBBY", "address": {"city": "LEONIDAS", "state": "MI", "street": "30980 KING RD", "postcode": "49066"}}},
{"geometry": {"type": "Point", "coordinates": [-85.815142213, 42.025907267]}, "type": "Feature", "properties": {"collection_times": [{"days": "Mon-Fri", "time": "3:05pm"}, {"days": "Sat", "time": "12:00pm"}, {"days": "Sun", "time": "Closed"}], "id": "4906700003", "name": "USPS COLLECTION BOX - BLUE BOX", "address": {"city": "MARCELLUS", "state": "MI", "street": "203 S CENTRE ST", "postcode": "49067"}}},
{"geometry": {"type": "Point", "coordinates": [-85.815142213, 42.025907267]}, "type": "Feature", "properties": {"collection_times": [{"days": "Mon-Fri", "time": "3:05pm"}, {"days": "Sat", "time": "12:00pm"}, {"days": "Sun", "time": "Closed"}], "id": "4906700004", "name": "USPS COLLECTION BOX - PO LOBBY", "address": {"city": "MARCELLUS", "state": "MI", "street": "203 S CENTRE ST", "postcode": "49067"}}},
{"geometry": {"type": "Point", "coordinates": [-84.9859761865, 42.2712013457]}, "type": "Feature", "properties": {"collection_times": [{"days": "Mon-Sat", "time": "1:30pm"}, {"days": "Sun", "time": "Closed"}], "id": "4906800001", "name": "USPS COLLECTION BOX - BLUE BOX", "address": {"city": "MARSHALL", "state": "MI", "street": "15900 W MICHIGAN AVE", "postcode": "49068"}}},
{"geometry": {"type": "Point", "coordinates": [-84.957360471, 42.272022482]}, "type": "Feature", "properties": {"collection_times": [{"days": "Mon-Sat", "time": "3:00pm"}, {"days": "Sun", "time": "Closed"}], "id": "4906800002", "name": "USPS COLLECTION BOX - BLUE BOX", "address": {"city": "MARSHALL", "state": "MI", "street": "202 E MICHIGAN AVE", "postcode": "49068"}}},
{"geometry": {"type": "Point", "coordinates": [-84.957360471, 42.272022482]}, "type": "Feature", "properties": {"collection_times": [{"days": "Mon-Sat", "time": "3:00pm"}, {"days": "Sun", "time": "Closed"}], "id": "4906800004", "name": "USPS COLLECTION BOX - BLUE BOX", "address": {"city": "MARSHALL", "state": "MI", "street": "202 E MICHIGAN AVE", "postcode": "49068"}}},
{"geometry": {"type": "Point", "coordinates": [-84.957360471, 42.272022482]}, "type": "Feature", "properties": {"collection_times": [{"days": "Mon-Sat", "time": "3:00pm"}, {"days": "Sun", "time": "Closed"}], "id": "4906800022", "name": "USPS COLLECTION BOX - PO LOBBY", "address": {"city": "MARSHALL", "state": "MI", "street": "202 E MICHIGAN AVE", "postcode": "49068"}}},
{"geometry": {"type": "Point", "coordinates": [-84.9573588937, 42.2729476976]}, "type": "Feature", "properties": {"collection_times": [{"days": "Mon-Sat", "time": "1:30pm"}, {"days": "Sun", "time": "Closed"}], "id": "4906800025", "name": "USPS COLLECTION BOX - BLUE BOX", "address": {"city": "MARSHALL", "state": "MI", "street": "216 E MANSION ST", "postcode": "49068"}}},
{"geometry": {"type": "Point", "coordinates": [-84.9745022717, 42.2719542111]}, "type": "Feature", "properties": {"collection_times": [{"days": "Mon-Sat", "time": "1:30pm"}, {"days": "Sun", "time": "Closed"}], "id": "4906800028", "name": "USPS COLLECTION BOX - BLUE BOX", "address": {"city": "MARSHALL", "state": "MI", "street": "909 W MICHIGAN AVE", "postcode": "49068"}}},
{"geometry": {"type": "Point", "coordinates": [-85.641753997, 42.536661282]}, "type": "Feature", "properties": {"collection_times": [{"days": "Mon-Fri", "time": "12:15pm"}, {"days": "Sat", "time": "10:30am"}, {"days": "Sun", "time": "Closed"}], "id": "4907000002", "name": "USPS COLLECTION BOX - BLUE BOX", "address": {"city": "MARTIN", "state": "MI", "street": "1588 10TH ST", "postcode": "49070"}}},
{"geometry": {"type": "Point", "coordinates": [-85.641753997, 42.536661282]}, "type": "Feature", "properties": {"collection_times": [{"days": "Mon-Fri", "time": "12:15pm"}, {"days": "Sat", "time": "10:30am"}, {"days": "Sun", "time": "Closed"}], "id": "4907000003", "name": "USPS COLLECTION BOX - PO LOBBY", "address": {"city": "MARTIN", "state": "MI", "street": "1588 10TH ST", "postcode": "49070"}}},
{"geometry": {"type": "Point", "coordinates": [-85.785350163, 42.216564642]}, "type": "Feature", "properties": {"collection_times": [{"days": "Mon-Fri", "time": "4:30pm"}, {"days": "Sat", "time": "12:00pm"}, {"days": "Sun", "time": "Closed"}], "id": "4907100001", "name": "USPS COLLECTION BOX - BLUE BOX", "address": {"city": "MATTAWAN", "state": "MI", "street": "55680 N MAIN ST", "postcode": "49071"}}},
{"geometry": {"type": "Point", "coordinates": [-85.785350163, 42.216564642]}, "type": "Feature", "properties": {"collection_times": [{"days": "Mon-Fri", "time": "4:30pm"}, {"days": "Sat", "time": "12:00pm"}, {"days": "Sun", "time": "Closed"}], "id": "4907100003", "name": "USPS COLLECTION BOX - PO LOBBY", "address": {"city": "MATTAWAN", "state": "MI", "street": "55680 N MAIN ST", "postcode": "49071"}}},
{"geometry": {"type": "Point", "coordinates": [-85.45062927, 42.006807539]}, "type": "Feature", "properties": {"collection_times": [{"days": "Mon-Fri", "time": "2:35pm"}, {"days": "Sat", "time": "11:00am"}, {"days": "Sun", "time": "Closed"}], "id": "4907200001", "name": "USPS COLLECTION BOX - BLUE BOX", "address": {"city": "MENDON", "state": "MI", "street": "134 W MAIN ST", "postcode": "49072"}}},
{"geometry": {"type": "Point", "coordinates": [-85.45062927, 42.006807539]}, "type": "Feature", "properties": {"collection_times": [{"days": "Mon-Fri", "time": "2:35pm"}, {"days": "Sat", "time": "11:00am"}, {"days": "Sun", "time": "Closed"}], "id": "4907200002", "name": "USPS COLLECTION BOX - PO LOBBY", "address": {"city": "MENDON", "state": "MI", "street": "134 W MAIN ST", "postcode": "49072"}}},
{"geometry": {"type": "Point", "coordinates": [-85.093563638, 42.601368823]}, "type": "Feature", "properties": {"collection_times": [{"days": "Mon-Fri", "time": "3:40pm"}, {"days": "Sat", "time": "10:30am"}, {"days": "Sun", "time": "Closed"}], "id": "4907300001", "name": "USPS COLLECTION BOX - BLUE BOX", "address": {"city": "NASHVILLE", "state": "MI", "street": "231 N MAIN ST", "postcode": "49073"}}},
{"geometry": {"type": "Point", "coordinates": [-85.0801558915, 42.6070640552]}, "type": "Feature", "properties": {"collection_times": [{"days": "Mon-Fri", "time": "12:00pm"}, {"days": "Sat", "time": "10:30am"}, {"days": "Sun", "time": "Closed"}], "id": "4907300002", "name": "USPS COLLECTION BOX - BLUE BOX", "address": {"city": "NASHVILLE", "state": "MI", "street": "999 REED ST", "postcode": "49073"}}},
{"geometry": {"type": "Point", "coordinates": [-85.093563638, 42.601368823]}, "type": "Feature", "properties": {"collection_times": [{"days": "Mon-Fri", "time": "3:40pm"}, {"days": "Sat", "time": "10:30am"}, {"days": "Sun", "time": "Closed"}], "id": "4907300003", "name": "USPS COLLECTION BOX - PO LOBBY", "address": {"city": "NASHVILLE", "state": "MI", "street": "231 N MAIN ST", "postcode": "49073"}}},
{"geometry": {"type": "Point", "coordinates": [-85.093563638, 42.601368823]}, "type": "Feature", "properties": {"collection_times": [{"days": "Mon-Fri", "time": "3:40pm"}, {"days": "Sat", "time": "10:30am"}, {"days": "Sun", "time": "Closed"}], "id": "4907300004", "name": "USPS COLLECTION BOX - BLUE BOX", "address": {"city": "NASHVILLE", "state": "MI", "street": "231 N MAIN ST", "postcode": "49073"}}},
{"geometry": {"type": "Point", "coordinates": [-85.539059959, 42.315258796]}, "type": "Feature", "properties": {"collection_times": [{"days": "Mon-Fri", "time": "4:15pm"}, {"days": "Sat", "time": "9:30am"}, {"days": "Sun", "time": "Closed"}], "id": "4907400001", "name": "USPS COLLECTION BOX - BLUE BOX", "address": {"city": "NAZARETH", "state": "MI", "street": "3427 GULL RD", "postcode": "49074"}}},
{"geometry": {"type": "Point", "coordinates": [-85.539059959, 42.315258796]}, "type": "Feature", "properties": {"collection_times": [{"days": "Mon-Fri", "time": "4:15pm"}, {"days": "Sat", "time": "9:30am"}, {"days": "Sun", "time": "Closed"}], "id": "4907400002", "name": "USPS COLLECTION BOX - PO LOBBY", "address": {"city": "NAZARETH", "state": "MI", "street": "3427 GULL RD", "postcode": "49074"}}},
{"geometry": {"type": "Point", "coordinates": [-85.449182207, 41.918989419]}, "type": "Feature", "properties": {"collection_times": [{"days": "Mon-Fri", "time": "2:10pm"}, {"days": "Sat", "time": "10:00am"}, {"days": "Sun", "time": "Closed"}], "id": "4907500001", "name": "USPS COLLECTION BOX - BLUE BOX", "address": {"city": "NOTTAWA", "state": "MI", "street": "25987 M 86 HWY", "postcode": "49075"}}},
{"geometry": {"type": "Point", "coordinates": [-85.449182207, 41.918989419]}, "type": "Feature", "properties": {"collection_times": [{"days": "Mon-Fri", "time": "12:00pm"}, {"days": "Sat", "time": "10:00am"}, {"days": "Sun", "time": "Closed"}], "id": "4907500002", "name": "USPS COLLECTION BOX - PO LOBBY", "address": {"city": "NOTTAWA", "state": "MI", "street": "25987 M 86 HWY", "postcode": "49075"}}},
{"geometry": {"type": "Point", "coordinates": [-84.925459548, 42.446797131]}, "type": "Feature", "properties": {"collection_times": [{"days": "Mon-Fri", "time": "2:15pm"}, {"days": "Sat", "time": "10:30am"}, {"days": "Sun", "time": "Closed"}], "id": "4907600001", "name": "USPS COLLECTION BOX - BLUE BOX", "address": {"city": "OLIVET", "state": "MI", "street": "132 WASHINGTON ST", "postcode": "49076"}}},
{"geometry": {"type": "Point", "coordinates": [-84.925459548, 42.446797131]}, "type": "Feature", "properties": {"collection_times": [{"days": "Mon-Fri", "time": "2:15pm"}, {"days": "Sat", "time": "10:30am"}, {"days": "Sun", "time": "Closed"}], "id": "4907600004", "name": "USPS COLLECTION BOX - PO LOBBY", "address": {"city": "OLIVET", "state": "MI", "street": "132 WASHINGTON ST", "postcode": "49076"}}},
{"geometry": {"type": "Point", "coordinates": [-84.9256597923, 42.4377912058]}, "type": "Feature", "properties": {"collection_times": [{"days": "Mon-Fri", "time": "11:00am"}, {"days": "Sat", "time": "9:00am"}, {"days": "Sun", "time": "Closed"}], "id": "4907600005", "name": "USPS COLLECTION BOX - BLUE BOX", "address": {"city": "OLIVET", "state": "MI", "street": "715 S MAIN ST", "postcode": "49076"}}},
{"geometry": {"type": "Point", "coordinates": [-85.677558967, 42.253343282]}, "type": "Feature", "properties": {"collection_times": [{"days": "Mon-Fri", "time": "4:00pm"}, {"days": "Sat", "time": "12:00pm"}, {"days": "Sun", "time": "Closed"}], "id": "4907700004", "name": "USPS COLLECTION BOX - PO LOBBY", "address": {"city": "KALAMAZOO", "state": "MI", "street": "3885 S 9TH ST", "postcode": "49077"}}},
{"geometry": {"type": "Point", "coordinates": [-85.6751334865, 42.2605043685]}, "type": "Feature", "properties": {"collection_times": [{"days": "Mon-Fri", "time": "4:00pm"}, {"days": "Sat", "time": "12:00pm"}, {"days": "Sun", "time": "Closed"}], "id": "4907700005", "name": "USPS COLLECTION BOX - BLUE BOX", "address": {"city": "KALAMAZOO", "state": "MI", "street": "6430 STADIUM DR", "postcode": "49077"}}},
{"geometry": {"type": "Point", "coordinates": [-85.69522756, 42.460492261]}, "type": "Feature", "properties": {"collection_times": [{"days": "Mon-Fri", "time": "3:55pm"}, {"days": "Sat", "time": "3:00pm"}, {"days": "Sun", "time": "Closed"}], "id": "4907800006", "name": "USPS COLLECTION BOX - PO LOBBY", "address": {"city": "OTSEGO", "state": "MI", "street": "118 N FAIR ST", "postcode": "49078"}}},
{"geometry": {"type": "Point", "coordinates": [-85.69522756, 42.460492261]}, "type": "Feature", "properties": {"collection_times": [{"days": "Mon-Fri", "time": "3:55pm"}, {"days": "Sat", "time": "3:00pm"}, {"days": "Sun", "time": "Closed"}], "id": "4907800007", "name": "USPS COLLECTION BOX - BLUE BOX", "address": {"city": "OTSEGO", "state": "MI", "street": "118 N FAIR ST", "postcode": "49078"}}},
{"geometry": {"type": "Point", "coordinates": [-85.69522756, 42.460492261]}, "type": "Feature", "properties": {"collection_times": [{"days": "Mon-Fri", "time": "3:55pm"}, {"days": "Sat", "time": "3:00pm"}, {"days": "Sun", "time": "Closed"}], "id": "4907800009", "name": "USPS COLLECTION BOX - BLUE BOX", "address": {"city": "OTSEGO", "state": "MI", "street": "118 N FAIR ST", "postcode": "49078"}}},
{"geometry": {"type": "Point", "coordinates": [-85.892361551, 42.2186297263]}, "type": "Feature", "properties": {"collection_times": [{"days": "Mon-Fri", "time": "4:50pm"}, {"days": "Sat", "time": "3:00pm"}, {"days": "Sun", "time": "Closed"}], "id": "4907900002", "name": "USPS COLLECTION BOX - BLUE BOX", "address": {"city": "PAW PAW", "state": "MI", "street": "110 OAK ST", "postcode": "49079"}}},
{"geometry": {"type": "Point", "coordinates": [-85.8346479405, 42.3027626139]}, "type": "Feature", "properties": {"collection_times": [{"days": "Mon-Sat", "time": "10:30am"}, {"days": "Sun", "time": "Closed"}], "id": "4907900004", "name": "USPS COLLECTION BOX - BLUE BOX", "address": {"city": "PAW PAW", "state": "MI", "street": "26778 M 43", "postcode": "49079"}}},
{"geometry": {"type": "Point", "coordinates": [-85.8905857197, 42.2167296316]}, "type": "Feature", "properties": {"collection_times": [{"days": "Mon-Sat", "time": "2:30pm"}, {"days": "Sun", "time": "Closed"}], "id": "4907900011", "name": "USPS COLLECTION BOX - BLUE BOX", "address": {"city": "PAW PAW", "state": "MI", "street": "219 E PAW PAW ST", "postcode": "49079"}}},
{"geometry": {"type": "Point", "coordinates": [-85.890897715, 42.218343434]}, "type": "Feature", "properties": {"collection_times": [{"days": "Mon-Fri", "time": "4:50pm"}, {"days": "Sat", "time": "3:00pm"}, {"days": "Sun", "time": "Closed"}], "id": "4907900012", "name": "USPS COLLECTION BOX - PO LOBBY", "address": {"city": "PAW PAW", "state": "MI", "street": "125 N KALAMAZOO ST", "postcode": "49079"}}},
{"geometry": {"type": "Point", "coordinates": [-85.635546089, 42.442847324]}, "type": "Feature", "properties": {"collection_times": [{"days": "Mon-Fri", "time": "4:15pm"}, {"days": "Sat", "time": "12:00pm"}, {"days": "Sun", "time": "Closed"}], "id": "4908000005", "name": "USPS COLLECTION BOX - BLUE BOX", "address": {"city": "PLAINWELL", "state": "MI", "street": "457 E BRIDGE ST", "postcode": "49080"}}},
{"geometry": {"type": "Point", "coordinates": [-85.635546089, 42.442847324]}, "type": "Feature", "properties": {"collection_times": [{"days": "Mon-Fri", "time": "4:15pm"}, {"days": "Sat", "time": "12:00pm"}, {"days": "Sun", "time": "Closed"}], "id": "4908000013", "name": "USPS COLLECTION BOX - PO LOBBY", "address": {"city": "PLAINWELL", "state": "MI", "street": "457 E BRIDGE ST", "postcode": "49080"}}},
{"geometry": {"type": "Point", "coordinates": [-85.658277145, 42.4497149853]}, "type": "Feature", "properties": {"collection_times": [{"days": "Mon-Fri", "time": "1:00pm"}, {"days": "Sat", "time": "12:00pm"}, {"days": "Sun", "time": "Closed"}], "id": "4908000021", "name": "USPS COLLECTION BOX - BLUE BOX", "address": {"city": "PLAINWELL", "state": "MI", "street": "1195 M 89", "postcode": "49080"}}},
{"geometry": {"type": "Point", "coordinates": [-85.602517913, 42.230045561]}, "type": "Feature", "properties": {"collection_times": [{"days": "Mon-Fri", "time": "5:00pm"}, {"days": "Sat", "time": "1:00pm"}, {"days": "Sun", "time": "Closed"}], "id": "4908100010", "name": "USPS COLLECTION BOX - BLUE BOX", "address": {"city": "PORTAGE", "state": "MI", "street": "1151 W MILHAM AVE", "postcode": "49081"}}},
{"geometry": {"type": "Point", "coordinates": [-85.602517913, 42.230045561]}, "type": "Feature", "properties": {"collection_times": [{"days": "Mon-Fri", "time": "5:00pm"}, {"days": "Sat", "time": "1:00pm"}, {"days": "Sun", "time": "Closed"}], "id": "4908100011", "name": "USPS COLLECTION BOX - BLUE BOX", "address": {"city": "PORTAGE", "state": "MI", "street": "1151 W MILHAM AVE", "postcode": "49081"}}},
{"geometry": {"type": "Point", "coordinates": [-85.602517913, 42.230045561]}, "type": "Feature", "properties": {"collection_times": [{"days": "Mon-Fri", "time": "5:00pm"}, {"days": "Sat", "time": "1:00pm"}, {"days": "Sun", "time": "Closed"}], "id": "4908100012", "name": "USPS COLLECTION BOX - BLUE BOX", "address": {"city": "PORTAGE", "state": "MI", "street": "1151 W MILHAM AVE", "postcode": "49081"}}},
{"geometry": {"type": "Point", "coordinates": [-85.602517913, 42.230045561]}, "type": "Feature", "properties": {"collection_times": [{"days": "Mon-Fri", "time": "5:00pm"}, {"days": "Sat", "time": "1:00pm"}, {"days": "Sun", "time": "Closed"}], "id": "4908100015", "name": "USPS COLLECTION BOX - PO LOBBY", "address": {"city": "PORTAGE", "state": "MI", "street": "1151 W MILHAM AVE", "postcode": "49081"}}},
{"geometry": {"type": "Point", "coordinates": [-85.602517913, 42.230045561]}, "type": "Feature", "properties": {"collection_times": [{"days": "Mon-Fri", "time": "5:00pm"}, {"days": "Sat", "time": "1:00pm"}, {"days": "Sun", "time": "Closed"}], "id": "4908100016", "name": "USPS COLLECTION BOX - APC", "address": {"city": "PORTAGE", "state": "MI", "street": "1151 W MILHAM AVE", "postcode": "49081"}}},
{"geometry": {"type": "Point", "coordinates": [-84.8849875922, 41.9440902042]}, "type": "Feature", "properties": {"collection_times": [{"days": "Mon-Sat", "time": "2:25pm"}, {"days": "Sun", "time": "Closed"}], "id": "4908200001", "name": "USPS COLLECTION BOX - BLUE BOX", "address": {"city": "QUINCY", "state": "MI", "street": "8 MAIDEN LN", "postcode": "49082"}}},
{"geometry": {"type": "Point", "coordinates": [-84.884047693, 41.94467996]}, "type": "Feature", "properties": {"collection_times": [{"days": "Mon-Sat", "time": "2:25pm"}, {"days": "Sun", "time": "Closed"}], "id": "4908200005", "name": "USPS COLLECTION BOX - PO LOBBY", "address": {"city": "QUINCY", "state": "MI", "street": "7 N MAIN ST", "postcode": "49082"}}},
{"geometry": {"type": "Point", "coordinates": [-85.4569939985, 42.3761582738]}, "type": "Feature", "properties": {"collection_times": [{"days": "Mon-Sat", "time": "10:00am"}, {"days": "Sun", "time": "Closed"}], "id": "4908300001", "name": "USPS COLLECTION BOX - BLUE BOX", "address": {"city": "RICHLAND", "state": "MI", "street": "8000 PARK ST", "postcode": "49083"}}},
{"geometry": {"type": "Point", "coordinates": [-85.455233788, 42.383158911]}, "type": "Feature", "properties": {"collection_times": [{"days": "Mon-Fri", "time": "4:35pm"}, {"days": "Sat", "time": "12:00pm"}, {"days": "Sun", "time": "Closed"}], "id": "4908300003", "name": "USPS COLLECTION BOX - BLUE BOX", "address": {"city": "RICHLAND", "state": "MI", "street": "8480 N 32ND ST", "postcode": "49083"}}},
{"geometry": {"type": "Point", "coordinates": [-85.455233788, 42.383158911]}, "type": "Feature", "properties": {"collection_times": [{"days": "Mon-Fri", "time": "4:35pm"}, {"days": "Sat", "time": "12:00pm"}, {"days": "Sun", "time": "Closed"}], "id": "4908300004", "name": "USPS COLLECTION BOX - PO LOBBY", "address": {"city": "RICHLAND", "state": "MI", "street": "8480 N 32ND ST", "postcode": "49083"}}},
{"geometry": {"type": "Point", "coordinates": [-86.382699262, 42.183296635]}, "type": "Feature", "properties": {"collection_times": [{"days": "Mon-Fri", "time": "2:10pm"}, {"days": "Sat", "time": "9:30am"}, {"days": "Sun", "time": "Closed"}], "id": "4908400001", "name": "USPS COLLECTION BOX - BLUE BOX", "address": {"city": "RIVERSIDE", "state": "MI", "street": "3889 RIVERSIDE RD", "postcode": "49084"}}},
{"geometry": {"type": "Point", "coordinates": [-86.382699262, 42.183296635]}, "type": "Feature", "properties": {"collection_times": [{"days": "Mon-Fri", "time": "11:30am"}, {"days": "Sat", "time": "9:30am"}, {"days": "Sun", "time": "Closed"}], "id": "4908400002", "name": "USPS COLLECTION BOX - PO LOBBY", "address": {"city": "RIVERSIDE", "state": "MI", "street": "3889 RIVERSIDE RD", "postcode": "49084"}}},
{"geometry": {"type": "Point", "coordinates": [-86.4798898946, 42.1163850633]}, "type": "Feature", "properties": {"collection_times": [{"days": "Mon-Fri", "time": "1:30pm"}, {"days": "Sat", "time": "12:00pm"}, {"days": "Sun", "time": "Closed"}], "id": "4908500008", "name": "USPS COLLECTION BOX - BLUE BOX", "address": {"city": "SAINT JOSEPH", "state": "MI", "street": "303 UPTON DR", "postcode": "49085"}}},
{"geometry": {"type": "Point", "coordinates": [-86.4826729458, 42.1085344067]}, "type": "Feature", "properties": {"collection_times": [{"days": "Mon-Sat", "time": "2:00pm"}, {"days": "Sun", "time": "Closed"}], "id": "4908500010", "name": "USPS COLLECTION BOX - BLUE BOX", "address": {"city": "SAINT JOSEPH", "state": "MI", "street": "424 STATE ST", "postcode": "49085"}}},
{"geometry": {"type": "Point", "coordinates": [-86.487931925, 42.0933726582]}, "type": "Feature", "properties": {"collection_times": [{"days": "Mon-Sat", "time": "1:00pm"}, {"days": "Sun", "time": "Closed"}], "id": "4908500020", "name": "USPS COLLECTION BOX - BLUE BOX", "address": {"city": "SAINT JOSEPH", "state": "MI", "street": "2214 S STATE ST", "postcode": "49085"}}},
{"geometry": {"type": "Point", "coordinates": [-86.4814936367, 42.0868110851]}, "type": "Feature", "properties": {"collection_times": [{"days": "Mon-Sat", "time": "11:00am"}, {"days": "Sun", "time": "Closed"}], "id": "4908500024", "name": "USPS COLLECTION BOX - BLUE BOX", "address": {"city": "SAINT JOSEPH", "state": "MI", "street": "2725 THAYER DR", "postcode": "49085"}}},
{"geometry": {"type": "Point", "coordinates": [-86.4783485023, 42.0903470181]}, "type": "Feature", "properties": {"collection_times": [{"days": "Mon-Sat", "time": "2:00pm"}, {"days": "Sun", "time": "Closed"}], "id": "4908500026", "name": "USPS COLLECTION BOX - BLUE BOX", "address": {"city": "SAINT JOSEPH", "state": "MI", "street": "1234 NAPIER AVE", "postcode": "49085"}}},
{"geometry": {"type": "Point", "coordinates": [-86.4953342516, 42.0835308056]}, "type": "Feature", "properties": {"collection_times": [{"days": "Mon-Sat", "time": "11:30am"}, {"days": "Sun", "time": "Closed"}], "id": "4908500028", "name": "USPS COLLECTION BOX - BLUE BOX", "address": {"city": "SAINT JOSEPH", "state": "MI", "street": "2850 CLEVELAND AVE", "postcode": "49085"}}},
{"geometry": {"type": "Point", "coordinates": [-86.5016868699, 42.0829595726]}, "type": "Feature", "properties": {"collection_times": [{"days": "Mon-Fri", "time": "1:00pm"}, {"days": "Sat", "time": "11:30am"}, {"days": "Sun", "time": "Closed"}], "id": "4908500031", "name": "USPS COLLECTION BOX - BLUE BOX", "address": {"city": "SAINT JOSEPH", "state": "MI", "street": "2708 LAKESHORE DR", "postcode": "49085"}}},
{"geometry": {"type": "Point", "coordinates": [-86.4865146658, 42.0834728552]}, "type": "Feature", "properties": {"collection_times": [{"days": "Mon-Sat", "time": "2:00pm"}, {"days": "Sun", "time": "Closed"}], "id": "4908500033", "name": "USPS COLLECTION BOX - BLUE BOX", "address": {"city": "SAINT JOSEPH", "state": "MI", "street": "714 MIDWAY AVE", "postcode": "49085"}}},
{"geometry": {"type": "Point", "coordinates": [-86.4841784126, 42.090746557]}, "type": "Feature", "properties": {"collection_times": [{"days": "Mon-Sat", "time": "2:00pm"}, {"days": "Sun", "time": "Closed"}], "id": "4908500034", "name": "USPS COLLECTION BOX - BLUE BOX", "address": {"city": "SAINT JOSEPH", "state": "MI", "street": "810 NAPIER AVE", "postcode": "49085"}}},
{"geometry": {"type": "Point", "coordinates": [-86.4855129819, 42.084333909]}, "type": "Feature", "properties": {"collection_times": [{"days": "Mon-Sat", "time": "2:00pm"}, {"days": "Sun", "time": "Closed"}], "id": "4908500037", "name": "USPS COLLECTION BOX - BLUE BOX", "address": {"city": "SAINT JOSEPH", "state": "MI", "street": "2830 NILES AVE", "postcode": "49085"}}},
{"geometry": {"type": "Point", "coordinates": [-86.4825935933, 42.1099666753]}, "type": "Feature", "properties": {"collection_times": [{"days": "Mon-Sat", "time": "2:00pm"}, {"days": "Sun", "time": "Closed"}], "id": "4908500040", "name": "USPS COLLECTION BOX - BLUE BOX", "address": {"city": "SAINT JOSEPH", "state": "MI", "street": "519 PLEASANT ST", "postcode": "49085"}}},
{"geometry": {"type": "Point", "coordinates": [-86.4812571678, 42.1081259102]}, "type": "Feature", "properties": {"collection_times": [{"days": "Mon-Sat", "time": "2:00pm"}, {"days": "Sun", "time": "Closed"}], "id": "4908500041", "name": "USPS COLLECTION BOX - BLUE BOX", "address": {"city": "SAINT JOSEPH", "state": "MI", "street": "700 BROAD ST", "postcode": "49085"}}},
{"geometry": {"type": "Point", "coordinates": [-86.4786580255, 42.1092264497]}, "type": "Feature", "properties": {"collection_times": [{"days": "Mon-Fri", "time": "3:00pm"}, {"days": "Sat", "time": "2:00pm"}, {"days": "Sun", "time": "Closed"}], "id": "4908500044", "name": "USPS COLLECTION BOX - BLUE BOX", "address": {"city": "SAINT JOSEPH", "state": "MI", "street": "811 SHIP ST", "postcode": "49085"}}},
{"geometry": {"type": "Point", "coordinates": [-86.4353603079, 42.0433224876]}, "type": "Feature", "properties": {"collection_times": [{"days": "Mon-Sat", "time": "10:30am"}, {"days": "Sun", "time": "Closed"}], "id": "4908500045", "name": "USPS COLLECTION BOX - BLUE BOX", "address": {"city": "SAINT JOSEPH", "state": "MI", "street": "4032 M 139", "postcode": "49085"}}},
{"geometry": {"type": "Point", "coordinates": [-86.480039321, 42.109668612]}, "type": "Feature", "properties": {"collection_times": [{"days": "Mon-Fri", "time": "3:25pm"}, {"days": "Sat", "time": "12:30pm"}, {"days": "Sun", "time": "Closed"}], "id": "4908500046", "name": "USPS COLLECTION BOX - PO LOBBY", "address": {"city": "SAINT JOSEPH", "state": "MI", "street": "205 MAIN ST", "postcode": "49085"}}},
{"geometry": {"type": "Point", "coordinates": [-86.480039321, 42.109668612]}, "type": "Feature", "properties": {"collection_times": [{"days": "Mon-Fri", "time": "3:25pm"}, {"days": "Sat", "time": "1:25pm"}, {"days": "Sun", "time": "Closed"}], "id": "4908500047", "name": "USPS COLLECTION BOX - BLUE BOX", "address": {"city": "SAINT JOSEPH", "state": "MI", "street": "205 MAIN ST", "postcode": "49085"}}},
{"geometry": {"type": "Point", "coordinates": [-86.480039321, 42.109668612]}, "type": "Feature", "properties": {"collection_times": [{"days": "Mon-Fri", "time": "3:25pm"}, {"days": "Sat", "time": "1:25pm"}, {"days": "Sun", "time": "Closed"}], "id": "4908500049", "name": "USPS COLLECTION BOX - BLUE BOX", "address": {"city": "SAINT JOSEPH", "state": "MI", "street": "205 MAIN ST", "postcode": "49085"}}},
{"geometry": {"type": "Point", "coordinates": [-86.4987145254, 42.0799640057]}, "type": "Feature", "properties": {"collection_times": [{"days": "Mon-Sat", "time": "2:00pm"}, {"days": "Sun", "time": "Closed"}], "id": "4908500052", "name": "USPS COLLECTION BOX - BLUE BOX", "address": {"city": "SAINT JOSEPH", "state": "MI", "street": "211 HILLTOP RD", "postcode": "49085"}}},
{"geometry": {"type": "Point", "coordinates": [-86.4952281756, 42.0795012452]}, "type": "Feature", "properties": {"collection_times": [{"days": "Mon-Sat", "time": "2:00pm"}, {"days": "Sun", "time": "Closed"}], "id": "4908500054", "name": "USPS COLLECTION BOX - BLUE BOX", "address": {"city": "SAINT JOSEPH", "state": "MI", "street": "2121 S CLEVELAND AVE", "postcode": "49085"}}},
{"geometry": {"type": "Point", "coordinates": [-86.4847070241, 42.0798506974]}, "type": "Feature", "properties": {"collection_times": [{"days": "Mon-Fri", "time": "2:00pm"}, {"days": "Sat-Sun", "time": "Closed"}], "id": "4908500055", "name": "USPS COLLECTION BOX - BLUE BOX", "address": {"city": "SAINT JOSEPH", "state": "MI", "street": "1260 HILLTOP RD", "postcode": "49085"}}},
{"geometry": {"type": "Point", "coordinates": [-86.455752845, 42.0450302085]}, "type": "Feature", "properties": {"collection_times": [{"days": "Mon-Sat", "time": "9:30am"}, {"days": "Sun", "time": "Closed"}], "id": "4908500058", "name": "USPS COLLECTION BOX - BLUE BOX", "address": {"city": "SAINT JOSEPH", "state": "MI", "street": "4039 HOLLYWOOD RD", "postcode": "49085"}}},
{"geometry": {"type": "Point", "coordinates": [-85.638087085, 42.115557591]}, "type": "Feature", "properties": {"collection_times": [{"days": "Mon-Fri", "time": "3:40pm"}, {"days": "Sat", "time": "12:00pm"}, {"days": "Sun", "time": "Closed"}], "id": "4908700001", "name": "USPS COLLECTION BOX - BLUE BOX", "address": {"city": "SCHOOLCRAFT", "state": "MI", "street": "217 HAYWARD ST", "postcode": "49087"}}},
{"geometry": {"type": "Point", "coordinates": [-85.638087085, 42.115557591]}, "type": "Feature", "properties": {"collection_times": [{"days": "Mon-Fri", "time": "3:40pm"}, {"days": "Sat", "time": "12:00pm"}, {"days": "Sun", "time": "Closed"}], "id": "4908700002", "name": "USPS COLLECTION BOX - PO LOBBY", "address": {"city": "SCHOOLCRAFT", "state": "MI", "street": "217 HAYWARD ST", "postcode": "49087"}}},
{"geometry": {"type": "Point", "coordinates": [-85.412040504, 42.195911964]}, "type": "Feature", "properties": {"collection_times": [{"days": "Mon-Fri", "time": "1:40pm"}, {"days": "Sat", "time": "10:30am"}, {"days": "Sun", "time": "Closed"}], "id": "4908800001", "name": "USPS COLLECTION BOX - BLUE BOX", "address": {"city": "SCOTTS", "state": "MI", "street": "11030 NORSCOTT ST", "postcode": "49088"}}},
{"geometry": {"type": "Point", "coordinates": [-85.412040504, 42.195911964]}, "type": "Feature", "properties": {"collection_times": [{"days": "Mon-Fri", "time": "1:40pm"}, {"days": "Sat", "time": "10:30am"}, {"days": "Sun", "time": "Closed"}], "id": "4908800002", "name": "USPS COLLECTION BOX - PO LOBBY", "address": {"city": "SCOTTS", "state": "MI", "street": "11030 NORSCOTT ST", "postcode": "49088"}}},
{"geometry": {"type": "Point", "coordinates": [-85.239749393, 42.000428722]}, "type": "Feature", "properties": {"collection_times": [{"days": "Mon-Fri", "time": "3:15pm"}, {"days": "Sat", "time": "10:00am"}, {"days": "Sun", "time": "Closed"}], "id": "4908900001", "name": "USPS COLLECTION BOX - BLUE BOX", "address": {"city": "SHERWOOD", "state": "MI", "street": "133 FULTON ST", "postcode": "49089"}}},
{"geometry": {"type": "Point", "coordinates": [-85.239749393, 42.000428722]}, "type": "Feature", "properties": {"collection_times": [{"days": "Mon-Fri", "time": "3:15pm"}, {"days": "Sat", "time": "10:00am"}, {"days": "Sun", "time": "Closed"}], "id": "4908900002", "name": "USPS COLLECTION BOX - PO LOBBY", "address": {"city": "SHERWOOD", "state": "MI", "street": "133 FULTON ST", "postcode": "49089"}}},
{"geometry": {"type": "Point", "coordinates": [-85.2397064605, 42.0117532326]}, "type": "Feature", "properties": {"collection_times": [{"days": "Mon-Fri", "time": "10:00am"}, {"days": "Sat-Sun", "time": "Closed"}], "id": "4908900003", "name": "USPS COLLECTION BOX - BLUE BOX", "address": {"city": "SHERWOOD", "state": "MI", "street": "120 N MAIN ST", "postcode": "49089"}}},
{"geometry": {"type": "Point", "coordinates": [-86.271134025, 42.402252125]}, "type": "Feature", "properties": {"collection_times": [{"days": "Mon-Fri", "time": "3:45pm"}, {"days": "Sat", "time": "12:00pm"}, {"days": "Sun", "time": "Closed"}], "id": "4909000004", "name": "USPS COLLECTION BOX - BLUE BOX", "address": {"city": "SOUTH HAVEN", "state": "MI", "street": "336 BROADWAY ST", "postcode": "49090"}}},
{"geometry": {"type": "Point", "coordinates": [-86.271134025, 42.402252125]}, "type": "Feature", "properties": {"collection_times": [{"days": "Mon-Fri", "time": "3:45pm"}, {"days": "Sat", "time": "12:00pm"}, {"days": "Sun", "time": "Closed"}], "id": "4909000010", "name": "USPS COLLECTION BOX - PO LOBBY", "address": {"city": "SOUTH HAVEN", "state": "MI", "street": "336 BROADWAY ST", "postcode": "49090"}}},
{"geometry": {"type": "Point", "coordinates": [-84.1966972639, 44.1251969228]}, "type": "Feature", "properties": {"collection_times": [{"days": "Mon-Fri", "time": "2:15pm"}, {"days": "Sat", "time": "12:00pm"}, {"days": "Sun", "time": "Closed"}], "id": "4909000012", "name": "USPS COLLECTION BOX - BLUE BOX", "address": {"city": "SOUTH HAVEN", "state": "MI", "street": "433 PHOENIX ST", "postcode": "49090"}}},
{"geometry": {"type": "Point", "coordinates": [-86.2688531408, 42.3876308808]}, "type": "Feature", "properties": {"collection_times": [{"days": "Mon-Sat", "time": "10:00am"}, {"days": "Sun", "time": "Closed"}], "id": "4909000014", "name": "USPS COLLECTION BOX - BLUE BOX", "address": {"city": "SOUTH HAVEN", "state": "MI", "street": "08337 M 140", "postcode": "49090"}}},
{"geometry": {"type": "Point", "coordinates": [-85.4279836491, 41.7812744817]}, "type": "Feature", "properties": {"collection_times": [{"days": "Mon-Sat", "time": "11:00am"}, {"days": "Sun", "time": "Closed"}], "id": "4909100001", "name": "USPS COLLECTION BOX - BLUE BOX", "address": {"city": "STURGIS", "state": "MI", "street": "27010 FAWN RIVER RD", "postcode": "49091"}}},
{"geometry": {"type": "Point", "coordinates": [-85.4188449418, 41.822434007]}, "type": "Feature", "properties": {"collection_times": [{"days": "Mon-Sat", "time": "12:30pm"}, {"days": "Sun", "time": "Closed"}], "id": "4909100003", "name": "USPS COLLECTION BOX - BLUE BOX", "address": {"city": "STURGIS", "state": "MI", "street": "67699 N M 66", "postcode": "49091"}}},
{"geometry": {"type": "Point", "coordinates": [-85.428410976, 41.7894765862]}, "type": "Feature", "properties": {"collection_times": [{"days": "Mon-Sat", "time": "1:30pm"}, {"days": "Sun", "time": "Closed"}], "id": "4909100008", "name": "USPS COLLECTION BOX - BLUE BOX", "address": {"city": "STURGIS", "state": "MI", "street": "815 S CENTERVILLE RD", "postcode": "49091"}}},
{"geometry": {"type": "Point", "coordinates": [-85.402231874, 41.8012322359]}, "type": "Feature", "properties": {"collection_times": [{"days": "Mon-Sat", "time": "1:30pm"}, {"days": "Sun", "time": "Closed"}], "id": "4909100018", "name": "USPS COLLECTION BOX - BLUE BOX", "address": {"city": "STURGIS", "state": "MI", "street": "1517 E CHICAGO RD", "postcode": "49091"}}},
{"geometry": {"type": "Point", "coordinates": [-85.4201668089, 41.7989849737]}, "type": "Feature", "properties": {"collection_times": [{"days": "Mon-Sat", "time": "1:30pm"}, {"days": "Sun", "time": "Closed"}], "id": "4909100021", "name": "USPS COLLECTION BOX - BLUE BOX", "address": {"city": "STURGIS", "state": "MI", "street": "110 PLEASANT ST", "postcode": "49091"}}},
{"geometry": {"type": "Point", "coordinates": [-85.4086905982, 41.7941463265]}, "type": "Feature", "properties": {"collection_times": [{"days": "Mon-Sat", "time": "11:30am"}, {"days": "Sun", "time": "Closed"}], "id": "4909100022", "name": "USPS COLLECTION BOX - BLUE BOX", "address": {"city": "STURGIS", "state": "MI", "street": "916 MYRTLE ST", "postcode": "49091"}}},
{"geometry": {"type": "Point", "coordinates": [-85.417843396, 41.799417552]}, "type": "Feature", "properties": {"collection_times": [{"days": "Mon-Sat", "time": "3:55pm"}, {"days": "Sun", "time": "Closed"}], "id": "4909100033", "name": "USPS COLLECTION BOX - PO LOBBY", "address": {"city": "STURGIS", "state": "MI", "street": "124 E CHICAGO RD", "postcode": "49091"}}},
{"geometry": {"type": "Point", "coordinates": [-85.4281935704, 41.7855091836]}, "type": "Feature", "properties": {"collection_times": [{"days": "Mon-Sat", "time": "1:30pm"}, {"days": "Sun", "time": "Closed"}], "id": "4909100034", "name": "USPS COLLECTION BOX - BLUE BOX", "address": {"city": "STURGIS", "state": "MI", "street": "1500 S CENTERVILLE RD", "postcode": "49091"}}},
{"geometry": {"type": "Point", "coordinates": [-85.417843617, 41.7994178493]}, "type": "Feature", "properties": {"collection_times": [{"days": "Mon-Sat", "time": "3:55pm"}, {"days": "Sun", "time": "Closed"}], "id": "4909100035", "name": "USPS COLLECTION BOX - BLUE BOX", "address": {"city": "STURGIS", "state": "MI", "street": "124 E CHICAGO RD", "postcode": "49091"}}},
{"geometry": {"type": "Point", "coordinates": [-85.417843396, 41.799417552]}, "type": "Feature", "properties": {"collection_times": [{"days": "Mon-Sat", "time": "3:55pm"}, {"days": "Sun", "time": "Closed"}], "id": "4909100036", "name": "USPS COLLECTION BOX - BLUE BOX", "address": {"city": "STURGIS", "state": "MI", "street": "124 E CHICAGO RD", "postcode": "49091"}}},
{"geometry": {"type": "Point", "coordinates": [-84.984934509, 42.092584066]}, "type": "Feature", "properties": {"collection_times": [{"days": "Mon-Fri", "time": "2:15pm"}, {"days": "Sat", "time": "12:00pm"}, {"days": "Sun", "time": "Closed"}], "id": "4909200001", "name": "USPS COLLECTION BOX - BLUE BOX", "address": {"city": "TEKONSHA", "state": "MI", "street": "119 N WALNUT ST", "postcode": "49092"}}},
{"geometry": {"type": "Point", "coordinates": [-84.984934509, 42.092584066]}, "type": "Feature", "properties": {"collection_times": [{"days": "Mon-Fri", "time": "2:15pm"}, {"days": "Sat", "time": "12:00pm"}, {"days": "Sun", "time": "Closed"}], "id": "4909200002", "name": "USPS COLLECTION BOX - PO LOBBY", "address": {"city": "TEKONSHA", "state": "MI", "street": "119 N WALNUT ST", "postcode": "49092"}}},
{"geometry": {"type": "Point", "coordinates": [-84.9827924247, 42.1073883932]}, "type": "Feature", "properties": {"collection_times": [{"days": "Mon-Sat", "time": "12:00pm"}, {"days": "Sun", "time": "Closed"}], "id": "4909200003", "name": "USPS COLLECTION BOX - BLUE BOX", "address": {"city": "TEKONSHA", "state": "MI", "street": "15685 M 60", "postcode": "49092"}}},
{"geometry": {"type": "Point", "coordinates": [-85.6418925365, 41.9412182835]}, "type": "Feature", "properties": {"collection_times": [{"days": "Mon-Sat", "time": "3:00pm"}, {"days": "Sun", "time": "Closed"}], "id": "4909300001", "name": "USPS COLLECTION BOX - BLUE BOX", "address": {"city": "THREE RIVERS", "state": "MI", "street": "800 S US 131", "postcode": "49093"}}},
{"geometry": {"type": "Point", "coordinates": [-85.634687854, 41.946250519]}, "type": "Feature", "properties": {"collection_times": [{"days": "Mon-Sat", "time": "4:30pm"}, {"days": "Sun", "time": "Closed"}], "id": "4909300002", "name": "USPS COLLECTION BOX - BLUE BOX", "address": {"city": "THREE RIVERS", "state": "MI", "street": "100 N MAIN ST", "postcode": "49093"}}},
{"geometry": {"type": "Point", "coordinates": [-85.634687854, 41.946250519]}, "type": "Feature", "properties": {"collection_times": [{"days": "Mon-Sat", "time": "4:30pm"}, {"days": "Sun", "time": "Closed"}], "id": "4909300003", "name": "USPS COLLECTION BOX - BLUE BOX", "address": {"city": "THREE RIVERS", "state": "MI", "street": "100 N MAIN ST", "postcode": "49093"}}},
{"geometry": {"type": "Point", "coordinates": [-85.634687854, 41.946250519]}, "type": "Feature", "properties": {"collection_times": [{"days": "Mon-Sat", "time": "4:30pm"}, {"days": "Sun", "time": "Closed"}], "id": "4909300004", "name": "USPS COLLECTION BOX - BLUE BOX", "address": {"city": "THREE RIVERS", "state": "MI", "street": "100 N MAIN ST", "postcode": "49093"}}},
{"geometry": {"type": "Point", "coordinates": [-85.634687854, 41.946250519]}, "type": "Feature", "properties": {"collection_times": [{"days": "Mon-Sat", "time": "4:30pm"}, {"days": "Sun", "time": "Closed"}], "id": "4909300005", "name": "USPS COLLECTION BOX - BLUE BOX", "address": {"city": "THREE RIVERS", "state": "MI", "street": "100 N MAIN ST", "postcode": "49093"}}},
{"geometry": {"type": "Point", "coordinates": [-85.6469741343, 41.9348088111]}, "type": "Feature", "properties": {"collection_times": [{"days": "Mon-Sat", "time": "2:00pm"}, {"days": "Sun", "time": "Closed"}], "id": "4909300007", "name": "USPS COLLECTION BOX - BLUE BOX", "address": {"city": "THREE RIVERS", "state": "MI", "street": "701 S HEALTH PARKWAY", "postcode": "49093"}}},
{"geometry": {"type": "Point", "coordinates": [-85.6517822241, 41.9387051304]}, "type": "Feature", "properties": {"collection_times": [{"days": "Mon-Sat", "time": "2:30pm"}, {"days": "Sun", "time": "Closed"}], "id": "4909300008", "name": "USPS COLLECTION BOX - BLUE BOX", "address": {"city": "THREE RIVERS", "state": "MI", "street": "209 N US HIGHWAY 131", "postcode": "49093"}}},
{"geometry": {"type": "Point", "coordinates": [-85.6419946438, 41.9424924757]}, "type": "Feature", "properties": {"collection_times": [{"days": "Mon-Sat", "time": "2:30pm"}, {"days": "Sun", "time": "Closed"}], "id": "4909300010", "name": "USPS COLLECTION BOX - BLUE BOX", "address": {"city": "THREE RIVERS", "state": "MI", "street": "808 W MICHIGAN AVE", "postcode": "49093"}}},
{"geometry": {"type": "Point", "coordinates": [-85.6345609929, 41.9475273158]}, "type": "Feature", "properties": {"collection_times": [{"days": "Mon-Sat", "time": "2:30pm"}, {"days": "Sun", "time": "Closed"}], "id": "4909300012", "name": "USPS COLLECTION BOX - BLUE BOX", "address": {"city": "THREE RIVERS", "state": "MI", "street": "216 N MAIN ST", "postcode": "49093"}}},
{"geometry": {"type": "Point", "coordinates": [-85.634687854, 41.946250519]}, "type": "Feature", "properties": {"collection_times": [{"days": "Mon-Sat", "time": "4:30pm"}, {"days": "Sun", "time": "Closed"}], "id": "4909300013", "name": "USPS COLLECTION BOX - PO LOBBY", "address": {"city": "THREE RIVERS", "state": "MI", "street": "100 N MAIN ST", "postcode": "49093"}}},
{"geometry": {"type": "Point", "coordinates": [-85.6382954706, 41.9425408194]}, "type": "Feature", "properties": {"collection_times": [{"days": "Mon-Sat", "time": "2:45pm"}, {"days": "Sun", "time": "Closed"}], "id": "4909300015", "name": "USPS COLLECTION BOX - BLUE BOX", "address": {"city": "THREE RIVERS", "state": "MI", "street": "101 S TOLBERT DR", "postcode": "49093"}}},
{"geometry": {"type": "Point", "coordinates": [-85.135513415, 42.067121953]}, "type": "Feature", "properties": {"collection_times": [{"days": "Mon-Fri", "time": "3:00pm"}, {"days": "Sat", "time": "12:30pm"}, {"days": "Sun", "time": "Closed"}], "id": "4909400001", "name": "USPS COLLECTION BOX - BLUE BOX", "address": {"city": "UNION CITY", "state": "MI", "street": "123 ELLEN ST", "postcode": "49094"}}},
{"geometry": {"type": "Point", "coordinates": [-85.135513415, 42.067121953]}, "type": "Feature", "properties": {"collection_times": [{"days": "Mon-Fri", "time": "3:00pm"}, {"days": "Sat", "time": "12:30pm"}, {"days": "Sun", "time": "Closed"}], "id": "4909400002", "name": "USPS COLLECTION BOX - PO LOBBY", "address": {"city": "UNION CITY", "state": "MI", "street": "123 ELLEN ST", "postcode": "49094"}}},
{"geometry": {"type": "Point", "coordinates": [-85.911836666, 41.916982876]}, "type": "Feature", "properties": {"collection_times": [{"days": "Mon-Fri", "time": "3:45pm"}, {"days": "Sat", "time": "10:30am"}, {"days": "Sun", "time": "Closed"}], "id": "4909500001", "name": "USPS COLLECTION BOX - BLUE BOX", "address": {"city": "VANDALIA", "state": "MI", "street": "17899 MILL ST", "postcode": "49095"}}},
{"geometry": {"type": "Point", "coordinates": [-85.911836666, 41.916982876]}, "type": "Feature", "properties": {"collection_times": [{"days": "Mon-Fri", "time": "3:45pm"}, {"days": "Sat", "time": "10:30am"}, {"days": "Sun", "time": "Closed"}], "id": "4909500002", "name": "USPS COLLECTION BOX - PO LOBBY", "address": {"city": "VANDALIA", "state": "MI", "street": "17899 MILL ST", "postcode": "49095"}}},
{"geometry": {"type": "Point", "coordinates": [-85.024733236, 42.628249253]}, "type": "Feature", "properties": {"collection_times": [{"days": "Mon-Fri", "time": "2:00pm"}, {"days": "Sat", "time": "11:00am"}, {"days": "Sun", "time": "Closed"}], "id": "4909600001", "name": "USPS COLLECTION BOX - BLUE BOX", "address": {"city": "VERMONTVILLE", "state": "MI", "street": "139 S MAIN ST", "postcode": "49096"}}},
{"geometry": {"type": "Point", "coordinates": [-85.024733236, 42.628249253]}, "type": "Feature", "properties": {"collection_times": [{"days": "Mon-Fri", "time": "2:00pm"}, {"days": "Sat", "time": "11:00am"}, {"days": "Sun", "time": "Closed"}], "id": "4909600002", "name": "USPS COLLECTION BOX - PO LOBBY", "address": {"city": "VERMONTVILLE", "state": "MI", "street": "139 S MAIN ST", "postcode": "49096"}}},
{"geometry": {"type": "Point", "coordinates": [-85.5329457179, 42.1200037818]}, "type": "Feature", "properties": {"collection_times": [{"days": "Mon-Sat", "time": "2:00pm"}, {"days": "Sun", "time": "Closed"}], "id": "4909700001", "name": "USPS COLLECTION BOX - BLUE BOX", "address": {"city": "VICKSBURG", "state": "MI", "street": "120 W PRAIRIE ST", "postcode": "49097"}}},
{"geometry": {"type": "Point", "coordinates": [-85.53099747, 42.120538905]}, "type": "Feature", "properties": {"collection_times": [{"days": "Mon-Fri", "time": "3:10pm"}, {"days": "Sat", "time": "3:00pm"}, {"days": "Sun", "time": "Closed"}], "id": "4909700002", "name": "USPS COLLECTION BOX - BLUE BOX", "address": {"city": "VICKSBURG", "state": "MI", "street": "113 N KALAMAZOO ST", "postcode": "49097"}}},
{"geometry": {"type": "Point", "coordinates": [-85.53099747, 42.120538905]}, "type": "Feature", "properties": {"collection_times": [{"days": "Mon-Fri", "time": "3:10pm"}, {"days": "Sat", "time": "3:00pm"}, {"days": "Sun", "time": "Closed"}], "id": "4909700003", "name": "USPS COLLECTION BOX - BLUE BOX", "address": {"city": "VICKSBURG", "state": "MI", "street": "113 N KALAMAZOO ST", "postcode": "49097"}}},
{"geometry": {"type": "Point", "coordinates": [-85.53099747, 42.120538905]}, "type": "Feature", "properties": {"collection_times": [{"days": "Mon-Fri", "time": "3:10pm"}, {"days": "Sat", "time": "3:00pm"}, {"days": "Sun", "time": "Closed"}], "id": "4909700004", "name": "USPS COLLECTION BOX - PO LOBBY", "address": {"city": "VICKSBURG", "state": "MI", "street": "113 N KALAMAZOO ST", "postcode": "49097"}}},
{"geometry": {"type": "Point", "coordinates": [-85.5306590355, 42.1199114283]}, "type": "Feature", "properties": {"collection_times": [{"days": "Mon-Sat", "time": "2:00pm"}, {"days": "Sun", "time": "Closed"}], "id": "4909700005", "name": "USPS COLLECTION BOX - BLUE BOX", "address": {"city": "VICKSBURG", "state": "MI", "street": "216 E PRAIRIE ST", "postcode": "49097"}}},
{"geometry": {"type": "Point", "coordinates": [-85.5306590355, 42.1199114283]}, "type": "Feature", "properties": {"collection_times": [{"days": "Mon-Sat", "time": "2:00pm"}, {"days": "Sun", "time": "Closed"}], "id": "4909700006", "name": "USPS COLLECTION BOX - BLUE BOX", "address": {"city": "VICKSBURG", "state": "MI", "street": "216 E PRAIRIE ST", "postcode": "49097"}}},
{"geometry": {"type": "Point", "coordinates": [-86.26369404, 42.188134803]}, "type": "Feature", "properties": {"collection_times": [{"days": "Mon-Fri", "time": "3:35pm"}, {"days": "Sat", "time": "12:15pm"}, {"days": "Sun", "time": "Closed"}], "id": "4909800002", "name": "USPS COLLECTION BOX - BLUE BOX", "address": {"city": "WATERVLIET", "state": "MI", "street": "342 W PLEASANT ST", "postcode": "49098"}}},
{"geometry": {"type": "Point", "coordinates": [-86.25956856, 42.1904075901]}, "type": "Feature", "properties": {"collection_times": [{"days": "Mon-Sat", "time": "12:00pm"}, {"days": "Sun", "time": "Closed"}], "id": "4909800003", "name": "USPS COLLECTION BOX - BLUE BOX", "address": {"city": "WATERVLIET", "state": "MI", "street": "323 N MAIN ST", "postcode": "49098"}}},
{"geometry": {"type": "Point", "coordinates": [-86.26369404, 42.188134803]}, "type": "Feature", "properties": {"collection_times": [{"days": "Mon-Fri", "time": "3:35pm"}, {"days": "Sat", "time": "12:15pm"}, {"days": "Sun", "time": "Closed"}], "id": "4909800004", "name": "USPS COLLECTION BOX - PO LOBBY", "address": {"city": "WATERVLIET", "state": "MI", "street": "342 W PLEASANT ST", "postcode": "49098"}}},
{"geometry": {"type": "Point", "coordinates": [-85.7801060447, 41.8005286478]}, "type": "Feature", "properties": {"collection_times": [{"days": "Mon-Sat", "time": "11:00am"}, {"days": "Sun", "time": "Closed"}], "id": "4909900001", "name": "USPS COLLECTION BOX - BLUE BOX", "address": {"city": "WHITE PIGEON", "state": "MI", "street": "11028 US HIGHWAY 12", "postcode": "49099"}}},
{"geometry": {"type": "Point", "coordinates": [-85.643237785, 41.798831042]}, "type": "Feature", "properties": {"collection_times": [{"days": "Mon-Fri", "time": "4:05pm"}, {"days": "Sat", "time": "12:00pm"}, {"days": "Sun", "time": "Closed"}], "id": "4909900010", "name": "USPS COLLECTION BOX - PO LOBBY", "address": {"city": "WHITE PIGEON", "state": "MI", "street": "107 N KALAMAZOO ST", "postcode": "49099"}}},
{"geometry": {"type": "Point", "coordinates": [-85.643237785, 41.798831042]}, "type": "Feature", "properties": {"collection_times": [{"days": "Mon-Fri", "time": "4:05pm"}, {"days": "Sat", "time": "11:30am"}, {"days": "Sun", "time": "Closed"}], "id": "4909900012", "name": "USPS COLLECTION BOX - BLUE BOX", "address": {"city": "WHITE PIGEON", "state": "MI", "street": "107 N KALAMAZOO ST", "postcode": "49099"}}}
]}
