{"type": "FeatureCollection", "features": [
{"geometry": {"type": "Point", "coordinates": [-86.486509509, 41.95517438]}, "type": "Feature", "properties": {"collection_times": [{"days": "Mon-Fri", "time": "2:20pm"}, {"days": "Sat", "time": "11:45am"}, {"days": "Sun", "time": "Closed"}], "id": "4910100001", "name": "USPS COLLECTION BOX - BLUE BOX", "address": {"city": "BARODA", "state": "MI", "street": "1368 SOUTH ST", "postcode": "49101"}}},
{"geometry": {"type": "Point", "coordinates": [-86.486509509, 41.95517438]}, "type": "Feature", "properties": {"collection_times": [{"days": "Mon-Fri", "time": "2:20pm"}, {"days": "Sat", "time": "11:45am"}, {"days": "Sun", "time": "Closed"}], "id": "4910100003", "name": "USPS COLLECTION BOX - PO LOBBY", "address": {"city": "BARODA", "state": "MI", "street": "1368 SOUTH ST", "postcode": "49101"}}},
{"geometry": {"type": "Point", "coordinates": [-86.2764881893, 41.9567238181]}, "type": "Feature", "properties": {"collection_times": [{"days": "Mon-Sat", "time": "10:00am"}, {"days": "Sun", "time": "Closed"}], "id": "4910200003", "name": "USPS COLLECTION BOX - BLUE BOX", "address": {"city": "BERRIEN CENTER", "state": "MI", "street": "8916 M 140", "postcode": "49102"}}},
{"geometry": {"type": "Point", "coordinates": [-86.337814423, 41.947108308]}, "type": "Feature", "properties": {"collection_times": [{"days": "Mon-Sat", "time": "2:15pm"}, {"days": "Sun", "time": "Closed"}], "id": "4910300003", "name": "USPS COLLECTION BOX - BLUE BOX", "address": {"city": "BERRIEN SPRINGS", "state": "MI", "street": "115 N MAIN ST", "postcode": "49103"}}},
{"geometry": {"type": "Point", "coordinates": [-86.3385070645, 41.9477384415]}, "type": "Feature", "properties": {"collection_times": [{"days": "Mon-Sat", "time": "2:15pm"}, {"days": "Sun", "time": "Closed"}], "id": "4910300007", "name": "USPS COLLECTION BOX - BLUE BOX", "address": {"city": "BERRIEN SPRINGS", "state": "MI", "street": "204 N MAIN ST", "postcode": "49103"}}},
{"geometry": {"type": "Point", "coordinates": [-86.3583668549, 41.9561473964]}, "type": "Feature", "properties": {"collection_times": [{"days": "Mon-Sat", "time": "2:00pm"}, {"days": "Sun", "time": "Closed"}], "id": "4910300012", "name": "USPS COLLECTION BOX - BLUE BOX", "address": {"city": "BERRIEN SPRINGS", "state": "MI", "street": "9067 US HIGHWAY 31", "postcode": "49103"}}},
{"geometry": {"type": "Point", "coordinates": [-86.3814576034, 41.9439000624]}, "type": "Feature", "properties": {"collection_times": [{"days": "Mon-Sat", "time": "2:00pm"}, {"days": "Sun", "time": "Closed"}], "id": "4910300014", "name": "USPS COLLECTION BOX - BLUE BOX", "address": {"city": "BERRIEN SPRINGS", "state": "MI", "street": "500 GROVE AVE", "postcode": "49103"}}},
{"geometry": {"type": "Point", "coordinates": [-86.337814423, 41.947108308]}, "type": "Feature", "properties": {"collection_times": [{"days": "Mon-Sat", "time": "2:15pm"}, {"days": "Sun", "time": "Closed"}], "id": "4910300015", "name": "USPS COLLECTION BOX - PO LOBBY", "address": {"city": "BERRIEN SPRINGS", "state": "MI", "street": "115 N MAIN ST", "postcode": "49103"}}},
{"geometry": {"type": "Point", "coordinates": [-86.541854301, 41.9429984839]}, "type": "Feature", "properties": {"collection_times": [{"days": "Mon-Fri", "time": "12:00pm"}, {"days": "Sat", "time": "11:00am"}, {"days": "Sun", "time": "Closed"}], "id": "4910600002", "name": "USPS COLLECTION BOX - BLUE BOX", "address": {"city": "BRIDGMAN", "state": "MI", "street": "3651 SHAWNEE RD", "postcode": "49106"}}},
{"geometry": {"type": "Point", "coordinates": [-86.5580158892, 41.9402822371]}, "type": "Feature", "properties": {"collection_times": [{"days": "Mon-Sat", "time": "10:30am"}, {"days": "Sun", "time": "Closed"}], "id": "4910600010", "name": "USPS COLLECTION BOX - BLUE BOX", "address": {"city": "BRIDGMAN", "state": "MI", "street": "4738 LAKE ST", "postcode": "49106"}}},
{"geometry": {"type": "Point", "coordinates": [-86.557324659, 41.943442174]}, "type": "Feature", "properties": {"collection_times": [{"days": "Mon-Fri", "time": "2:40pm"}, {"days": "Sat", "time": "11:00am"}, {"days": "Sun", "time": "Closed"}], "id": "4910600011", "name": "USPS COLLECTION BOX - BLUE BOX", "address": {"city": "BRIDGMAN", "state": "MI", "street": "9655 MAPLEWOOD AVE", "postcode": "49106"}}},
{"geometry": {"type": "Point", "coordinates": [-86.557324659, 41.943442174]}, "type": "Feature", "properties": {"collection_times": [{"days": "Mon-Fri", "time": "2:40pm"}, {"days": "Sat", "time": "11:00am"}, {"days": "Sun", "time": "Closed"}], "id": "4910600012", "name": "USPS COLLECTION BOX - PO LOBBY", "address": {"city": "BRIDGMAN", "state": "MI", "street": "9655 MAPLEWOOD AVE", "postcode": "49106"}}},
{"geometry": {"type": "Point", "coordinates": [-86.3512355643, 41.8272620811]}, "type": "Feature", "properties": {"collection_times": [{"days": "Mon-Sat", "time": "9:45am"}, {"days": "Sun", "time": "Closed"}], "id": "4910700009", "name": "USPS COLLECTION BOX - BLUE BOX", "address": {"city": "BUCHANAN", "state": "MI", "street": "802 E FRONT ST", "postcode": "49107"}}},
{"geometry": {"type": "Point", "coordinates": [-86.3220079588, 41.8278403904]}, "type": "Feature", "properties": {"collection_times": [{"days": "Mon-Sat", "time": "11:30am"}, {"days": "Sun", "time": "Closed"}], "id": "4910700011", "name": "USPS COLLECTION BOX - BLUE BOX", "address": {"city": "BUCHANAN", "state": "MI", "street": "4700 NILES BUCHANAN RD", "postcode": "49107"}}},
{"geometry": {"type": "Point", "coordinates": [-86.3610273388, 41.8263353395]}, "type": "Feature", "properties": {"collection_times": [{"days": "Mon-Sat", "time": "11:00am"}, {"days": "Sun", "time": "Closed"}], "id": "4910700012", "name": "USPS COLLECTION BOX - BLUE BOX", "address": {"city": "BUCHANAN", "state": "MI", "street": "131 S OAK ST", "postcode": "49107"}}},
{"geometry": {"type": "Point", "coordinates": [-86.361459905, 41.827385796]}, "type": "Feature", "properties": {"collection_times": [{"days": "Mon-Fri", "time": "2:55pm"}, {"days": "Sat", "time": "12:00pm"}, {"days": "Sun", "time": "Closed"}], "id": "4910700014", "name": "USPS COLLECTION BOX - PO LOBBY", "address": {"city": "BUCHANAN", "state": "MI", "street": "112 W FRONT ST", "postcode": "49107"}}},
{"geometry": {"type": "Point", "coordinates": [-86.3605754398, 41.8274207786]}, "type": "Feature", "properties": {"collection_times": [{"days": "Mon-Fri", "time": "2:55pm"}, {"days": "Sat", "time": "12:00pm"}, {"days": "Sun", "time": "Closed"}], "id": "4910700015", "name": "USPS COLLECTION BOX - BLUE BOX", "address": {"city": "BUCHANAN", "state": "MI", "street": "111 W FRONT ST", "postcode": "49107"}}},
{"geometry": {"type": "Point", "coordinates": [-86.361459905, 41.827385796]}, "type": "Feature", "properties": {"collection_times": [{"days": "Mon-Fri", "time": "2:55pm"}, {"days": "Sat", "time": "12:00pm"}, {"days": "Sun", "time": "Closed"}], "id": "4910700016", "name": "USPS COLLECTION BOX - BLUE BOX", "address": {"city": "BUCHANAN", "state": "MI", "street": "112 W FRONT ST", "postcode": "49107"}}},
{"geometry": {"type": "Point", "coordinates": [-86.3101559654, 41.985507085]}, "type": "Feature", "properties": {"collection_times": [{"days": "Mon-Sat", "time": "9:00am"}, {"days": "Sun", "time": "Closed"}], "id": "4911100003", "name": "USPS COLLECTION BOX - BLUE BOX", "address": {"city": "EAU CLAIRE", "state": "MI", "street": "6100 W MAIN ST", "postcode": "49111"}}},
{"geometry": {"type": "Point", "coordinates": [-86.29939858, 41.985359298]}, "type": "Feature", "properties": {"collection_times": [{"days": "Mon-Fri", "time": "1:55pm"}, {"days": "Sat", "time": "11:00am"}, {"days": "Sun", "time": "Closed"}], "id": "4911100004", "name": "USPS COLLECTION BOX - BLUE BOX", "address": {"city": "EAU CLAIRE", "state": "MI", "street": "6537 E MAIN ST", "postcode": "49111"}}},
{"geometry": {"type": "Point", "coordinates": [-86.29939858, 41.985359298]}, "type": "Feature", "properties": {"collection_times": [{"days": "Mon-Fri", "time": "1:55pm"}, {"days": "Sat", "time": "11:00am"}, {"days": "Sun", "time": "Closed"}], "id": "4911100005", "name": "USPS COLLECTION BOX - PO LOBBY", "address": {"city": "EAU CLAIRE", "state": "MI", "street": "6537 E MAIN ST", "postcode": "49111"}}},
{"geometry": {"type": "Point", "coordinates": [-86.0262343554, 41.8002388066]}, "type": "Feature", "properties": {"collection_times": [{"days": "Mon-Sat", "time": "10:00am"}, {"days": "Sun", "time": "Closed"}], "id": "4911200005", "name": "USPS COLLECTION BOX - BLUE BOX", "address": {"city": "EDWARDSBURG", "state": "MI", "street": "15479 US HIGHWAY 12", "postcode": "49112"}}},
{"geometry": {"type": "Point", "coordinates": [-86.083420691, 41.797648075]}, "type": "Feature", "properties": {"collection_times": [{"days": "Mon-Fri", "time": "3:00pm"}, {"days": "Sat", "time": "11:30am"}, {"days": "Sun", "time": "Closed"}], "id": "4911200006", "name": "USPS COLLECTION BOX - PO LOBBY", "address": {"city": "EDWARDSBURG", "state": "MI", "street": "68926 CASS ST", "postcode": "49112"}}},
{"geometry": {"type": "Point", "coordinates": [-86.083420691, 41.797648075]}, "type": "Feature", "properties": {"collection_times": [{"days": "Mon-Fri", "time": "3:00pm"}, {"days": "Sat", "time": "11:30am"}, {"days": "Sun", "time": "Closed"}], "id": "4911200007", "name": "USPS COLLECTION BOX - BLUE BOX", "address": {"city": "EDWARDSBURG", "state": "MI", "street": "68926 CASS ST", "postcode": "49112"}}},
{"geometry": {"type": "Point", "coordinates": [-86.4989917931, 41.8029711678]}, "type": "Feature", "properties": {"collection_times": [{"days": "Mon-Fri", "time": "2:05pm"}, {"days": "Sat", "time": "11:00am"}, {"days": "Sun", "time": "Closed"}], "id": "4911300001", "name": "USPS COLLECTION BOX - BLUE BOX", "address": {"city": "GALIEN", "state": "MI", "street": "114 N CLEVELAND AVE", "postcode": "49113"}}},
{"geometry": {"type": "Point", "coordinates": [-86.498991793, 41.802971168]}, "type": "Feature", "properties": {"collection_times": [{"days": "Mon-Fri", "time": "2:05pm"}, {"days": "Sat", "time": "11:00am"}, {"days": "Sun", "time": "Closed"}], "id": "4911300003", "name": "USPS COLLECTION BOX - PO LOBBY", "address": {"city": "GALIEN", "state": "MI", "street": "114 N CLEVELAND AVE", "postcode": "49113"}}},
{"geometry": {"type": "Point", "coordinates": [-86.62400393, 41.873726833]}, "type": "Feature", "properties": {"collection_times": [{"days": "Mon-Fri", "time": "1:45pm"}, {"days": "Sat", "time": "11:00am"}, {"days": "Sun", "time": "Closed"}], "id": "4911500001", "name": "USPS COLLECTION BOX - BLUE BOX", "address": {"city": "HARBERT", "state": "MI", "street": "13785 RED ARROW HWY", "postcode": "49115"}}},
{"geometry": {"type": "Point", "coordinates": [-86.62400393, 41.873726833]}, "type": "Feature", "properties": {"collection_times": [{"days": "Mon-Fri", "time": "1:45pm"}, {"days": "Sat", "time": "11:00am"}, {"days": "Sun", "time": "Closed"}], "id": "4911500002", "name": "USPS COLLECTION BOX - PO LOBBY", "address": {"city": "HARBERT", "state": "MI", "street": "13785 RED ARROW HWY", "postcode": "49115"}}},
{"geometry": {"type": "Point", "coordinates": [-86.6675056828, 41.8495802473]}, "type": "Feature", "properties": {"collection_times": [{"days": "Mon-Sat", "time": "10:30am"}, {"days": "Sun", "time": "Closed"}], "id": "4911600005", "name": "USPS COLLECTION BOX - BLUE BOX", "address": {"city": "LAKESIDE", "state": "MI", "street": "14950 LAKESIDE RD", "postcode": "49116"}}},
{"geometry": {"type": "Point", "coordinates": [-86.7439209751, 41.7945908342]}, "type": "Feature", "properties": {"collection_times": [{"days": "Mon-Sat", "time": "2:20pm"}, {"days": "Sun", "time": "Closed"}], "id": "4911700001", "name": "USPS COLLECTION BOX - BLUE BOX", "address": {"city": "NEW BUFFALO", "state": "MI", "street": "45 N WHITTAKER ST", "postcode": "49117"}}},
{"geometry": {"type": "Point", "coordinates": [-86.747201138, 41.792517052]}, "type": "Feature", "properties": {"collection_times": [{"days": "Mon-Sat", "time": "2:20pm"}, {"days": "Sun", "time": "Closed"}], "id": "4911700003", "name": "USPS COLLECTION BOX - BLUE BOX", "address": {"city": "NEW BUFFALO", "state": "MI", "street": "325 W BUFFALO ST", "postcode": "49117"}}},
{"geometry": {"type": "Point", "coordinates": [-86.7435917797, 41.7941142379]}, "type": "Feature", "properties": {"collection_times": [{"days": "Mon-Sat", "time": "2:20pm"}, {"days": "Sun", "time": "Closed"}], "id": "4911700007", "name": "USPS COLLECTION BOX - BLUE BOX", "address": {"city": "NEW BUFFALO", "state": "MI", "street": "1 N WHITTAKER ST", "postcode": "49117"}}},
{"geometry": {"type": "Point", "coordinates": [-86.747201138, 41.792517052]}, "type": "Feature", "properties": {"collection_times": [{"days": "Mon-Sat", "time": "2:20pm"}, {"days": "Sun", "time": "Closed"}], "id": "4911700009", "name": "USPS COLLECTION BOX - PO LOBBY", "address": {"city": "NEW BUFFALO", "state": "MI", "street": "325 W BUFFALO ST", "postcode": "49117"}}},
{"geometry": {"type": "Point", "coordinates": [-86.550012068, 41.876817825]}, "type": "Feature", "properties": {"collection_times": [{"days": "Mon-Fri", "time": "2:05pm"}, {"days": "Sat", "time": "11:00am"}, {"days": "Sun", "time": "Closed"}], "id": "4911900001", "name": "USPS COLLECTION BOX - BLUE BOX", "address": {"city": "NEW TROY", "state": "MI", "street": "13377 CALIFORNIA RD", "postcode": "49119"}}},
{"geometry": {"type": "Point", "coordinates": [-86.550012068, 41.876817825]}, "type": "Feature", "properties": {"collection_times": [{"days": "Mon-Fri", "time": "12:30pm"}, {"days": "Sat", "time": "11:00am"}, {"days": "Sun", "time": "Closed"}], "id": "4911900002", "name": "USPS COLLECTION BOX - PO LOBBY", "address": {"city": "NEW TROY", "state": "MI", "street": "13377 CALIFORNIA RD", "postcode": "49119"}}},
{"geometry": {"type": "Point", "coordinates": [-86.2449810702, 41.7951041117]}, "type": "Feature", "properties": {"collection_times": [{"days": "Mon-Sat", "time": "1:00pm"}, {"days": "Sun", "time": "Closed"}], "id": "4912000016", "name": "USPS COLLECTION BOX - BLUE BOX", "address": {"city": "NILES", "state": "MI", "street": "1950 S 13TH ST", "postcode": "49120"}}},
{"geometry": {"type": "Point", "coordinates": [-86.228195, 41.852753]}, "type": "Feature", "properties": {"collection_times": [{"days": "Mon-Sat", "time": "3:00pm"}, {"days": "Sun", "time": "Closed"}], "id": "4912000018", "name": "USPS COLLECTION BOX - BLUE BOX", "address": {"city": "NILES", "state": "MI", "street": "1943 TERMINAL RD", "postcode": "49120"}}},
{"geometry": {"type": "Point", "coordinates": [-86.260588174, 41.8392583688]}, "type": "Feature", "properties": {"collection_times": [{"days": "Mon-Sat", "time": "3:00pm"}, {"days": "Sun", "time": "Closed"}], "id": "4912000019", "name": "USPS COLLECTION BOX - BLUE BOX", "address": {"city": "NILES", "state": "MI", "street": "1205 N FRONT ST", "postcode": "49120"}}},
{"geometry": {"type": "Point", "coordinates": [-86.2549580737, 41.8290946973]}, "type": "Feature", "properties": {"collection_times": [{"days": "Mon-Sat", "time": "3:00pm"}, {"days": "Sun", "time": "Closed"}], "id": "4912000022", "name": "USPS COLLECTION BOX - BLUE BOX", "address": {"city": "NILES", "state": "MI", "street": "112 N 4TH ST", "postcode": "49120"}}},
{"geometry": {"type": "Point", "coordinates": [-86.2572685201, 41.8298569824]}, "type": "Feature", "properties": {"collection_times": [{"days": "Mon-Sat", "time": "3:00pm"}, {"days": "Sun", "time": "Closed"}], "id": "4912000027", "name": "USPS COLLECTION BOX - BLUE BOX", "address": {"city": "NILES", "state": "MI", "street": "206 E MAIN ST", "postcode": "49120"}}},
{"geometry": {"type": "Point", "coordinates": [-86.2484424386, 41.7978456019]}, "type": "Feature", "properties": {"collection_times": [{"days": "Mon-Sat", "time": "3:00pm"}, {"days": "Sun", "time": "Closed"}], "id": "4912000033", "name": "USPS COLLECTION BOX - BLUE BOX", "address": {"city": "NILES", "state": "MI", "street": "1900 S 11TH ST", "postcode": "49120"}}},
{"geometry": {"type": "Point", "coordinates": [-86.250479968, 41.828023066]}, "type": "Feature", "properties": {"collection_times": [{"days": "Mon-Sat", "time": "3:25pm"}, {"days": "Sun", "time": "Closed"}], "id": "4912000038", "name": "USPS COLLECTION BOX - BLUE BOX", "address": {"city": "NILES", "state": "MI", "street": "741 BROADWAY ST", "postcode": "49120"}}},
{"geometry": {"type": "Point", "coordinates": [-86.250479968, 41.828023066]}, "type": "Feature", "properties": {"collection_times": [{"days": "Mon-Sat", "time": "3:25pm"}, {"days": "Sun", "time": "Closed"}], "id": "4912000043", "name": "USPS COLLECTION BOX - PO LOBBY", "address": {"city": "NILES", "state": "MI", "street": "741 BROADWAY ST", "postcode": "49120"}}},
{"geometry": {"type": "Point", "coordinates": [-86.2471665818, 41.8203553651]}, "type": "Feature", "properties": {"collection_times": [{"days": "Mon-Sat", "time": "3:00pm"}, {"days": "Sun", "time": "Closed"}], "id": "4912000045", "name": "USPS COLLECTION BOX - BLUE BOX", "address": {"city": "NILES", "state": "MI", "street": "720 S 11TH ST", "postcode": "49120"}}},
{"geometry": {"type": "Point", "coordinates": [-86.2612971992, 41.827882051]}, "type": "Feature", "properties": {"collection_times": [{"days": "Mon-Sat", "time": "3:00pm"}, {"days": "Sun", "time": "Closed"}], "id": "4912000047", "name": "USPS COLLECTION BOX - BLUE BOX", "address": {"city": "NILES", "state": "MI", "street": "31 N SAINT JOSEPH AVE", "postcode": "49120"}}},
{"geometry": {"type": "Point", "coordinates": [-86.2506003651, 41.7743424484]}, "type": "Feature", "properties": {"collection_times": [{"days": "Mon-Sat", "time": "3:00pm"}, {"days": "Sun", "time": "Closed"}], "id": "4912000048", "name": "USPS COLLECTION BOX - BLUE BOX", "address": {"city": "NILES", "state": "MI", "street": "2707 S 11TH ST", "postcode": "49120"}}},
{"geometry": {"type": "Point", "coordinates": [-86.2024866761, 41.8837132607]}, "type": "Feature", "properties": {"collection_times": [{"days": "Mon-Sat", "time": "3:00pm"}, {"days": "Sun", "time": "Closed"}], "id": "4912000050", "name": "USPS COLLECTION BOX - BLUE BOX", "address": {"city": "NILES", "state": "MI", "street": "2028 N OLD US 31", "postcode": "49120"}}},
{"geometry": {"type": "Point", "coordinates": [-86.2024866761, 41.8837132607]}, "type": "Feature", "properties": {"collection_times": [{"days": "Mon-Sat", "time": "3:00pm"}, {"days": "Sun", "time": "Closed"}], "id": "4912000051", "name": "USPS COLLECTION BOX - BLUE BOX", "address": {"city": "NILES", "state": "MI", "street": "2121 W CHICAGO RD", "postcode": "49120"}}},
{"geometry": {"type": "Point", "coordinates": [-86.593431682, 41.885532993]}, "type": "Feature", "properties": {"collection_times": [{"days": "Mon-Fri", "time": "2:50pm"}, {"days": "Sat", "time": "11:00am"}, {"days": "Sun", "time": "Closed"}], "id": "4912500001", "name": "USPS COLLECTION BOX - BLUE BOX", "address": {"city": "SAWYER", "state": "MI", "street": "5835 SAWYER RD", "postcode": "49125"}}},
{"geometry": {"type": "Point", "coordinates": [-86.5995461951, 41.8854993131]}, "type": "Feature", "properties": {"collection_times": [{"days": "Mon-Fri", "time": "12:30pm"}, {"days": "Sat", "time": "10:00am"}, {"days": "Sun", "time": "Closed"}], "id": "4912500002", "name": "USPS COLLECTION BOX - BLUE BOX", "address": {"city": "SAWYER", "state": "MI", "street": "6100 SAWYER RD", "postcode": "49125"}}},
{"geometry": {"type": "Point", "coordinates": [-86.6093237185, 41.8950872687]}, "type": "Feature", "properties": {"collection_times": [{"days": "Mon-Fri", "time": "11:00am"}, {"days": "Sat", "time": "10:00am"}, {"days": "Sun", "time": "Closed"}], "id": "4912500003", "name": "USPS COLLECTION BOX - BLUE BOX", "address": {"city": "SAWYER", "state": "MI", "street": "12370 TOWER HILL RD", "postcode": "49125"}}},
{"geometry": {"type": "Point", "coordinates": [-86.614263568, 41.8886288067]}, "type": "Feature", "properties": {"collection_times": [{"days": "Mon-Fri", "time": "11:30am"}, {"days": "Sat", "time": "10:00am"}, {"days": "Sun", "time": "Closed"}], "id": "4912500004", "name": "USPS COLLECTION BOX - BLUE BOX", "address": {"city": "SAWYER", "state": "MI", "street": "12684 OAK PARK AVE", "postcode": "49125"}}},
{"geometry": {"type": "Point", "coordinates": [-86.593431682, 41.885532993]}, "type": "Feature", "properties": {"collection_times": [{"days": "Mon-Fri", "time": "2:50pm"}, {"days": "Sat", "time": "11:00am"}, {"days": "Sun", "time": "Closed"}], "id": "4912500006", "name": "USPS COLLECTION BOX - PO LOBBY", "address": {"city": "SAWYER", "state": "MI", "street": "5835 SAWYER RD", "postcode": "49125"}}},
{"geometry": {"type": "Point", "coordinates": [-86.371283472, 42.043449589]}, "type": "Feature", "properties": {"collection_times": [{"days": "Mon-Fri", "time": "11:30am"}, {"days": "Sat", "time": "10:30am"}, {"days": "Sun", "time": "Closed"}], "id": "4912600003", "name": "USPS COLLECTION BOX - BLUE BOX", "address": {"city": "SODUS", "state": "MI", "street": "3568 NAOMI RD", "postcode": "49126"}}},
{"geometry": {"type": "Point", "coordinates": [-86.371283472, 42.043449589]}, "type": "Feature", "properties": {"collection_times": [{"days": "Mon-Fri", "time": "11:30am"}, {"days": "Sat", "time": "10:30am"}, {"days": "Sun", "time": "Closed"}], "id": "4912600004", "name": "USPS COLLECTION BOX - PO LOBBY", "address": {"city": "SODUS", "state": "MI", "street": "3568 NAOMI RD", "postcode": "49126"}}},
{"geometry": {"type": "Point", "coordinates": [-86.494903064, 42.011276672]}, "type": "Feature", "properties": {"collection_times": [{"days": "Mon-Sat", "time": "3:00pm"}, {"days": "Sun", "time": "Closed"}], "id": "4912700001", "name": "USPS COLLECTION BOX - BLUE BOX", "address": {"city": "STEVENSVILLE", "state": "MI", "street": "5888 CLEVELAND AVE", "postcode": "49127"}}},
{"geometry": {"type": "Point", "coordinates": [-86.4947972428, 42.0154300076]}, "type": "Feature", "properties": {"collection_times": [{"days": "Mon-Sat", "time": "1:00pm"}, {"days": "Sun", "time": "Closed"}], "id": "4912700003", "name": "USPS COLLECTION BOX - BLUE BOX", "address": {"city": "STEVENSVILLE", "state": "MI", "street": "5637 CLEVELAND AVE", "postcode": "49127"}}},
{"geometry": {"type": "Point", "coordinates": [-86.5141452642, 42.0353079913]}, "type": "Feature", "properties": {"collection_times": [{"days": "Mon-Sat", "time": "1:00pm"}, {"days": "Sun", "time": "Closed"}], "id": "4912700006", "name": "USPS COLLECTION BOX - BLUE BOX", "address": {"city": "STEVENSVILLE", "state": "MI", "street": "4559 RED ARROW HWY", "postcode": "49127"}}},
{"geometry": {"type": "Point", "coordinates": [-86.5198015468, 42.0137895975]}, "type": "Feature", "properties": {"collection_times": [{"days": "Mon-Sat", "time": "1:00pm"}, {"days": "Sun", "time": "Closed"}], "id": "4912700007", "name": "USPS COLLECTION BOX - BLUE BOX", "address": {"city": "STEVENSVILLE", "state": "MI", "street": "5732 SAINT JOSEPH AVE", "postcode": "49127"}}},
{"geometry": {"type": "Point", "coordinates": [-86.494903064, 42.011276672]}, "type": "Feature", "properties": {"collection_times": [{"days": "Mon-Sat", "time": "3:00pm"}, {"days": "Sun", "time": "Closed"}], "id": "4912700010", "name": "USPS COLLECTION BOX - PO LOBBY", "address": {"city": "STEVENSVILLE", "state": "MI", "street": "5888 CLEVELAND AVE", "postcode": "49127"}}},
{"geometry": {"type": "Point", "coordinates": [-86.5138747311, 42.0434616884]}, "type": "Feature", "properties": {"collection_times": [{"days": "Mon-Sat", "time": "1:00pm"}, {"days": "Sun", "time": "Closed"}], "id": "4912700013", "name": "USPS COLLECTION BOX - BLUE BOX", "address": {"city": "STEVENSVILLE", "state": "MI", "street": "2485 W GLENLORD RD", "postcode": "49127"}}},
{"geometry": {"type": "Point", "coordinates": [-86.61043467, 41.803033412]}, "type": "Feature", "properties": {"collection_times": [{"days": "Mon-Fri", "time": "2:25pm"}, {"days": "Sat", "time": "12:00pm"}, {"days": "Sun", "time": "Closed"}], "id": "4912800005", "name": "USPS COLLECTION BOX - PO LOBBY", "address": {"city": "THREE OAKS", "state": "MI", "street": "201 N ELM ST", "postcode": "49128"}}},
{"geometry": {"type": "Point", "coordinates": [-86.695404039, 41.825297878]}, "type": "Feature", "properties": {"collection_times": [{"days": "Mon-Fri", "time": "2:05pm"}, {"days": "Sat", "time": "11:00am"}, {"days": "Sun", "time": "Closed"}], "id": "4912900001", "name": "USPS COLLECTION BOX - BLUE BOX", "address": {"city": "UNION PIER", "state": "MI", "street": "16201 RED ARROW HWY", "postcode": "49129"}}},
{"geometry": {"type": "Point", "coordinates": [-86.695404039, 41.825297878]}, "type": "Feature", "properties": {"collection_times": [{"days": "Mon-Fri", "time": "2:05pm"}, {"days": "Sat", "time": "11:00am"}, {"days": "Sun", "time": "Closed"}], "id": "4912900002", "name": "USPS COLLECTION BOX - PO LOBBY", "address": {"city": "UNION PIER", "state": "MI", "street": "16201 RED ARROW HWY", "postcode": "49129"}}}
]}
