{"type": "FeatureCollection", "features": [
{"geometry": {"type": "Point", "coordinates": [-84.3200147692, 42.2765837915]}, "type": "Feature", "properties": {"collection_times": [{"days": "Mon-Fri", "time": "1:00pm"}, {"days": "Sat", "time": "4:00pm"}, {"days": "Sun", "time": "Closed"}], "id": "4920100003", "name": "USPS COLLECTION BOX - BLUE BOX", "address": {"city": "JACKSON", "state": "MI", "street": "5511 ANN ARBOR RD", "postcode": "49201"}}},
{"geometry": {"type": "Point", "coordinates": [-84.4295394897, 42.2437256397]}, "type": "Feature", "properties": {"collection_times": [{"days": "Mon-Sat", "time": "4:30pm"}, {"days": "Sun", "time": "Closed"}], "id": "4920100013", "name": "USPS COLLECTION BOX - BLUE BOX", "address": {"city": "JACKSON", "state": "MI", "street": "1301 W FRANKLIN ST", "postcode": "49201"}}},
{"geometry": {"type": "Point", "coordinates": [-84.4089070819, 42.245482309]}, "type": "Feature", "properties": {"collection_times": [{"days": "Mon-Sat", "time": "10:00am"}, {"days": "Sun", "time": "Closed"}], "id": "4920100023", "name": "USPS COLLECTION BOX - BLUE BOX", "address": {"city": "JACKSON", "state": "MI", "street": "312 S JACKSON ST", "postcode": "49201"}}},
{"geometry": {"type": "Point", "coordinates": [-84.4089439225, 42.2533193442]}, "type": "Feature", "properties": {"collection_times": [{"days": "Mon-Sat", "time": "10:00am"}, {"days": "Sun", "time": "Closed"}], "id": "4920100032", "name": "USPS COLLECTION BOX - BLUE BOX", "address": {"city": "JACKSON", "state": "MI", "street": "540 N JACKSON ST", "postcode": "49201"}}},
{"geometry": {"type": "Point", "coordinates": [-84.4140019912, 42.2273206596]}, "type": "Feature", "properties": {"collection_times": [{"days": "Mon-Sat", "time": "4:30pm"}, {"days": "Sun", "time": "Closed"}], "id": "4920100036", "name": "USPS COLLECTION BOX - BLUE BOX", "address": {"city": "JACKSON", "state": "MI", "street": "303 W PROSPECT ST", "postcode": "49201"}}},
{"geometry": {"type": "Point", "coordinates": [-84.3953067816, 42.250641635]}, "type": "Feature", "properties": {"collection_times": [{"days": "Mon-Fri", "time": "5:00pm"}, {"days": "Sat", "time": "4:45pm"}, {"days": "Sun", "time": "Closed"}], "id": "4920100044", "name": "USPS COLLECTION BOX - EXPRESS", "address": {"city": "JACKSON", "state": "MI", "street": "2777 AIRPORT RD", "postcode": "49201"}}},
{"geometry": {"type": "Point", "coordinates": [-84.2949850851, 42.1787430379]}, "type": "Feature", "properties": {"collection_times": [{"days": "Mon-Fri", "time": "1:00pm"}, {"days": "Sat", "time": "11:00am"}, {"days": "Sun", "time": "Closed"}], "id": "4920100052", "name": "USPS COLLECTION BOX - BLUE BOX", "address": {"city": "JACKSON", "state": "MI", "street": "1300 GALLERY PL", "postcode": "49201"}}},
{"geometry": {"type": "Point", "coordinates": [-84.2708446974, 42.2433291215]}, "type": "Feature", "properties": {"collection_times": [{"days": "Mon-Fri", "time": "5:00pm"}, {"days": "Sat", "time": "4:45pm"}, {"days": "Sun", "time": "Closed"}], "id": "4920100053", "name": "USPS COLLECTION BOX - BLUE BOX", "address": {"city": "JACKSON", "state": "MI", "street": "110 ELM ST", "postcode": "49201"}}},
{"geometry": {"type": "Point", "coordinates": [-84.4235780727, 42.2328946249]}, "type": "Feature", "properties": {"collection_times": [{"days": "Mon-Fri", "time": "4:30pm"}, {"days": "Sat", "time": "2:00pm"}, {"days": "Sun", "time": "Closed"}], "id": "4920100060", "name": "USPS COLLECTION BOX - BLUE BOX", "address": {"city": "JACKSON", "state": "MI", "street": "820 W HIGH ST", "postcode": "49201"}}},
{"geometry": {"type": "Point", "coordinates": [-84.4296841398, 42.2676204737]}, "type": "Feature", "properties": {"collection_times": [{"days": "Mon-Sat", "time": "5:00pm"}, {"days": "Sun", "time": "Closed"}], "id": "4920100068", "name": "USPS COLLECTION BOX - BLUE BOX", "address": {"city": "JACKSON", "state": "MI", "street": "1104 JACKSON XING", "postcode": "49201"}}},
{"geometry": {"type": "Point", "coordinates": [-84.3660736422, 42.2553425571]}, "type": "Feature", "properties": {"collection_times": [{"days": "Mon-Fri", "time": "5:00pm"}, {"days": "Sat", "time": "4:30pm"}, {"days": "Sun", "time": "Closed"}], "id": "4920100071", "name": "USPS COLLECTION BOX - BLUE BOX", "address": {"city": "JACKSON", "state": "MI", "street": "3031 E MICHIGAN AVE", "postcode": "49201"}}},
{"geometry": {"type": "Point", "coordinates": [-84.3636275876, 42.2560833008]}, "type": "Feature", "properties": {"collection_times": [{"days": "Mon-Sat", "time": "10:00am"}, {"days": "Sun", "time": "Closed"}], "id": "4920100072", "name": "USPS COLLECTION BOX - BLUE BOX", "address": {"city": "JACKSON", "state": "MI", "street": "3152 E MICHIGAN AVE", "postcode": "49201"}}},
{"geometry": {"type": "Point", "coordinates": [-84.3939306243, 42.2526641513]}, "type": "Feature", "properties": {"collection_times": [{"days": "Mon-Sat", "time": "10:00am"}, {"days": "Sun", "time": "Closed"}], "id": "4920100086", "name": "USPS COLLECTION BOX - BLUE BOX", "address": {"city": "JACKSON", "state": "MI", "street": "205 N EAST AVE", "postcode": "49201"}}},
{"geometry": {"type": "Point", "coordinates": [-84.3891344795, 42.2257331972]}, "type": "Feature", "properties": {"collection_times": [{"days": "Mon-Fri", "time": "1:00pm"}, {"days": "Sat", "time": "12:00pm"}, {"days": "Sun", "time": "Closed"}], "id": "4920100099", "name": "USPS COLLECTION BOX - BLUE BOX", "address": {"city": "JACKSON", "state": "MI", "street": "2000 BROOKLYN RD", "postcode": "49201"}}},
{"geometry": {"type": "Point", "coordinates": [-84.4433476538, 42.2764716402]}, "type": "Feature", "properties": {"collection_times": [{"days": "Mon-Sat", "time": "1:00pm"}, {"days": "Sun", "time": "Closed"}], "id": "4920100104", "name": "USPS COLLECTION BOX - BLUE BOX", "address": {"city": "JACKSON", "state": "MI", "street": "2251 SPRINGPORT RD", "postcode": "49201"}}},
{"geometry": {"type": "Point", "coordinates": [-84.4165648624, 42.2679824995]}, "type": "Feature", "properties": {"collection_times": [{"days": "Mon-Fri", "time": "5:00pm"}, {"days": "Sat", "time": "4:00pm"}, {"days": "Sun", "time": "Closed"}], "id": "4920100105", "name": "USPS COLLECTION BOX - BLUE BOX", "address": {"city": "JACKSON", "state": "MI", "street": "509 SPARKS ST", "postcode": "49201"}}},
{"geometry": {"type": "Point", "coordinates": [-84.4087870355, 42.2526313089]}, "type": "Feature", "properties": {"collection_times": [{"days": "Mon-Sat", "time": "10:00am"}, {"days": "Sun", "time": "Closed"}], "id": "4920100106", "name": "USPS COLLECTION BOX - BLUE BOX", "address": {"city": "JACKSON", "state": "MI", "street": "511 S JACKSON ST", "postcode": "49201"}}},
{"geometry": {"type": "Point", "coordinates": [-84.414194537, 42.2456329508]}, "type": "Feature", "properties": {"collection_times": [{"days": "Mon-Sat", "time": "5:00pm"}, {"days": "Sun", "time": "Closed"}], "id": "4920100113", "name": "USPS COLLECTION BOX - BLUE BOX", "address": {"city": "JACKSON", "state": "MI", "street": "339 W WASHINGTON AVE", "postcode": "49201"}}},
{"geometry": {"type": "Point", "coordinates": [-84.4358043516, 42.2392222615]}, "type": "Feature", "properties": {"collection_times": [{"days": "Mon-Sat", "time": "5:00pm"}, {"days": "Sun", "time": "Closed"}], "id": "4920100117", "name": "USPS COLLECTION BOX - BLUE BOX", "address": {"city": "JACKSON", "state": "MI", "street": "1821 SPRING ARBOR RD", "postcode": "49201"}}},
{"geometry": {"type": "Point", "coordinates": [-84.4529297505, 42.2747418191]}, "type": "Feature", "properties": {"collection_times": [{"days": "Mon-Fri", "time": "5:00pm"}, {"days": "Sat", "time": "4:45pm"}, {"days": "Sun", "time": "Closed"}], "id": "4920100128", "name": "USPS COLLECTION BOX - BLUE BOX", "address": {"city": "JACKSON", "state": "MI", "street": "2777 AIRPORT RD", "postcode": "49201"}}},
{"geometry": {"type": "Point", "coordinates": [-84.4332340322, 42.2400155709]}, "type": "Feature", "properties": {"collection_times": [{"days": "Mon-Sat", "time": "5:00pm"}, {"days": "Sun", "time": "Closed"}], "id": "4920100131", "name": "USPS COLLECTION BOX - BLUE BOX", "address": {"city": "JACKSON", "state": "MI", "street": "900 S BROWN ST", "postcode": "49201"}}},
{"geometry": {"type": "Point", "coordinates": [-84.408917948, 42.2474269298]}, "type": "Feature", "properties": {"collection_times": [{"days": "Mon-Sat", "time": "10:00am"}, {"days": "Sun", "time": "Closed"}], "id": "4920100145", "name": "USPS COLLECTION BOX - BLUE BOX", "address": {"city": "JACKSON", "state": "MI", "street": "100 S JACKSON ST", "postcode": "49201"}}},
{"geometry": {"type": "Point", "coordinates": [-84.393541379, 42.190801364]}, "type": "Feature", "properties": {"collection_times": [{"days": "Mon-Fri", "time": "1:00pm"}, {"days": "Sat", "time": "12:00pm"}, {"days": "Sun", "time": "Closed"}], "id": "4920100147", "name": "USPS COLLECTION BOX - BLUE BOX", "address": {"city": "JACKSON", "state": "MI", "street": "801 HAGUE AVE", "postcode": "49201"}}},
{"geometry": {"type": "Point", "coordinates": [-84.4377552922, 42.201005626]}, "type": "Feature", "properties": {"collection_times": [{"days": "Mon-Fri", "time": "1:00pm"}, {"days": "Sat", "time": "5:00pm"}, {"days": "Sun", "time": "Closed"}], "id": "4920100151", "name": "USPS COLLECTION BOX - BLUE BOX", "address": {"city": "JACKSON", "state": "MI", "street": "1931 HORTON RD", "postcode": "49201"}}},
{"geometry": {"type": "Point", "coordinates": [-84.4302678822, 42.2620464227]}, "type": "Feature", "properties": {"collection_times": [{"days": "Mon-Fri", "time": "5:00pm"}, {"days": "Sat", "time": "4:30pm"}, {"days": "Sun", "time": "Closed"}], "id": "4920100160", "name": "USPS COLLECTION BOX - BLUE BOX", "address": {"city": "JACKSON", "state": "MI", "street": "1100 W ARGYLE AVE", "postcode": "49201"}}},
{"geometry": {"type": "Point", "coordinates": [-84.4033664345, 42.248516246]}, "type": "Feature", "properties": {"collection_times": [{"days": "Mon-Sat", "time": "10:00am"}, {"days": "Sun", "time": "Closed"}], "id": "4920100161", "name": "USPS COLLECTION BOX - BLUE BOX", "address": {"city": "JACKSON", "state": "MI", "street": "301 E LOUIS GLICK HWY", "postcode": "49201"}}},
{"geometry": {"type": "Point", "coordinates": [-84.3844323367, 42.2705683507]}, "type": "Feature", "properties": {"collection_times": [{"days": "Mon-Sat", "time": "5:00pm"}, {"days": "Sun", "time": "Closed"}], "id": "4920100162", "name": "USPS COLLECTION BOX - BLUE BOX", "address": {"city": "JACKSON", "state": "MI", "street": "1500 N ELM ST", "postcode": "49201"}}},
{"geometry": {"type": "Point", "coordinates": [-84.3648696241, 42.2404707731]}, "type": "Feature", "properties": {"collection_times": [{"days": "Mon-Sat", "time": "10:00am"}, {"days": "Sun", "time": "Closed"}], "id": "4920100165", "name": "USPS COLLECTION BOX - BLUE BOX", "address": {"city": "JACKSON", "state": "MI", "street": "3101 PAGE AVE", "postcode": "49201"}}},
{"geometry": {"type": "Point", "coordinates": [-84.4063397621, 42.2474520419]}, "type": "Feature", "properties": {"collection_times": [{"days": "Mon-Sat", "time": "5:00pm"}, {"days": "Sun", "time": "Closed"}], "id": "4920100172", "name": "USPS COLLECTION BOX - BLUE BOX", "address": {"city": "JACKSON", "state": "MI", "street": "113 W MICHIGAN AVE", "postcode": "49201"}}},
{"geometry": {"type": "Point", "coordinates": [-84.4066113285, 42.2475068214]}, "type": "Feature", "properties": {"collection_times": [{"days": "Mon-Sat", "time": "10:00am"}, {"days": "Sun", "time": "Closed"}], "id": "4920100176", "name": "USPS COLLECTION BOX - BLUE BOX", "address": {"city": "JACKSON", "state": "MI", "street": "120 W MICHIGAN AVE", "postcode": "49201"}}},
{"geometry": {"type": "Point", "coordinates": [-84.4234841709, 42.2631606188]}, "type": "Feature", "properties": {"collection_times": [{"days": "Mon-Sat", "time": "10:00am"}, {"days": "Sun", "time": "Closed"}], "id": "4920100177", "name": "USPS COLLECTION BOX - BLUE BOX", "address": {"city": "JACKSON", "state": "MI", "street": "1200 N WEST", "postcode": "49201"}}},
{"geometry": {"type": "Point", "coordinates": [-84.4608705164, 42.2332630733]}, "type": "Feature", "properties": {"collection_times": [{"days": "Mon-Fri", "time": "1:00pm"}, {"days": "Sat", "time": "2:00pm"}, {"days": "Sun", "time": "Closed"}], "id": "4920100181", "name": "USPS COLLECTION BOX - BLUE BOX", "address": {"city": "JACKSON", "state": "MI", "street": "3634 MCCAIN RD", "postcode": "49201"}}},
{"geometry": {"type": "Point", "coordinates": [-84.4354455536, 42.2474869537]}, "type": "Feature", "properties": {"collection_times": [{"days": "Mon-Fri", "time": "4:30pm"}, {"days": "Sat", "time": "5:00pm"}, {"days": "Sun", "time": "Closed"}], "id": "4920100189", "name": "USPS COLLECTION BOX - BLUE BOX", "address": {"city": "JACKSON", "state": "MI", "street": "1850 W MICHIGAN AVE", "postcode": "49201"}}},
{"geometry": {"type": "Point", "coordinates": [-84.4037252836, 42.2455893911]}, "type": "Feature", "properties": {"collection_times": [{"days": "Mon-Sat", "time": "10:00am"}, {"days": "Sun", "time": "Closed"}], "id": "4920100191", "name": "USPS COLLECTION BOX - BLUE BOX", "address": {"city": "JACKSON", "state": "MI", "street": "209 E WASHINGTON AVE", "postcode": "49201"}}},
{"geometry": {"type": "Point", "coordinates": [-84.444317291, 42.2910937216]}, "type": "Feature", "properties": {"collection_times": [{"days": "Mon-Sat", "time": "10:00am"}, {"days": "Sun", "time": "Closed"}], "id": "4920100192", "name": "USPS COLLECTION BOX - BLUE BOX", "address": {"city": "JACKSON", "state": "MI", "street": "3200 HAWTHORN DR", "postcode": "49201"}}},
{"geometry": {"type": "Point", "coordinates": [-84.4393576007, 42.1990655547]}, "type": "Feature", "properties": {"collection_times": [{"days": "Mon-Fri", "time": "1:00pm"}, {"days": "Sat", "time": "5:00pm"}, {"days": "Sun", "time": "Closed"}], "id": "4920100199", "name": "USPS COLLECTION BOX - BLUE BOX", "address": {"city": "JACKSON", "state": "MI", "street": "2141 FERGUSON RD", "postcode": "49201"}}},
{"geometry": {"type": "Point", "coordinates": [-84.3467392218, 41.9838989436]}, "type": "Feature", "properties": {"collection_times": [{"days": "Mon-Fri", "time": "3:45pm"}, {"days": "Sat", "time": "11:00am"}, {"days": "Sun", "time": "Closed"}], "id": "4922000002", "name": "USPS COLLECTION BOX - BLUE BOX", "address": {"city": "ADDISON", "state": "MI", "street": "103 S TALBOT ST", "postcode": "49220"}}},
{"geometry": {"type": "Point", "coordinates": [-84.0354279924, 41.9005375833]}, "type": "Feature", "properties": {"collection_times": [{"days": "Mon-Sat", "time": "4:30pm"}, {"days": "Sun", "time": "Closed"}], "id": "4922100017", "name": "USPS COLLECTION BOX - BLUE BOX", "address": {"city": "ADRIAN", "state": "MI", "street": "216 N MAIN ST", "postcode": "49221"}}},
{"geometry": {"type": "Point", "coordinates": [-84.0431859302, 41.8802637653]}, "type": "Feature", "properties": {"collection_times": [{"days": "Mon-Sat", "time": "4:00pm"}, {"days": "Sun", "time": "Closed"}], "id": "4922100023", "name": "USPS COLLECTION BOX - BLUE BOX", "address": {"city": "ADRIAN", "state": "MI", "street": "1357 S MAIN ST", "postcode": "49221"}}},
{"geometry": {"type": "Point", "coordinates": [-84.0433283055, 41.8801019936]}, "type": "Feature", "properties": {"collection_times": [{"days": "Mon-Sat", "time": "3:30pm"}, {"days": "Sun", "time": "Closed"}], "id": "4922100027", "name": "USPS COLLECTION BOX - BLUE BOX", "address": {"city": "ADRIAN", "state": "MI", "street": "1380 S MAIN ST", "postcode": "49221"}}},
{"geometry": {"type": "Point", "coordinates": [-84.0433193406, 41.8798124689]}, "type": "Feature", "properties": {"collection_times": [{"days": "Mon-Sat", "time": "3:30pm"}, {"days": "Sun", "time": "Closed"}], "id": "4922100029", "name": "USPS COLLECTION BOX - BLUE BOX", "address": {"city": "ADRIAN", "state": "MI", "street": "1416 S MAIN ST", "postcode": "49221"}}},
{"geometry": {"type": "Point", "coordinates": [-84.0303976289, 41.8970100193]}, "type": "Feature", "properties": {"collection_times": [{"days": "Mon-Sat", "time": "5:00pm"}, {"days": "Sun", "time": "Closed"}], "id": "4922100032", "name": "USPS COLLECTION BOX - BLUE BOX", "address": {"city": "ADRIAN", "state": "MI", "street": "413 E MAUMEE ST", "postcode": "49221"}}},
{"geometry": {"type": "Point", "coordinates": [-84.0356150685, 41.8986633058]}, "type": "Feature", "properties": {"collection_times": [{"days": "Mon-Sat", "time": "4:30pm"}, {"days": "Sun", "time": "Closed"}], "id": "4922100037", "name": "USPS COLLECTION BOX - BLUE BOX", "address": {"city": "ADRIAN", "state": "MI", "street": "135 E MAUMEE ST", "postcode": "49221"}}},
{"geometry": {"type": "Point", "coordinates": [-84.0433739423, 41.8998843529]}, "type": "Feature", "properties": {"collection_times": [{"days": "Mon-Sat", "time": "3:30pm"}, {"days": "Sun", "time": "Closed"}], "id": "4922100041", "name": "USPS COLLECTION BOX - BLUE BOX", "address": {"city": "ADRIAN", "state": "MI", "street": "506 W MAUMEE ST", "postcode": "49221"}}},
{"geometry": {"type": "Point", "coordinates": [-84.0676284306, 41.9052986373]}, "type": "Feature", "properties": {"collection_times": [{"days": "Mon-Sat", "time": "3:30pm"}, {"days": "Sun", "time": "Closed"}], "id": "4922100045", "name": "USPS COLLECTION BOX - BLUE BOX", "address": {"city": "ADRIAN", "state": "MI", "street": "1539 W MAUMEE ST", "postcode": "49221"}}},
{"geometry": {"type": "Point", "coordinates": [-84.0488994083, 41.8959340185]}, "type": "Feature", "properties": {"collection_times": [{"days": "Mon-Sat", "time": "3:30pm"}, {"days": "Sun", "time": "Closed"}], "id": "4922100047", "name": "USPS COLLECTION BOX - BLUE BOX", "address": {"city": "ADRIAN", "state": "MI", "street": "804 MICHIGAN AVE", "postcode": "49221"}}},
{"geometry": {"type": "Point", "coordinates": [-84.0488917403, 41.8957227462]}, "type": "Feature", "properties": {"collection_times": [{"days": "Mon-Sat", "time": "3:30pm"}, {"days": "Sun", "time": "Closed"}], "id": "4922100048", "name": "USPS COLLECTION BOX - BLUE BOX", "address": {"city": "ADRIAN", "state": "MI", "street": "805 MICHIGAN AVE", "postcode": "49221"}}},
{"geometry": {"type": "Point", "coordinates": [-84.0298891425, 41.8968092669]}, "type": "Feature", "properties": {"collection_times": [{"days": "Mon-Sat", "time": "4:45pm"}, {"days": "Sun", "time": "Closed"}], "id": "4922100049", "name": "USPS COLLECTION BOX - BLUE BOX", "address": {"city": "ADRIAN", "state": "MI", "street": "114 PARK PL W", "postcode": "49221"}}},
{"geometry": {"type": "Point", "coordinates": [-84.0298891425, 41.8968092669]}, "type": "Feature", "properties": {"collection_times": [{"days": "Mon-Sat", "time": "4:45pm"}, {"days": "Sun", "time": "Closed"}], "id": "4922100050", "name": "USPS COLLECTION BOX - BLUE BOX", "address": {"city": "ADRIAN", "state": "MI", "street": "114 PARK PL W", "postcode": "49221"}}},
{"geometry": {"type": "Point", "coordinates": [-84.0495253007, 41.9127674407]}, "type": "Feature", "properties": {"collection_times": [{"days": "Mon-Sat", "time": "10:00am"}, {"days": "Sun", "time": "Closed"}], "id": "4922100051", "name": "USPS COLLECTION BOX - BLUE BOX", "address": {"city": "ADRIAN", "state": "MI", "street": "818 RIVERSIDE AVE", "postcode": "49221"}}},
{"geometry": {"type": "Point", "coordinates": [-84.0145639281, 41.9052133898]}, "type": "Feature", "properties": {"collection_times": [{"days": "Mon-Sat", "time": "10:00am"}, {"days": "Sun", "time": "Closed"}], "id": "4922100055", "name": "USPS COLLECTION BOX - BLUE BOX", "address": {"city": "ADRIAN", "state": "MI", "street": "1247 E SIENA HEIGHTS DR", "postcode": "49221"}}},
{"geometry": {"type": "Point", "coordinates": [-84.0361350488, 41.9019785515]}, "type": "Feature", "properties": {"collection_times": [{"days": "Mon-Sat", "time": "4:30pm"}, {"days": "Sun", "time": "Closed"}], "id": "4922100062", "name": "USPS COLLECTION BOX - BLUE BOX", "address": {"city": "ADRIAN", "state": "MI", "street": "305 N WINTER ST", "postcode": "49221"}}},
{"geometry": {"type": "Point", "coordinates": [-84.0385208315, 41.883481771]}, "type": "Feature", "properties": {"collection_times": [{"days": "Mon-Sat", "time": "4:00pm"}, {"days": "Sun", "time": "Closed"}], "id": "4922100064", "name": "USPS COLLECTION BOX - BLUE BOX", "address": {"city": "ADRIAN", "state": "MI", "street": "1040 S WINTER ST", "postcode": "49221"}}},
{"geometry": {"type": "Point", "coordinates": [-84.0425818527, 41.8600703979]}, "type": "Feature", "properties": {"collection_times": [{"days": "Mon-Sat", "time": "10:00am"}, {"days": "Sun", "time": "Closed"}], "id": "4922100074", "name": "USPS COLLECTION BOX - BLUE BOX", "address": {"city": "ADRIAN", "state": "MI", "street": "4008 S ADRIAN HWY", "postcode": "49221"}}},
{"geometry": {"type": "Point", "coordinates": [-84.0523599943, 41.8892698571]}, "type": "Feature", "properties": {"collection_times": [{"days": "Mon-Sat", "time": "10:15am"}, {"days": "Sun", "time": "Closed"}], "id": "4922100076", "name": "USPS COLLECTION BOX - BLUE BOX", "address": {"city": "ADRIAN", "state": "MI", "street": "975 W BEECHER ST", "postcode": "49221"}}},
{"geometry": {"type": "Point", "coordinates": [-84.0569544153, 41.8891693888]}, "type": "Feature", "properties": {"collection_times": [{"days": "Mon-Sat", "time": "2:00pm"}, {"days": "Sun", "time": "Closed"}], "id": "4922100077", "name": "USPS COLLECTION BOX - BLUE BOX", "address": {"city": "ADRIAN", "state": "MI", "street": "1157 W BEECHER ST", "postcode": "49221"}}},
{"geometry": {"type": "Point", "coordinates": [-84.0314405372, 41.8750507367]}, "type": "Feature", "properties": {"collection_times": [{"days": "Mon-Sat", "time": "10:00am"}, {"days": "Sun", "time": "Closed"}], "id": "4922100080", "name": "USPS COLLECTION BOX - BLUE BOX", "address": {"city": "ADRIAN", "state": "MI", "street": "1601 E US HIGHWAY 223", "postcode": "49221"}}},
{"geometry": {"type": "Point", "coordinates": [-84.0570073948, 41.8847927852]}, "type": "Feature", "properties": {"collection_times": [{"days": "Mon-Fri", "time": "1:00pm"}, {"days": "Sat", "time": "12:00pm"}, {"days": "Sun", "time": "Closed"}], "id": "4922100084", "name": "USPS COLLECTION BOX - BLUE BOX", "address": {"city": "ADRIAN", "state": "MI", "street": "1801 W US HIGHWAY 223", "postcode": "49221"}}},
{"geometry": {"type": "Point", "coordinates": [-84.7530838705, 42.2469186997]}, "type": "Feature", "properties": {"collection_times": [{"days": "Mon-Fri", "time": "5:00pm"}, {"days": "Sat", "time": "4:30pm"}, {"days": "Sun", "time": "Closed"}], "id": "4922400009", "name": "USPS COLLECTION BOX - BLUE BOX", "address": {"city": "ALBION", "state": "MI", "street": "307 N SUPERIOR ST", "postcode": "49224"}}},
{"geometry": {"type": "Point", "coordinates": [-84.7663401846, 41.9575451016]}, "type": "Feature", "properties": {"collection_times": [{"days": "Mon-Fri", "time": "2:00pm"}, {"days": "Sat", "time": "10:15am"}, {"days": "Sun", "time": "Closed"}], "id": "4922700001", "name": "USPS COLLECTION BOX - BLUE BOX", "address": {"city": "ALLEN", "state": "MI", "street": "200 E CHICAGO RD", "postcode": "49227"}}},
{"geometry": {"type": "Point", "coordinates": [-83.876374657, 41.8361782702]}, "type": "Feature", "properties": {"collection_times": [{"days": "Mon-Sat", "time": "3:00pm"}, {"days": "Sun", "time": "Closed"}], "id": "4922800002", "name": "USPS COLLECTION BOX - BLUE BOX", "address": {"city": "BLISSFIELD", "state": "MI", "street": "628 W ADRIAN ST", "postcode": "49228"}}},
{"geometry": {"type": "Point", "coordinates": [-83.8732585416, 41.8349212693]}, "type": "Feature", "properties": {"collection_times": [{"days": "Mon-Sat", "time": "1:00pm"}, {"days": "Sun", "time": "Closed"}], "id": "4922800003", "name": "USPS COLLECTION BOX - BLUE BOX", "address": {"city": "BLISSFIELD", "state": "MI", "street": "455 HIGH ST", "postcode": "49228"}}},
{"geometry": {"type": "Point", "coordinates": [-83.8637843012, 41.8301723348]}, "type": "Feature", "properties": {"collection_times": [{"days": "Mon-Fri", "time": "4:45pm"}, {"days": "Sat", "time": "3:30pm"}, {"days": "Sun", "time": "Closed"}], "id": "4922800007", "name": "USPS COLLECTION BOX - BLUE BOX", "address": {"city": "BLISSFIELD", "state": "MI", "street": "302 S LANE ST", "postcode": "49228"}}},
{"geometry": {"type": "Point", "coordinates": [-83.8523062522, 41.8288500737]}, "type": "Feature", "properties": {"collection_times": [{"days": "Mon-Sat", "time": "3:00pm"}, {"days": "Sun", "time": "Closed"}], "id": "4922800013", "name": "USPS COLLECTION BOX - BLUE BOX", "address": {"city": "BLISSFIELD", "state": "MI", "street": "505 E ADRIAN ST", "postcode": "49228"}}},
{"geometry": {"type": "Point", "coordinates": [-83.8295481931, 41.986446481]}, "type": "Feature", "properties": {"collection_times": [{"days": "Mon-Fri", "time": "4:00pm"}, {"days": "Sat", "time": "10:30am"}, {"days": "Sun", "time": "Closed"}], "id": "4922900001", "name": "USPS COLLECTION BOX - BLUE BOX", "address": {"city": "BRITTON", "state": "MI", "street": "209 E CHICAGO BLVD", "postcode": "49229"}}},
{"geometry": {"type": "Point", "coordinates": [-84.2479160803, 42.1010815968]}, "type": "Feature", "properties": {"collection_times": [{"days": "Mon-Sat", "time": "1:00pm"}, {"days": "Sun", "time": "Closed"}], "id": "4923000004", "name": "USPS COLLECTION BOX - BLUE BOX", "address": {"city": "BROOKLYN", "state": "MI", "street": "400 S MAIN ST", "postcode": "49230"}}},
{"geometry": {"type": "Point", "coordinates": [-84.2478490426, 42.1085319612]}, "type": "Feature", "properties": {"collection_times": [{"days": "Mon-Fri", "time": "5:00pm"}, {"days": "Sat", "time": "12:00pm"}, {"days": "Sun", "time": "Closed"}], "id": "4923000006", "name": "USPS COLLECTION BOX - BLUE BOX", "address": {"city": "BROOKLYN", "state": "MI", "street": "235 N MAIN ST", "postcode": "49230"}}},
{"geometry": {"type": "Point", "coordinates": [-84.7576244445, 41.751994503]}, "type": "Feature", "properties": {"collection_times": [{"days": "Mon-Fri", "time": "4:00pm"}, {"days": "Sat", "time": "10:30am"}, {"days": "Sun", "time": "Closed"}], "id": "4923200002", "name": "USPS COLLECTION BOX - BLUE BOX", "address": {"city": "CAMDEN", "state": "MI", "street": "130 S MAIN ST", "postcode": "49232"}}},
{"geometry": {"type": "Point", "coordinates": [-84.3284512833, 42.0698784525]}, "type": "Feature", "properties": {"collection_times": [{"days": "Mon-Fri", "time": "1:00pm"}, {"days": "Sat", "time": "12:00pm"}, {"days": "Sun", "time": "Closed"}], "id": "4923300002", "name": "USPS COLLECTION BOX - BLUE BOX", "address": {"city": "CEMENT CITY", "state": "MI", "street": "227 MAIN ST", "postcode": "49233"}}},
{"geometry": {"type": "Point", "coordinates": [-84.3445183167, 42.1205551384]}, "type": "Feature", "properties": {"collection_times": [{"days": "Mon-Fri", "time": "4:15pm"}, {"days": "Sat", "time": "11:00am"}, {"days": "Sun", "time": "Closed"}], "id": "4923400002", "name": "USPS COLLECTION BOX - BLUE BOX", "address": {"city": "CLARK LAKE", "state": "MI", "street": "208 HYDE RD", "postcode": "49234"}}},
{"geometry": {"type": "Point", "coordinates": [-84.3621078168, 42.1168020559]}, "type": "Feature", "properties": {"collection_times": [{"days": "Mon-Fri", "time": "12:30pm"}, {"days": "Sat", "time": "11:00am"}, {"days": "Sun", "time": "Closed"}], "id": "4923400003", "name": "USPS COLLECTION BOX - BLUE BOX", "address": {"city": "CLARK LAKE", "state": "MI", "street": "3101 JEFFERSON RD", "postcode": "49234"}}},
{"geometry": {"type": "Point", "coordinates": [-84.2366557406, 41.8656439882]}, "type": "Feature", "properties": {"collection_times": [{"days": "Mon-Fri", "time": "11:15am"}, {"days": "Sat", "time": "10:00am"}, {"days": "Sun", "time": "Closed"}], "id": "4923500002", "name": "USPS COLLECTION BOX - BLUE BOX", "address": {"city": "CLAYTON", "state": "MI", "street": "3409 STATE ST", "postcode": "49235"}}},
{"geometry": {"type": "Point", "coordinates": [-84.0262914589, 42.0734216353]}, "type": "Feature", "properties": {"collection_times": [{"days": "Mon-Sat", "time": "10:00am"}, {"days": "Sun", "time": "Closed"}], "id": "4923600004", "name": "USPS COLLECTION BOX - BLUE BOX", "address": {"city": "CLINTON", "state": "MI", "street": "1950 W US HIGHWAY 12", "postcode": "49236"}}},
{"geometry": {"type": "Point", "coordinates": [-84.066361558, 42.0715264152]}, "type": "Feature", "properties": {"collection_times": [{"days": "Mon-Sat", "time": "11:00am"}, {"days": "Sun", "time": "Closed"}], "id": "4923600006", "name": "USPS COLLECTION BOX - BLUE BOX", "address": {"city": "CLINTON", "state": "MI", "street": "12919 TIPTON HWY", "postcode": "49236"}}},
{"geometry": {"type": "Point", "coordinates": [-83.9766252902, 42.0719041502]}, "type": "Feature", "properties": {"collection_times": [{"days": "Mon-Sat", "time": "10:00am"}, {"days": "Sun", "time": "Closed"}], "id": "4923600007", "name": "USPS COLLECTION BOX - BLUE BOX", "address": {"city": "CLINTON", "state": "MI", "street": "316 W MICHIGAN AVE", "postcode": "49236"}}},
{"geometry": {"type": "Point", "coordinates": [-83.9683876809, 42.0670206417]}, "type": "Feature", "properties": {"collection_times": [{"days": "Mon-Sat", "time": "11:00am"}, {"days": "Sun", "time": "Closed"}], "id": "4923600009", "name": "USPS COLLECTION BOX - BLUE BOX", "address": {"city": "CLINTON", "state": "MI", "street": "705 TECUMSEH RD", "postcode": "49236"}}},
{"geometry": {"type": "Point", "coordinates": [-83.9710845793, 42.0722294236]}, "type": "Feature", "properties": {"collection_times": [{"days": "Mon-Fri", "time": "4:30pm"}, {"days": "Sat", "time": "12:15pm"}, {"days": "Sun", "time": "Closed"}], "id": "4923600010", "name": "USPS COLLECTION BOX - BLUE BOX", "address": {"city": "CLINTON", "state": "MI", "street": "123 E MICHIGAN AVE", "postcode": "49236"}}},
{"geometry": {"type": "Point", "coordinates": [-84.6454420615, 42.1779797317]}, "type": "Feature", "properties": {"collection_times": [{"days": "Mon-Fri", "time": "4:00pm"}, {"days": "Sat", "time": "11:00am"}, {"days": "Sun", "time": "Closed"}], "id": "4923700001", "name": "USPS COLLECTION BOX - BLUE BOX", "address": {"city": "CONCORD", "state": "MI", "street": "112 HOMER RD", "postcode": "49237"}}},
{"geometry": {"type": "Point", "coordinates": [-83.7819835706, 41.8885513079]}, "type": "Feature", "properties": {"collection_times": [{"days": "Mon-Fri", "time": "12:00pm"}, {"days": "Sat", "time": "10:15am"}, {"days": "Sun", "time": "Closed"}], "id": "4923800001", "name": "USPS COLLECTION BOX - BLUE BOX", "address": {"city": "DEERFIELD", "state": "MI", "street": "123 WILLIAMS ST", "postcode": "49238"}}},
{"geometry": {"type": "Point", "coordinates": [-84.630786202, 41.9201530617]}, "type": "Feature", "properties": {"collection_times": [{"days": "Mon-Fri", "time": "1:00pm"}, {"days": "Sat", "time": "11:00am"}, {"days": "Sun", "time": "Closed"}], "id": "4923900001", "name": "USPS COLLECTION BOX - BLUE BOX", "address": {"city": "FRONTIER", "state": "MI", "street": "2342 E MONTGOMERY RD", "postcode": "49239"}}},
{"geometry": {"type": "Point", "coordinates": [-84.2119979267, 42.2514701103]}, "type": "Feature", "properties": {"collection_times": [{"days": "Mon-Fri", "time": "4:00pm"}, {"days": "Sat", "time": "11:00am"}, {"days": "Sun", "time": "Closed"}], "id": "4924000001", "name": "USPS COLLECTION BOX - BLUE BOX", "address": {"city": "GRASS LAKE", "state": "MI", "street": "221 E MICHIGAN AVE", "postcode": "49240"}}},
{"geometry": {"type": "Point", "coordinates": [-84.1888483017, 42.2544429366]}, "type": "Feature", "properties": {"collection_times": [{"days": "Mon-Fri", "time": "10:00am"}, {"days": "Sat-Sun", "time": "Closed"}], "id": "4924000003", "name": "USPS COLLECTION BOX - BLUE BOX", "address": {"city": "GRASS LAKE", "state": "MI", "street": "12005 E MICHIGAN AVE", "postcode": "49240"}}},
{"geometry": {"type": "Point", "coordinates": [-84.555132288, 42.1018634997]}, "type": "Feature", "properties": {"collection_times": [{"days": "Mon-Fri", "time": "4:45pm"}, {"days": "Sat", "time": "12:00pm"}, {"days": "Sun", "time": "Closed"}], "id": "4924100001", "name": "USPS COLLECTION BOX - BLUE BOX", "address": {"city": "HANOVER", "state": "MI", "street": "175 W MAIN ST", "postcode": "49241"}}},
{"geometry": {"type": "Point", "coordinates": [-84.6307425398, 41.9225355689]}, "type": "Feature", "properties": {"collection_times": [{"days": "Mon-Sat", "time": "5:00pm"}, {"days": "Sun", "time": "Closed"}], "id": "4924200008", "name": "USPS COLLECTION BOX - BLUE BOX", "address": {"city": "HILLSDALE", "state": "MI", "street": "77 NORTH ST", "postcode": "49242"}}},
{"geometry": {"type": "Point", "coordinates": [-84.6516834571, 41.944536239]}, "type": "Feature", "properties": {"collection_times": [{"days": "Mon-Sat", "time": "4:00pm"}, {"days": "Sun", "time": "Closed"}], "id": "4924200009", "name": "USPS COLLECTION BOX - BLUE BOX", "address": {"city": "HILLSDALE", "state": "MI", "street": "3240 W CARLETON RD", "postcode": "49242"}}},
{"geometry": {"type": "Point", "coordinates": [-84.6345148409, 41.9224485066]}, "type": "Feature", "properties": {"collection_times": [{"days": "Mon-Sat", "time": "5:00pm"}, {"days": "Sun", "time": "Closed"}], "id": "4924200011", "name": "USPS COLLECTION BOX - BLUE BOX", "address": {"city": "HILLSDALE", "state": "MI", "street": "77 NORTH ST", "postcode": "49242"}}},
{"geometry": {"type": "Point", "coordinates": [-84.6335831131, 41.9210699193]}, "type": "Feature", "properties": {"collection_times": [{"days": "Mon-Sat", "time": "4:00pm"}, {"days": "Sun", "time": "Closed"}], "id": "4924200019", "name": "USPS COLLECTION BOX - BLUE BOX", "address": {"city": "HILLSDALE", "state": "MI", "street": "22 N MANNING ST", "postcode": "49242"}}},
{"geometry": {"type": "Point", "coordinates": [-84.6414885186, 41.9313288829]}, "type": "Feature", "properties": {"collection_times": [{"days": "Mon-Sat", "time": "4:00pm"}, {"days": "Sun", "time": "Closed"}], "id": "4924200023", "name": "USPS COLLECTION BOX - BLUE BOX", "address": {"city": "HILLSDALE", "state": "MI", "street": "210 W CARLETON RD", "postcode": "49242"}}},
{"geometry": {"type": "Point", "coordinates": [-84.6320866421, 41.92031407]}, "type": "Feature", "properties": {"collection_times": [{"days": "Mon-Sat", "time": "4:00pm"}, {"days": "Sun", "time": "Closed"}], "id": "4924200032", "name": "USPS COLLECTION BOX - BLUE BOX", "address": {"city": "HILLSDALE", "state": "MI", "street": "29 N HOWELL ST", "postcode": "49242"}}},
{"geometry": {"type": "Point", "coordinates": [-84.6317749632, 41.9119752236]}, "type": "Feature", "properties": {"collection_times": [{"days": "Mon-Sat", "time": "4:00pm"}, {"days": "Sun", "time": "Closed"}], "id": "4924200035", "name": "USPS COLLECTION BOX - BLUE BOX", "address": {"city": "HILLSDALE", "state": "MI", "street": "168 S HOWELL ST", "postcode": "49242"}}},
{"geometry": {"type": "Point", "coordinates": [-84.6308532936, 41.931356266]}, "type": "Feature", "properties": {"collection_times": [{"days": "Mon-Sat", "time": "4:00pm"}, {"days": "Sun", "time": "Closed"}], "id": "4924200036", "name": "USPS COLLECTION BOX - BLUE BOX", "address": {"city": "HILLSDALE", "state": "MI", "street": "33 E COLLEGE ST", "postcode": "49242"}}},
{"geometry": {"type": "Point", "coordinates": [-84.6320031555, 41.9177508024]}, "type": "Feature", "properties": {"collection_times": [{"days": "Mon-Sat", "time": "4:00pm"}, {"days": "Sun", "time": "Closed"}], "id": "4924200038", "name": "USPS COLLECTION BOX - BLUE BOX", "address": {"city": "HILLSDALE", "state": "MI", "street": "51 S HOWELL ST", "postcode": "49242"}}},
{"geometry": {"type": "Point", "coordinates": [-84.6415969164, 41.9339072372]}, "type": "Feature", "properties": {"collection_times": [{"days": "Mon-Sat", "time": "4:00pm"}, {"days": "Sun", "time": "Closed"}], "id": "4924200040", "name": "USPS COLLECTION BOX - BLUE BOX", "address": {"city": "HILLSDALE", "state": "MI", "street": "290 W CARLETON RD", "postcode": "49242"}}},
{"geometry": {"type": "Point", "coordinates": [-84.6345148409, 41.9224485066]}, "type": "Feature", "properties": {"collection_times": [{"days": "Mon-Sat", "time": "5:00pm"}, {"days": "Sun", "time": "Closed"}], "id": "4924200041", "name": "USPS COLLECTION BOX - BLUE BOX", "address": {"city": "HILLSDALE", "state": "MI", "street": "77 NORTH ST", "postcode": "49242"}}},
{"geometry": {"type": "Point", "coordinates": [-84.8073260295, 42.1457447257]}, "type": "Feature", "properties": {"collection_times": [{"days": "Mon-Fri", "time": "4:30pm"}, {"days": "Sat", "time": "11:00am"}, {"days": "Sun", "time": "Closed"}], "id": "4924500001", "name": "USPS COLLECTION BOX - BLUE BOX", "address": {"city": "HOMER", "state": "MI", "street": "110 W MAIN ST", "postcode": "49245"}}},
{"geometry": {"type": "Point", "coordinates": [-84.8073260295, 42.1457447257]}, "type": "Feature", "properties": {"collection_times": [{"days": "Mon-Fri", "time": "4:30pm"}, {"days": "Sat", "time": "11:00am"}, {"days": "Sun", "time": "Closed"}], "id": "4924500002", "name": "USPS COLLECTION BOX - BLUE BOX", "address": {"city": "HOMER", "state": "MI", "street": "110 W MAIN ST", "postcode": "49245"}}},
{"geometry": {"type": "Point", "coordinates": [-84.5208049258, 42.1504265963]}, "type": "Feature", "properties": {"collection_times": [{"days": "Mon-Fri", "time": "3:30pm"}, {"days": "Sat", "time": "10:00am"}, {"days": "Sun", "time": "Closed"}], "id": "4924600001", "name": "USPS COLLECTION BOX - BLUE BOX", "address": {"city": "HORTON", "state": "MI", "street": "220 MAIN ST", "postcode": "49246"}}},
{"geometry": {"type": "Point", "coordinates": [-84.5188813445, 42.1510378124]}, "type": "Feature", "properties": {"collection_times": [{"days": "Mon-Fri", "time": "12:00pm"}, {"days": "Sat", "time": "10:00am"}, {"days": "Sun", "time": "Closed"}], "id": "4924600002", "name": "USPS COLLECTION BOX - BLUE BOX", "address": {"city": "HORTON", "state": "MI", "street": "210 N MOSCOW RD", "postcode": "49246"}}},
{"geometry": {"type": "Point", "coordinates": [-84.3569976162, 41.8548107316]}, "type": "Feature", "properties": {"collection_times": [{"days": "Mon-Fri", "time": "5:00pm"}, {"days": "Sat", "time": "12:00pm"}, {"days": "Sun", "time": "Closed"}], "id": "4924700001", "name": "USPS COLLECTION BOX - BLUE BOX", "address": {"city": "HUDSON", "state": "MI", "street": "101 HOWARD ST", "postcode": "49247"}}},
{"geometry": {"type": "Point", "coordinates": [-84.3567465286, 41.856233349]}, "type": "Feature", "properties": {"collection_times": [{"days": "Mon-Fri", "time": "3:00pm"}, {"days": "Sat", "time": "12:00pm"}, {"days": "Sun", "time": "Closed"}], "id": "4924700002", "name": "USPS COLLECTION BOX - BLUE BOX", "address": {"city": "HUDSON", "state": "MI", "street": "325 RAILROAD ST", "postcode": "49247"}}},
{"geometry": {"type": "Point", "coordinates": [-84.0403973946, 41.7889191741]}, "type": "Feature", "properties": {"collection_times": [{"days": "Mon-Fri", "time": "11:45am"}, {"days": "Sat", "time": "10:00am"}, {"days": "Sun", "time": "Closed"}], "id": "4924800002", "name": "USPS COLLECTION BOX - BLUE BOX", "address": {"city": "JASPER", "state": "MI", "street": "8520 S ADRIAN HWY", "postcode": "49248"}}},
{"geometry": {"type": "Point", "coordinates": [-84.4637052636, 42.0220447683]}, "type": "Feature", "properties": {"collection_times": [{"days": "Mon-Fri", "time": "4:00pm"}, {"days": "Sat", "time": "10:30am"}, {"days": "Sun", "time": "Closed"}], "id": "4924900001", "name": "USPS COLLECTION BOX - BLUE BOX", "address": {"city": "JEROME", "state": "MI", "street": "8650 N JEROME RD", "postcode": "49249"}}},
{"geometry": {"type": "Point", "coordinates": [-84.6607818052, 41.9826963013]}, "type": "Feature", "properties": {"collection_times": [{"days": "Mon-Fri", "time": "4:15pm"}, {"days": "Sat", "time": "11:45am"}, {"days": "Sun", "time": "Closed"}], "id": "4925000002", "name": "USPS COLLECTION BOX - BLUE BOX", "address": {"city": "JONESVILLE", "state": "MI", "street": "114 MAUMEE ST", "postcode": "49250"}}},
{"geometry": {"type": "Point", "coordinates": [-84.6655705158, 41.9755644735]}, "type": "Feature", "properties": {"collection_times": [{"days": "Mon-Sat", "time": "11:45am"}, {"days": "Sun", "time": "Closed"}], "id": "4925000003", "name": "USPS COLLECTION BOX - BLUE BOX", "address": {"city": "JONESVILLE", "state": "MI", "street": "702 OLDS ST", "postcode": "49250"}}},
{"geometry": {"type": "Point", "coordinates": [-84.4319730417, 42.4500429767]}, "type": "Feature", "properties": {"collection_times": [{"days": "Mon-Fri", "time": "4:00pm"}, {"days": "Sat", "time": "11:00am"}, {"days": "Sun", "time": "Closed"}], "id": "4925100001", "name": "USPS COLLECTION BOX - BLUE BOX", "address": {"city": "LESLIE", "state": "MI", "street": "170 S MAIN ST", "postcode": "49251"}}},
{"geometry": {"type": "Point", "coordinates": [-84.758372102, 42.0434551541]}, "type": "Feature", "properties": {"collection_times": [{"days": "Mon-Fri", "time": "4:30pm"}, {"days": "Sat", "time": "11:00am"}, {"days": "Sun", "time": "Closed"}], "id": "4925200001", "name": "USPS COLLECTION BOX - BLUE BOX", "address": {"city": "LITCHFIELD", "state": "MI", "street": "111 S CHICAGO", "postcode": "49252"}}},
{"geometry": {"type": "Point", "coordinates": [-84.303032545, 41.9681200765]}, "type": "Feature", "properties": {"collection_times": [{"days": "Mon-Fri", "time": "4:15pm"}, {"days": "Sat", "time": "11:00am"}, {"days": "Sun", "time": "Closed"}], "id": "4925300001", "name": "USPS COLLECTION BOX - BLUE BOX", "address": {"city": "MANITOU BEACH", "state": "MI", "street": "1235 ELM ST", "postcode": "49253"}}},
{"geometry": {"type": "Point", "coordinates": [-84.3085683524, 41.9647255113]}, "type": "Feature", "properties": {"collection_times": [{"days": "Mon-Fri", "time": "12:45pm"}, {"days": "Sat", "time": "12:00pm"}, {"days": "Sun", "time": "Closed"}], "id": "4925300003", "name": "USPS COLLECTION BOX - BLUE BOX", "address": {"city": "MANITOU BEACH", "state": "MI", "street": "851 MANITOU RD", "postcode": "49253"}}},
{"geometry": {"type": "Point", "coordinates": [-84.3261774255, 42.2301105172]}, "type": "Feature", "properties": {"collection_times": [{"days": "Mon-Fri", "time": "5:00pm"}, {"days": "Sat", "time": "11:00am"}, {"days": "Sun", "time": "Closed"}], "id": "4925400001", "name": "USPS COLLECTION BOX - BLUE BOX", "address": {"city": "MICHIGAN CENTER", "state": "MI", "street": "133 BROAD ST", "postcode": "49254"}}},
{"geometry": {"type": "Point", "coordinates": [-84.3284034086, 42.2331673948]}, "type": "Feature", "properties": {"collection_times": [{"days": "Mon-Sat", "time": "1:00pm"}, {"days": "Sun", "time": "Closed"}], "id": "4925400002", "name": "USPS COLLECTION BOX - BLUE BOX", "address": {"city": "MICHIGAN CENTER", "state": "MI", "street": "4646 PAGE AVE", "postcode": "49254"}}},
{"geometry": {"type": "Point", "coordinates": [-84.3263979208, 42.2302128439]}, "type": "Feature", "properties": {"collection_times": [{"days": "Mon-Fri", "time": "5:00pm"}, {"days": "Sat", "time": "11:00am"}, {"days": "Sun", "time": "Closed"}], "id": "4925400003", "name": "USPS COLLECTION BOX - BLUE BOX", "address": {"city": "MICHIGAN CENTER", "state": "MI", "street": "122 BROAD ST", "postcode": "49254"}}},
{"geometry": {"type": "Point", "coordinates": [-84.8040420403, 41.7776429423]}, "type": "Feature", "properties": {"collection_times": [{"days": "Mon-Fri", "time": "12:00pm"}, {"days": "Sat", "time": "10:00am"}, {"days": "Sun", "time": "Closed"}], "id": "4925500001", "name": "USPS COLLECTION BOX - BLUE BOX", "address": {"city": "MONTGOMERY", "state": "MI", "street": "106 W HAKES", "postcode": "49255"}}},
{"geometry": {"type": "Point", "coordinates": [-84.2182139943, 41.7185981889]}, "type": "Feature", "properties": {"collection_times": [{"days": "Mon-Fri", "time": "1:00pm"}, {"days": "Sat", "time": "12:00pm"}, {"days": "Sun", "time": "Closed"}], "id": "4925600005", "name": "USPS COLLECTION BOX - BLUE BOX", "address": {"city": "MORENCI", "state": "MI", "street": "243 BAKER ST", "postcode": "49256"}}},
{"geometry": {"type": "Point", "coordinates": [-84.2041040304, 41.7181866615]}, "type": "Feature", "properties": {"collection_times": [{"days": "Mon-Sat", "time": "10:00am"}, {"days": "Sun", "time": "Closed"}], "id": "4925600006", "name": "USPS COLLECTION BOX - BLUE BOX", "address": {"city": "MORENCI", "state": "MI", "street": "950 E MAIN ST", "postcode": "49256"}}},
{"geometry": {"type": "Point", "coordinates": [-84.6585156631, 42.059455349]}, "type": "Feature", "properties": {"collection_times": [{"days": "Mon-Sat", "time": "10:50am"}, {"days": "Sun", "time": "Closed"}], "id": "4925800001", "name": "USPS COLLECTION BOX - BLUE BOX", "address": {"city": "MOSHERVILLE", "state": "MI", "street": "11200 WINFIELD RD", "postcode": "49258"}}},
{"geometry": {"type": "Point", "coordinates": [-84.2505111348, 42.391491175]}, "type": "Feature", "properties": {"collection_times": [{"days": "Mon-Fri", "time": "4:00pm"}, {"days": "Sat", "time": "10:30am"}, {"days": "Sun", "time": "Closed"}], "id": "4925900001", "name": "USPS COLLECTION BOX - BLUE BOX", "address": {"city": "MUNITH", "state": "MI", "street": "100 W 6TH ST", "postcode": "49259"}}},
{"geometry": {"type": "Point", "coordinates": [-84.4032048587, 42.2465983093]}, "type": "Feature", "properties": {"collection_times": [{"days": "Mon-Fri", "time": "4:00pm"}, {"days": "Sat", "time": "11:45am"}, {"days": "Sun", "time": "Closed"}], "id": "4926100002", "name": "USPS COLLECTION BOX - BLUE BOX", "address": {"city": "NAPOLEON", "state": "MI", "street": "125 AUSTIN RD", "postcode": "49261"}}},
{"geometry": {"type": "Point", "coordinates": [-84.5258655258, 41.9709287821]}, "type": "Feature", "properties": {"collection_times": [{"days": "Mon-Fri", "time": "2:00pm"}, {"days": "Sat", "time": "10:30am"}, {"days": "Sun", "time": "Closed"}], "id": "4926200001", "name": "USPS COLLECTION BOX - BLUE BOX", "address": {"city": "NORTH ADAMS", "state": "MI", "street": "114 W MAIN ST", "postcode": "49262"}}},
{"geometry": {"type": "Point", "coordinates": [-84.1830513794, 42.1582567388]}, "type": "Feature", "properties": {"collection_times": [{"days": "Mon-Fri", "time": "12:00pm"}, {"days": "Sat", "time": "10:45am"}, {"days": "Sun", "time": "Closed"}], "id": "4926300001", "name": "USPS COLLECTION BOX - BLUE BOX", "address": {"city": "NORVELL", "state": "MI", "street": "105 COMMERCIAL ST", "postcode": "49263"}}},
{"geometry": {"type": "Point", "coordinates": [-84.5617436396, 42.443795199]}, "type": "Feature", "properties": {"collection_times": [{"days": "Mon-Fri", "time": "4:00pm"}, {"days": "Sat", "time": "10:00am"}, {"days": "Sun", "time": "Closed"}], "id": "4926400001", "name": "USPS COLLECTION BOX - BLUE BOX", "address": {"city": "ONONDAGA", "state": "MI", "street": "5555 OAK ST", "postcode": "49264"}}},
{"geometry": {"type": "Point", "coordinates": [-84.1893742209, 42.0063598341]}, "type": "Feature", "properties": {"collection_times": [{"days": "Mon-Fri", "time": "4:00pm"}, {"days": "Sat", "time": "10:30am"}, {"days": "Sun", "time": "Closed"}], "id": "4926500002", "name": "USPS COLLECTION BOX - BLUE BOX", "address": {"city": "ONSTED", "state": "MI", "street": "110 E 3RD ST", "postcode": "49265"}}},
{"geometry": {"type": "Point", "coordinates": [-84.1733687295, 42.0093172667]}, "type": "Feature", "properties": {"collection_times": [{"days": "Mon-Fri", "time": "1:15pm"}, {"days": "Sat", "time": "11:00am"}, {"days": "Sun", "time": "Closed"}], "id": "4926500004", "name": "USPS COLLECTION BOX - BLUE BOX", "address": {"city": "ONSTED", "state": "MI", "street": "7991 ONSTED HWY", "postcode": "49265"}}},
{"geometry": {"type": "Point", "coordinates": [-84.1244396077, 42.022989048]}, "type": "Feature", "properties": {"collection_times": [{"days": "Mon-Sat", "time": "11:00am"}, {"days": "Sun", "time": "Closed"}], "id": "4926500005", "name": "USPS COLLECTION BOX - BLUE BOX", "address": {"city": "ONSTED", "state": "MI", "street": "9544 PENTECOST HWY", "postcode": "49265"}}},
{"geometry": {"type": "Point", "coordinates": [-84.139320671, 42.056599487]}, "type": "Feature", "properties": {"collection_times": [{"days": "Mon-Sat", "time": "11:00am"}, {"days": "Sun", "time": "Closed"}], "id": "4926500007", "name": "USPS COLLECTION BOX - BLUE BOX", "address": {"city": "ONSTED", "state": "MI", "street": "7577 US HIGHWAY 12", "postcode": "49265"}}},
{"geometry": {"type": "Point", "coordinates": [-84.5436603323, 41.8869198688]}, "type": "Feature", "properties": {"collection_times": [{"days": "Mon-Fri", "time": "4:00pm"}, {"days": "Sat", "time": "10:30am"}, {"days": "Sun", "time": "Closed"}], "id": "4926600001", "name": "USPS COLLECTION BOX - BLUE BOX", "address": {"city": "OSSEO", "state": "MI", "street": "5500 BEECHER RD", "postcode": "49266"}}},
{"geometry": {"type": "Point", "coordinates": [-83.7481852846, 41.7640364712]}, "type": "Feature", "properties": {"collection_times": [{"days": "Mon-Fri", "time": "4:15pm"}, {"days": "Sat", "time": "11:00am"}, {"days": "Sun", "time": "Closed"}], "id": "4926700001", "name": "USPS COLLECTION BOX - BLUE BOX", "address": {"city": "OTTAWA LAKE", "state": "MI", "street": "8425 BROWN ST", "postcode": "49267"}}},
{"geometry": {"type": "Point", "coordinates": [-83.7233762793, 41.7595944095]}, "type": "Feature", "properties": {"collection_times": [{"days": "Mon-Fri", "time": "10:00am"}, {"days": "Sat-Sun", "time": "Closed"}], "id": "4926700004", "name": "USPS COLLECTION BOX - BLUE BOX", "address": {"city": "OTTAWA LAKE", "state": "MI", "street": "6158 NEW US 223", "postcode": "49267"}}},
{"geometry": {"type": "Point", "coordinates": [-83.7233762796, 41.7595944098]}, "type": "Feature", "properties": {"collection_times": [{"days": "Mon-Fri", "time": "10:00am"}, {"days": "Sat-Sun", "time": "Closed"}], "id": "4926700005", "name": "USPS COLLECTION BOX - BLUE BOX", "address": {"city": "OTTAWA LAKE", "state": "MI", "street": "6055 NEW US 223", "postcode": "49267"}}},
{"geometry": {"type": "Point", "coordinates": [-83.9360721615, 41.863231827]}, "type": "Feature", "properties": {"collection_times": [{"days": "Mon-Fri", "time": "1:00pm"}, {"days": "Sat", "time": "10:30am"}, {"days": "Sun", "time": "Closed"}], "id": "4926800001", "name": "USPS COLLECTION BOX - BLUE BOX", "address": {"city": "PALMYRA", "state": "MI", "street": "6380 PALMYRA RD", "postcode": "49268"}}},
{"geometry": {"type": "Point", "coordinates": [-84.5996280015, 42.2589420042]}, "type": "Feature", "properties": {"collection_times": [{"days": "Mon-Fri", "time": "4:30pm"}, {"days": "Sat", "time": "10:00am"}, {"days": "Sun", "time": "Closed"}], "id": "4926900001", "name": "USPS COLLECTION BOX - BLUE BOX", "address": {"city": "PARMA", "state": "MI", "street": "111 E MAIN ST", "postcode": "49269"}}},
{"geometry": {"type": "Point", "coordinates": [-83.71422362, 41.9015564827]}, "type": "Feature", "properties": {"collection_times": [{"days": "Mon-Fri", "time": "4:30pm"}, {"days": "Sat", "time": "11:00am"}, {"days": "Sun", "time": "Closed"}], "id": "4927000001", "name": "USPS COLLECTION BOX - BLUE BOX", "address": {"city": "PETERSBURG", "state": "MI", "street": "55 PAHL MALL RD", "postcode": "49270"}}},
{"geometry": {"type": "Point", "coordinates": [-84.4765612227, 41.8620688125]}, "type": "Feature", "properties": {"collection_times": [{"days": "Mon-Fri", "time": "4:00pm"}, {"days": "Sat", "time": "11:00am"}, {"days": "Sun", "time": "Closed"}], "id": "4927100001", "name": "USPS COLLECTION BOX - BLUE BOX", "address": {"city": "PITTSFORD", "state": "MI", "street": "4448 S PITTSFORD RD", "postcode": "49271"}}},
{"geometry": {"type": "Point", "coordinates": [-84.3449299406, 42.3956898054]}, "type": "Feature", "properties": {"collection_times": [{"days": "Mon-Fri", "time": "4:00pm"}, {"days": "Sat", "time": "10:30am"}, {"days": "Sun", "time": "Closed"}], "id": "4927200000", "name": "USPS COLLECTION BOX - BLUE BOX", "address": {"city": "PLEASANT LAKE", "state": "MI", "street": "11586 BUNKERHILL RD", "postcode": "49272"}}},
{"geometry": {"type": "Point", "coordinates": [-84.7476856871, 41.8396017385]}, "type": "Feature", "properties": {"collection_times": [{"days": "Mon-Fri", "time": "4:00pm"}, {"days": "Sat", "time": "11:30am"}, {"days": "Sun", "time": "Closed"}], "id": "4927400003", "name": "USPS COLLECTION BOX - BLUE BOX", "address": {"city": "READING", "state": "MI", "street": "111 MICHIGAN ST", "postcode": "49274"}}},
{"geometry": {"type": "Point", "coordinates": [-83.8251036733, 41.8108610663]}, "type": "Feature", "properties": {"collection_times": [{"days": "Mon-Fri", "time": "12:15pm"}, {"days": "Sat", "time": "10:15am"}, {"days": "Sun", "time": "Closed"}], "id": "4927600001", "name": "USPS COLLECTION BOX - BLUE BOX", "address": {"city": "RIGA", "state": "MI", "street": "7512 RIGA HWY", "postcode": "49276"}}},
{"geometry": {"type": "Point", "coordinates": [-84.4601908286, 42.3911796686]}, "type": "Feature", "properties": {"collection_times": [{"days": "Mon-Fri", "time": "4:00pm"}, {"days": "Sat", "time": "10:30am"}, {"days": "Sun", "time": "Closed"}], "id": "4927700001", "name": "USPS COLLECTION BOX - BLUE BOX", "address": {"city": "RIVES JUNCTION", "state": "MI", "street": "3955 RIVES EATON RD", "postcode": "49277"}}},
{"geometry": {"type": "Point", "coordinates": [-84.0996949137, 41.8134572672]}, "type": "Feature", "properties": {"collection_times": [{"days": "Mon-Fri", "time": "11:45am"}, {"days": "Sat", "time": "10:00am"}, {"days": "Sun", "time": "Closed"}], "id": "4927900001", "name": "USPS COLLECTION BOX - BLUE BOX", "address": {"city": "SAND CREEK", "state": "MI", "street": "6300 SAND CREEK HWY", "postcode": "49279"}}},
{"geometry": {"type": "Point", "coordinates": [-84.4092929225, 42.0475022847]}, "type": "Feature", "properties": {"collection_times": [{"days": "Mon-Fri", "time": "3:30pm"}, {"days": "Sat", "time": "11:30am"}, {"days": "Sun", "time": "Closed"}], "id": "4928200001", "name": "USPS COLLECTION BOX - BLUE BOX", "address": {"city": "SOMERSET CENTER", "state": "MI", "street": "12631 E CHICAGO RD", "postcode": "49282"}}},
{"geometry": {"type": "Point", "coordinates": [-84.5538076428, 42.2047407563]}, "type": "Feature", "properties": {"collection_times": [{"days": "Mon-Fri", "time": "4:30pm"}, {"days": "Sat", "time": "10:00am"}, {"days": "Sun", "time": "Closed"}], "id": "4928300003", "name": "USPS COLLECTION BOX - BLUE BOX", "address": {"city": "SPRING ARBOR", "state": "MI", "street": "109 TEFT RD", "postcode": "49283"}}},
{"geometry": {"type": "Point", "coordinates": [-84.6990252749, 42.3790118609]}, "type": "Feature", "properties": {"collection_times": [{"days": "Mon-Fri", "time": "4:15pm"}, {"days": "Sat", "time": "11:15am"}, {"days": "Sun", "time": "Closed"}], "id": "4928400001", "name": "USPS COLLECTION BOX - BLUE BOX", "address": {"city": "SPRINGPORT", "state": "MI", "street": "118 MECHANIC ST", "postcode": "49284"}}},
{"geometry": {"type": "Point", "coordinates": [-84.18019633, 42.4515291187]}, "type": "Feature", "properties": {"collection_times": [{"days": "Mon-Fri", "time": "4:45pm"}, {"days": "Sat", "time": "11:30am"}, {"days": "Sun", "time": "Closed"}], "id": "4928500002", "name": "USPS COLLECTION BOX - BLUE BOX", "address": {"city": "STOCKBRIDGE", "state": "MI", "street": "117 N CLINTON ST", "postcode": "49285"}}},
{"geometry": {"type": "Point", "coordinates": [-84.179951255, 42.4379210529]}, "type": "Feature", "properties": {"collection_times": [{"days": "Mon-Fri", "time": "1:30pm"}, {"days": "Sat-Sun", "time": "Closed"}], "id": "4928500004", "name": "USPS COLLECTION BOX - BLUE BOX", "address": {"city": "STOCKBRIDGE", "state": "MI", "street": "5101 S M 106", "postcode": "49285"}}},
{"geometry": {"type": "Point", "coordinates": [-83.94160711, 42.0040637747]}, "type": "Feature", "properties": {"collection_times": [{"days": "Mon-Sat", "time": "4:45pm"}, {"days": "Sun", "time": "Closed"}], "id": "4928600001", "name": "USPS COLLECTION BOX - BLUE BOX", "address": {"city": "TECUMSEH", "state": "MI", "street": "320 E CHICAGO BLVD", "postcode": "49286"}}},
{"geometry": {"type": "Point", "coordinates": [-83.9451942135, 42.0039966771]}, "type": "Feature", "properties": {"collection_times": [{"days": "Mon-Sat", "time": "2:15pm"}, {"days": "Sun", "time": "Closed"}], "id": "4928600003", "name": "USPS COLLECTION BOX - BLUE BOX", "address": {"city": "TECUMSEH", "state": "MI", "street": "101 E CHICAGO BLVD", "postcode": "49286"}}},
{"geometry": {"type": "Point", "coordinates": [-83.9657820674, 42.0064678947]}, "type": "Feature", "properties": {"collection_times": [{"days": "Mon-Sat", "time": "3:30pm"}, {"days": "Sun", "time": "Closed"}], "id": "4928600004", "name": "USPS COLLECTION BOX - BLUE BOX", "address": {"city": "TECUMSEH", "state": "MI", "street": "1400 W CHICAGO BLVD", "postcode": "49286"}}},
{"geometry": {"type": "Point", "coordinates": [-83.9424477005, 42.0129759073]}, "type": "Feature", "properties": {"collection_times": [{"days": "Mon-Sat", "time": "1:15pm"}, {"days": "Sun", "time": "Closed"}], "id": "4928600007", "name": "USPS COLLECTION BOX - BLUE BOX", "address": {"city": "TECUMSEH", "state": "MI", "street": "602 N EVANS ST", "postcode": "49286"}}},
{"geometry": {"type": "Point", "coordinates": [-83.9984479732, 41.9912665563]}, "type": "Feature", "properties": {"collection_times": [{"days": "Mon-Sat", "time": "1:15pm"}, {"days": "Sun", "time": "Closed"}], "id": "4928600010", "name": "USPS COLLECTION BOX - BLUE BOX", "address": {"city": "TECUMSEH", "state": "MI", "street": "3441 W RUSSELL RD", "postcode": "49286"}}},
{"geometry": {"type": "Point", "coordinates": [-83.9322002429, 42.0039188151]}, "type": "Feature", "properties": {"collection_times": [{"days": "Mon-Sat", "time": "10:30am"}, {"days": "Sun", "time": "Closed"}], "id": "4928600015", "name": "USPS COLLECTION BOX - BLUE BOX", "address": {"city": "TECUMSEH", "state": "MI", "street": "1074 E CHICAGO BLVD", "postcode": "49286"}}},
{"geometry": {"type": "Point", "coordinates": [-83.94160711, 42.0040637747]}, "type": "Feature", "properties": {"collection_times": [{"days": "Mon-Sat", "time": "4:45pm"}, {"days": "Sun", "time": "Closed"}], "id": "4928600018", "name": "USPS COLLECTION BOX - BLUE BOX", "address": {"city": "TECUMSEH", "state": "MI", "street": "320 E CHICAGO BLVD", "postcode": "49286"}}},
{"geometry": {"type": "Point", "coordinates": [-84.0629357807, 42.0168255545]}, "type": "Feature", "properties": {"collection_times": [{"days": "Mon-Fri", "time": "4:00pm"}, {"days": "Sat", "time": "11:00am"}, {"days": "Sun", "time": "Closed"}], "id": "4928700001", "name": "USPS COLLECTION BOX - BLUE BOX", "address": {"city": "TIPTON", "state": "MI", "street": "3936 W MONROE RD", "postcode": "49287"}}},
{"geometry": {"type": "Point", "coordinates": [-84.4189168924, 41.7277204001]}, "type": "Feature", "properties": {"collection_times": [{"days": "Mon-Fri", "time": "2:30pm"}, {"days": "Sat", "time": "11:00am"}, {"days": "Sun", "time": "Closed"}], "id": "4928800001", "name": "USPS COLLECTION BOX - BLUE BOX", "address": {"city": "WALDRON", "state": "MI", "street": "100 S MAIN ST", "postcode": "49288"}}},
{"geometry": {"type": "Point", "coordinates": [-84.030618197, 41.8969772166]}, "type": "Feature", "properties": {"collection_times": [{"days": "Mon-Fri", "time": "1:00pm"}, {"days": "Sat", "time": "10:00am"}, {"days": "Sun", "time": "Closed"}], "id": "4928900001", "name": "USPS COLLECTION BOX - BLUE BOX", "address": {"city": "WESTON", "state": "MI", "street": "4116 WESTON RD", "postcode": "49289"}}}
]}
