{"type": "FeatureCollection", "features": [
{"geometry": {"type": "Point", "coordinates": [-85.4923584538, 42.95706805]}, "type": "Feature", "properties": {"collection_times": [{"days": "Mon-Fri", "time": "5:00pm"}, {"days": "Sat", "time": "12:00pm"}, {"days": "Sun", "time": "Closed"}], "id": "4930100005", "name": "USPS COLLECTION BOX - BLUE BOX", "address": {"city": "ADA", "state": "MI", "street": "7125 HEADLEY ST SE", "postcode": "49301"}}},
{"geometry": {"type": "Point", "coordinates": [-85.4923584538, 42.95706805]}, "type": "Feature", "properties": {"collection_times": [{"days": "Mon-Fri", "time": "5:00pm"}, {"days": "Sat", "time": "12:00pm"}, {"days": "Sun", "time": "Closed"}], "id": "4930100006", "name": "USPS COLLECTION BOX - BLUE BOX", "address": {"city": "ADA", "state": "MI", "street": "7125 HEADLEY ST SE", "postcode": "49301"}}},
{"geometry": {"type": "Point", "coordinates": [-85.5526449232, 42.9631313756]}, "type": "Feature", "properties": {"collection_times": [{"days": "Mon-Sat", "time": "11:00am"}, {"days": "Sun", "time": "Closed"}], "id": "4930100007", "name": "USPS COLLECTION BOX - BLUE BOX", "address": {"city": "ADA", "state": "MI", "street": "4764 FULTON ST E", "postcode": "49301"}}},
{"geometry": {"type": "Point", "coordinates": [-85.4923584538, 42.95706805]}, "type": "Feature", "properties": {"collection_times": [{"days": "Mon-Fri", "time": "5:00pm"}, {"days": "Sat", "time": "12:00pm"}, {"days": "Sun", "time": "Closed"}], "id": "4930100009", "name": "USPS COLLECTION BOX - APC", "address": {"city": "ADA", "state": "MI", "street": "7125 HEADLEY ST SE", "postcode": "49301"}}},
{"geometry": {"type": "Point", "coordinates": [-85.382141096, 42.855626719]}, "type": "Feature", "properties": {"collection_times": [{"days": "Mon-Fri", "time": "4:00pm"}, {"days": "Sat", "time": "11:00am"}, {"days": "Sun", "time": "Closed"}], "id": "4930200001", "name": "USPS COLLECTION BOX - BLUE BOX", "address": {"city": "ALTO", "state": "MI", "street": "11525 KIRBY ST SE", "postcode": "49302"}}},
{"geometry": {"type": "Point", "coordinates": [-85.382141096, 42.855626719]}, "type": "Feature", "properties": {"collection_times": [{"days": "Mon-Fri", "time": "4:00pm"}, {"days": "Sat", "time": "11:00am"}, {"days": "Sun", "time": "Closed"}], "id": "4930200002", "name": "USPS COLLECTION BOX - PO LOBBY", "address": {"city": "ALTO", "state": "MI", "street": "11525 KIRBY ST SE", "postcode": "49302"}}},
{"geometry": {"type": "Point", "coordinates": [-85.4584529793, 42.8416029946]}, "type": "Feature", "properties": {"collection_times": [{"days": "Mon-Fri", "time": "11:30am"}, {"days": "Sat", "time": "11:00am"}, {"days": "Sun", "time": "Closed"}], "id": "4930200003", "name": "USPS COLLECTION BOX - BLUE BOX", "address": {"city": "ALTO", "state": "MI", "street": "6785 WHITNEYVILLE AVE SE", "postcode": "49302"}}},
{"geometry": {"type": "Point", "coordinates": [-85.37058084, 42.8487209675]}, "type": "Feature", "properties": {"collection_times": [{"days": "Mon-Sat", "time": "11:00am"}, {"days": "Sun", "time": "Closed"}], "id": "4930200004", "name": "USPS COLLECTION BOX - BLUE BOX", "address": {"city": "ALTO", "state": "MI", "street": "11990 64TH ST SE", "postcode": "49302"}}},
{"geometry": {"type": "Point", "coordinates": [-85.810821042, 43.278257186]}, "type": "Feature", "properties": {"collection_times": [{"days": "Mon-Fri", "time": "4:30pm"}, {"days": "Sat", "time": "10:00am"}, {"days": "Sun", "time": "Closed"}], "id": "4930300001", "name": "USPS COLLECTION BOX - BLUE BOX", "address": {"city": "BAILEY", "state": "MI", "street": "17586 BAILEY RD", "postcode": "49303"}}},
{"geometry": {"type": "Point", "coordinates": [-85.810821042, 43.278257186]}, "type": "Feature", "properties": {"collection_times": [{"days": "Mon-Fri", "time": "4:30pm"}, {"days": "Sat", "time": "10:00am"}, {"days": "Sun", "time": "Closed"}], "id": "4930300002", "name": "USPS COLLECTION BOX - PO LOBBY", "address": {"city": "BAILEY", "state": "MI", "street": "17586 BAILEY RD", "postcode": "49303"}}},
{"geometry": {"type": "Point", "coordinates": [-85.8512735003, 43.8511034708]}, "type": "Feature", "properties": {"collection_times": [{"days": "Mon-Fri", "time": "12:00pm"}, {"days": "Sat", "time": "11:00am"}, {"days": "Sun", "time": "Closed"}], "id": "4930400001", "name": "USPS COLLECTION BOX - BLUE BOX", "address": {"city": "BALDWIN", "state": "MI", "street": "9559 S M 37", "postcode": "49304"}}},
{"geometry": {"type": "Point", "coordinates": [-85.851828448, 43.89135062]}, "type": "Feature", "properties": {"collection_times": [{"days": "Mon-Fri", "time": "3:45pm"}, {"days": "Sat", "time": "11:00am"}, {"days": "Sun", "time": "Closed"}], "id": "4930400009", "name": "USPS COLLECTION BOX - BLUE BOX", "address": {"city": "BALDWIN", "state": "MI", "street": "513 MICHIGAN AVE", "postcode": "49304"}}},
{"geometry": {"type": "Point", "coordinates": [-85.851828448, 43.89135062]}, "type": "Feature", "properties": {"collection_times": [{"days": "Mon-Fri", "time": "3:45pm"}, {"days": "Sat", "time": "11:00am"}, {"days": "Sun", "time": "Closed"}], "id": "4930400010", "name": "USPS COLLECTION BOX - PO LOBBY", "address": {"city": "BALDWIN", "state": "MI", "street": "513 MICHIGAN AVE", "postcode": "49304"}}},
{"geometry": {"type": "Point", "coordinates": [-85.145383816, 43.750088449]}, "type": "Feature", "properties": {"collection_times": [{"days": "Mon-Fri", "time": "3:40pm"}, {"days": "Sat", "time": "11:00am"}, {"days": "Sun", "time": "Closed"}], "id": "4930500001", "name": "USPS COLLECTION BOX - BLUE BOX", "address": {"city": "BARRYTON", "state": "MI", "street": "151 E NORTHERN AVE", "postcode": "49305"}}},
{"geometry": {"type": "Point", "coordinates": [-85.145383816, 43.750088449]}, "type": "Feature", "properties": {"collection_times": [{"days": "Mon-Fri", "time": "3:40pm"}, {"days": "Sat", "time": "11:00am"}, {"days": "Sun", "time": "Closed"}], "id": "4930500003", "name": "USPS COLLECTION BOX - PO LOBBY", "address": {"city": "BARRYTON", "state": "MI", "street": "151 E NORTHERN AVE", "postcode": "49305"}}},
{"geometry": {"type": "Point", "coordinates": [-85.609283496, 43.075970657]}, "type": "Feature", "properties": {"collection_times": [{"days": "Mon-Fri", "time": "4:45pm"}, {"days": "Sat", "time": "11:30am"}, {"days": "Sun", "time": "Closed"}], "id": "4930600003", "name": "USPS COLLECTION BOX - BLUE BOX", "address": {"city": "BELMONT", "state": "MI", "street": "6220 BELMONT AVE NE", "postcode": "49306"}}},
{"geometry": {"type": "Point", "coordinates": [-85.609283496, 43.075970657]}, "type": "Feature", "properties": {"collection_times": [{"days": "Mon-Fri", "time": "5:00pm"}, {"days": "Sat", "time": "12:00pm"}, {"days": "Sun", "time": "Closed"}], "id": "4930600005", "name": "USPS COLLECTION BOX - PO LOBBY", "address": {"city": "BELMONT", "state": "MI", "street": "6220 BELMONT AVE NE", "postcode": "49306"}}},
{"geometry": {"type": "Point", "coordinates": [-85.483871076, 43.6982802109]}, "type": "Feature", "properties": {"collection_times": [{"days": "Mon-Sat", "time": "2:00pm"}, {"days": "Sun", "time": "Closed"}], "id": "4930700032", "name": "USPS COLLECTION BOX - BLUE BOX", "address": {"city": "BIG RAPIDS", "state": "MI", "street": "101 MAPLE ST", "postcode": "49307"}}},
{"geometry": {"type": "Point", "coordinates": [-85.4836840507, 43.6970560111]}, "type": "Feature", "properties": {"collection_times": [{"days": "Mon-Sat", "time": "1:00pm"}, {"days": "Sun", "time": "Closed"}], "id": "4930700035", "name": "USPS COLLECTION BOX - BLUE BOX", "address": {"city": "BIG RAPIDS", "state": "MI", "street": "110 ELM ST", "postcode": "49307"}}},
{"geometry": {"type": "Point", "coordinates": [-85.4807832994, 43.682388689]}, "type": "Feature", "properties": {"collection_times": [{"days": "Mon-Sat", "time": "10:00am"}, {"days": "Sun", "time": "Closed"}], "id": "4930700045", "name": "USPS COLLECTION BOX - BLUE BOX", "address": {"city": "BIG RAPIDS", "state": "MI", "street": "1321 KNOLLVIEW DR", "postcode": "49307"}}},
{"geometry": {"type": "Point", "coordinates": [-85.4756488078, 43.6999617755]}, "type": "Feature", "properties": {"collection_times": [{"days": "Mon-Sat", "time": "10:00am"}, {"days": "Sun", "time": "Closed"}], "id": "4930700051", "name": "USPS COLLECTION BOX - BLUE BOX", "address": {"city": "BIG RAPIDS", "state": "MI", "street": "9 PARKVIEW VLG", "postcode": "49307"}}},
{"geometry": {"type": "Point", "coordinates": [-85.4838154104, 43.6909554229]}, "type": "Feature", "properties": {"collection_times": [{"days": "Mon-Sat", "time": "2:00pm"}, {"days": "Sun", "time": "Closed"}], "id": "4930700056", "name": "USPS COLLECTION BOX - BLUE BOX", "address": {"city": "BIG RAPIDS", "state": "MI", "street": "842 S STATE ST", "postcode": "49307"}}},
{"geometry": {"type": "Point", "coordinates": [-85.4839966892, 43.6925489534]}, "type": "Feature", "properties": {"collection_times": [{"days": "Mon-Sat", "time": "1:00pm"}, {"days": "Sun", "time": "Closed"}], "id": "4930700058", "name": "USPS COLLECTION BOX - BLUE BOX", "address": {"city": "BIG RAPIDS", "state": "MI", "street": "114 SPRING ST", "postcode": "49307"}}},
{"geometry": {"type": "Point", "coordinates": [-85.4820345429, 43.6998064748]}, "type": "Feature", "properties": {"collection_times": [{"days": "Mon-Sat", "time": "2:00pm"}, {"days": "Sun", "time": "Closed"}], "id": "4930700059", "name": "USPS COLLECTION BOX - BLUE BOX", "address": {"city": "BIG RAPIDS", "state": "MI", "street": "226 N MICHIGAN AVE", "postcode": "49307"}}},
{"geometry": {"type": "Point", "coordinates": [-85.5148600634, 43.687892717]}, "type": "Feature", "properties": {"collection_times": [{"days": "Mon-Sat", "time": "10:00am"}, {"days": "Sun", "time": "Closed"}], "id": "4930700060", "name": "USPS COLLECTION BOX - BLUE BOX", "address": {"city": "BIG RAPIDS", "state": "MI", "street": "21400 PERRY AVE", "postcode": "49307"}}},
{"geometry": {"type": "Point", "coordinates": [-85.4805257013, 43.7006926783]}, "type": "Feature", "properties": {"collection_times": [{"days": "Mon-Sat", "time": "2:00pm"}, {"days": "Sun", "time": "Closed"}], "id": "4930700067", "name": "USPS COLLECTION BOX - BLUE BOX", "address": {"city": "BIG RAPIDS", "state": "MI", "street": "302 N WARREN AVE", "postcode": "49307"}}},
{"geometry": {"type": "Point", "coordinates": [-85.4805257013, 43.7006926783]}, "type": "Feature", "properties": {"collection_times": [{"days": "Mon-Sat", "time": "2:00pm"}, {"days": "Sun", "time": "Closed"}], "id": "4930700068", "name": "USPS COLLECTION BOX - BLUE BOX", "address": {"city": "BIG RAPIDS", "state": "MI", "street": "302 N WARREN AVE", "postcode": "49307"}}},
{"geometry": {"type": "Point", "coordinates": [-85.480355213, 43.698351789]}, "type": "Feature", "properties": {"collection_times": [{"days": "Mon-Fri", "time": "4:00pm"}, {"days": "Sat", "time": "11:45am"}, {"days": "Sun", "time": "Closed"}], "id": "4930700070", "name": "USPS COLLECTION BOX - PO LOBBY", "address": {"city": "BIG RAPIDS", "state": "MI", "street": "301 MAPLE ST", "postcode": "49307"}}},
{"geometry": {"type": "Point", "coordinates": [-85.4710913895, 43.6982385341]}, "type": "Feature", "properties": {"collection_times": [{"days": "Mon-Sat", "time": "11:00am"}, {"days": "Sun", "time": "Closed"}], "id": "4930700072", "name": "USPS COLLECTION BOX - BLUE BOX", "address": {"city": "BIG RAPIDS", "state": "MI", "street": "307 S 3RD AVE", "postcode": "49307"}}},
{"geometry": {"type": "Point", "coordinates": [-85.4834511864, 43.687274862]}, "type": "Feature", "properties": {"collection_times": [{"days": "Mon-Fri", "time": "11:00am"}, {"days": "Sat", "time": "10:30am"}, {"days": "Sun", "time": "Closed"}], "id": "4930700073", "name": "USPS COLLECTION BOX - BLUE BOX", "address": {"city": "BIG RAPIDS", "state": "MI", "street": "1201 S STATE ST", "postcode": "49307"}}},
{"geometry": {"type": "Point", "coordinates": [-85.486600042, 43.6894923315]}, "type": "Feature", "properties": {"collection_times": [{"days": "Mon-Fri", "time": "4:00pm"}, {"days": "Sat", "time": "3:00pm"}, {"days": "Sun", "time": "Closed"}], "id": "4930700075", "name": "USPS COLLECTION BOX - BLUE BOX", "address": {"city": "BIG RAPIDS", "state": "MI", "street": "826 DIVISION ST", "postcode": "49307"}}},
{"geometry": {"type": "Point", "coordinates": [-85.4740284236, 43.6945068632]}, "type": "Feature", "properties": {"collection_times": [{"days": "Mon-Sat", "time": "10:00am"}, {"days": "Sun", "time": "Closed"}], "id": "4930700076", "name": "USPS COLLECTION BOX - BLUE BOX", "address": {"city": "BIG RAPIDS", "state": "MI", "street": "722 LOCUST ST", "postcode": "49307"}}},
{"geometry": {"type": "Point", "coordinates": [-85.4834240499, 43.6485768271]}, "type": "Feature", "properties": {"collection_times": [{"days": "Mon-Sat", "time": "10:00am"}, {"days": "Sun", "time": "Closed"}], "id": "4930700077", "name": "USPS COLLECTION BOX - BLUE BOX", "address": {"city": "BIG RAPIDS", "state": "MI", "street": "11031 NORTHLAND DR", "postcode": "49307"}}},
{"geometry": {"type": "Point", "coordinates": [-85.486572608, 43.689335491]}, "type": "Feature", "properties": {"collection_times": [{"days": "Mon-Fri", "time": "4:00pm"}, {"days": "Sat", "time": "3:00pm"}, {"days": "Sun", "time": "Closed"}], "id": "4930700080", "name": "USPS COLLECTION BOX - PO LOBBY", "address": {"city": "BIG RAPIDS", "state": "MI", "street": "826 DIVISION ST", "postcode": "49307"}}},
{"geometry": {"type": "Point", "coordinates": [-85.860128334, 43.746308298]}, "type": "Feature", "properties": {"collection_times": [{"days": "Mon-Fri", "time": "2:15pm"}, {"days": "Sat", "time": "12:00pm"}, {"days": "Sun", "time": "Closed"}], "id": "4930900001", "name": "USPS COLLECTION BOX - BLUE BOX", "address": {"city": "BITELY", "state": "MI", "street": "10647 N BINGHAM AVE", "postcode": "49309"}}},
{"geometry": {"type": "Point", "coordinates": [-85.9988636447, 43.7135485387]}, "type": "Feature", "properties": {"collection_times": [{"days": "Mon-Sat", "time": "12:00pm"}, {"days": "Sun", "time": "Closed"}], "id": "4930900003", "name": "USPS COLLECTION BOX - BLUE BOX", "address": {"city": "BITELY", "state": "MI", "street": "7999 11 MILE RD", "postcode": "49309"}}},
{"geometry": {"type": "Point", "coordinates": [-85.860128334, 43.746308298]}, "type": "Feature", "properties": {"collection_times": [{"days": "Mon-Fri", "time": "2:15pm"}, {"days": "Sat", "time": "12:00pm"}, {"days": "Sun", "time": "Closed"}], "id": "4930900004", "name": "USPS COLLECTION BOX - PO LOBBY", "address": {"city": "BITELY", "state": "MI", "street": "10647 N BINGHAM AVE", "postcode": "49309"}}},
{"geometry": {"type": "Point", "coordinates": [-85.079619563, 43.519976987]}, "type": "Feature", "properties": {"collection_times": [{"days": "Mon-Fri", "time": "2:40pm"}, {"days": "Sat", "time": "10:00am"}, {"days": "Sun", "time": "Closed"}], "id": "4931000001", "name": "USPS COLLECTION BOX - BLUE BOX", "address": {"city": "BLANCHARD", "state": "MI", "street": "420 MAIN ST", "postcode": "49310"}}},
{"geometry": {"type": "Point", "coordinates": [-85.079619563, 43.519976987]}, "type": "Feature", "properties": {"collection_times": [{"days": "Mon-Fri", "time": "2:40pm"}, {"days": "Sat", "time": "10:00am"}, {"days": "Sun", "time": "Closed"}], "id": "4931000002", "name": "USPS COLLECTION BOX - PO LOBBY", "address": {"city": "BLANCHARD", "state": "MI", "street": "420 MAIN ST", "postcode": "49310"}}},
{"geometry": {"type": "Point", "coordinates": [-85.642996836, 42.63019783]}, "type": "Feature", "properties": {"collection_times": [{"days": "Mon-Fri", "time": "4:30pm"}, {"days": "Sat", "time": "11:00am"}, {"days": "Sun", "time": "Closed"}], "id": "4931100001", "name": "USPS COLLECTION BOX - BLUE BOX", "address": {"city": "BRADLEY", "state": "MI", "street": "2910 10TH ST", "postcode": "49311"}}},
{"geometry": {"type": "Point", "coordinates": [-85.642996836, 42.63019783]}, "type": "Feature", "properties": {"collection_times": [{"days": "Mon-Fri", "time": "4:15pm"}, {"days": "Sat", "time": "11:00am"}, {"days": "Sun", "time": "Closed"}], "id": "4931100002", "name": "USPS COLLECTION BOX - PO LOBBY", "address": {"city": "BRADLEY", "state": "MI", "street": "2910 10TH ST", "postcode": "49311"}}},
{"geometry": {"type": "Point", "coordinates": [-85.812725786, 43.689358096]}, "type": "Feature", "properties": {"collection_times": [{"days": "Mon-Fri", "time": "1:55pm"}, {"days": "Sat", "time": "9:00am"}, {"days": "Sun", "time": "Closed"}], "id": "4931200001", "name": "USPS COLLECTION BOX - BLUE BOX", "address": {"city": "BROHMAN", "state": "MI", "street": "577 W LINCOLN ST", "postcode": "49312"}}},
{"geometry": {"type": "Point", "coordinates": [-85.812725786, 43.689358096]}, "type": "Feature", "properties": {"collection_times": [{"days": "Mon-Fri", "time": "1:55pm"}, {"days": "Sat", "time": "9:00am"}, {"days": "Sun", "time": "Closed"}], "id": "4931200002", "name": "USPS COLLECTION BOX - PO LOBBY", "address": {"city": "BROHMAN", "state": "MI", "street": "577 W LINCOLN ST", "postcode": "49312"}}},
{"geometry": {"type": "Point", "coordinates": [-85.839399775, 42.731897029]}, "type": "Feature", "properties": {"collection_times": [{"days": "Mon-Fri", "time": "3:45pm"}, {"days": "Sat", "time": "11:00am"}, {"days": "Sun", "time": "Closed"}], "id": "4931400001", "name": "USPS COLLECTION BOX - BLUE BOX", "address": {"city": "BURNIPS", "state": "MI", "street": "4273 30TH ST", "postcode": "49314"}}},
{"geometry": {"type": "Point", "coordinates": [-85.839399775, 42.731897029]}, "type": "Feature", "properties": {"collection_times": [{"days": "Mon-Fri", "time": "3:45pm"}, {"days": "Sat", "time": "11:00am"}, {"days": "Sun", "time": "Closed"}], "id": "4931400002", "name": "USPS COLLECTION BOX - PO LOBBY", "address": {"city": "BURNIPS", "state": "MI", "street": "4273 30TH ST", "postcode": "49314"}}},
{"geometry": {"type": "Point", "coordinates": [-85.7165704612, 42.8122075922]}, "type": "Feature", "properties": {"collection_times": [{"days": "Mon-Sat", "time": "11:00am"}, {"days": "Sun", "time": "Closed"}], "id": "4931500001", "name": "USPS COLLECTION BOX - BLUE BOX", "address": {"city": "BYRON CENTER", "state": "MI", "street": "2241 84TH ST SW", "postcode": "49315"}}},
{"geometry": {"type": "Point", "coordinates": [-85.7229512314, 42.8129441841]}, "type": "Feature", "properties": {"collection_times": [{"days": "Mon-Fri", "time": "4:45pm"}, {"days": "Sat", "time": "12:00pm"}, {"days": "Sun", "time": "Closed"}], "id": "4931500005", "name": "USPS COLLECTION BOX - BLUE BOX", "address": {"city": "BYRON CENTER", "state": "MI", "street": "8350 BYRON CENTER AVE SW", "postcode": "49315"}}},
{"geometry": {"type": "Point", "coordinates": [-85.6940327701, 42.8395310059]}, "type": "Feature", "properties": {"collection_times": [{"days": "Mon-Sat", "time": "11:00am"}, {"days": "Sun", "time": "Closed"}], "id": "4931500006", "name": "USPS COLLECTION BOX - BLUE BOX", "address": {"city": "BYRON CENTER", "state": "MI", "street": "7000 BYRON LAKES DR SW", "postcode": "49315"}}},
{"geometry": {"type": "Point", "coordinates": [-85.6657511913, 42.7827236469]}, "type": "Feature", "properties": {"collection_times": [{"days": "Mon-Sat", "time": "10:00am"}, {"days": "Sun", "time": "Closed"}], "id": "4931500007", "name": "USPS COLLECTION BOX - BLUE BOX", "address": {"city": "BYRON CENTER", "state": "MI", "street": "119 100TH ST SW", "postcode": "49315"}}},
{"geometry": {"type": "Point", "coordinates": [-85.722951231, 42.812944184]}, "type": "Feature", "properties": {"collection_times": [{"days": "Mon-Fri", "time": "4:45pm"}, {"days": "Sat", "time": "12:00pm"}, {"days": "Sun", "time": "Closed"}], "id": "4931500008", "name": "USPS COLLECTION BOX - PO LOBBY", "address": {"city": "BYRON CENTER", "state": "MI", "street": "8350 BYRON CENTER AVE SW", "postcode": "49315"}}},
{"geometry": {"type": "Point", "coordinates": [-85.722951231, 42.812944184]}, "type": "Feature", "properties": {"collection_times": [{"days": "Mon-Fri", "time": "4:45pm"}, {"days": "Sat", "time": "12:00pm"}, {"days": "Sun", "time": "Closed"}], "id": "4931500009", "name": "USPS COLLECTION BOX - BLUE BOX", "address": {"city": "BYRON CENTER", "state": "MI", "street": "8350 BYRON CENTER AVE SW", "postcode": "49315"}}},
{"geometry": {"type": "Point", "coordinates": [-85.6857749943, 42.8264661497]}, "type": "Feature", "properties": {"collection_times": [{"days": "Mon-Sat", "time": "10:30am"}, {"days": "Sun", "time": "Closed"}], "id": "4931500010", "name": "USPS COLLECTION BOX - BLUE BOX", "address": {"city": "BYRON CENTER", "state": "MI", "street": "889 76TH ST SW", "postcode": "49315"}}},
{"geometry": {"type": "Point", "coordinates": [-85.6749186293, 42.8262250617]}, "type": "Feature", "properties": {"collection_times": [{"days": "Mon-Fri", "time": "1:00pm"}, {"days": "Sat", "time": "12:00pm"}, {"days": "Sun", "time": "Closed"}], "id": "4931500011", "name": "USPS COLLECTION BOX - BLUE BOX", "address": {"city": "BYRON CENTER", "state": "MI", "street": "460 76TH ST SW", "postcode": "49315"}}},
{"geometry": {"type": "Point", "coordinates": [-85.6786568563, 42.8264044346]}, "type": "Feature", "properties": {"collection_times": [{"days": "Mon-Fri", "time": "1:00pm"}, {"days": "Sat", "time": "12:00pm"}, {"days": "Sun", "time": "Closed"}], "id": "4931500012", "name": "USPS COLLECTION BOX - BLUE BOX", "address": {"city": "BYRON CENTER", "state": "MI", "street": "553 76TH ST SW", "postcode": "49315"}}},
{"geometry": {"type": "Point", "coordinates": [-85.6811533432, 42.8410566132]}, "type": "Feature", "properties": {"collection_times": [{"days": "Mon-Fri", "time": "1:00pm"}, {"days": "Sat", "time": "12:00pm"}, {"days": "Sun", "time": "Closed"}], "id": "4931500013", "name": "USPS COLLECTION BOX - BLUE BOX", "address": {"city": "BYRON CENTER", "state": "MI", "street": "701 68TH ST SW", "postcode": "49315"}}},
{"geometry": {"type": "Point", "coordinates": [-85.5784878578, 42.8428821507]}, "type": "Feature", "properties": {"collection_times": [{"days": "Mon-Sat", "time": "10:00am"}, {"days": "Sun", "time": "Closed"}], "id": "4931600006", "name": "USPS COLLECTION BOX - BLUE BOX", "address": {"city": "CALEDONIA", "state": "MI", "street": "6720 W MILL RUN SE", "postcode": "49316"}}},
{"geometry": {"type": "Point", "coordinates": [-85.506977686, 42.795146482]}, "type": "Feature", "properties": {"collection_times": [{"days": "Mon-Fri", "time": "5:00pm"}, {"days": "Sat", "time": "11:30am"}, {"days": "Sun", "time": "Closed"}], "id": "4931600009", "name": "USPS COLLECTION BOX - BLUE BOX", "address": {"city": "CALEDONIA", "state": "MI", "street": "9339 CHERRY VALLEY AVE SE", "postcode": "49316"}}},
{"geometry": {"type": "Point", "coordinates": [-85.5997280824, 42.7439874771]}, "type": "Feature", "properties": {"collection_times": [{"days": "Mon-Sat", "time": "10:30am"}, {"days": "Sun", "time": "Closed"}], "id": "4931600010", "name": "USPS COLLECTION BOX - BLUE BOX", "address": {"city": "CALEDONIA", "state": "MI", "street": "4474 KALAMAZOO DR", "postcode": "49316"}}},
{"geometry": {"type": "Point", "coordinates": [-85.506977686, 42.795146482]}, "type": "Feature", "properties": {"collection_times": [{"days": "Mon-Fri", "time": "5:00pm"}, {"days": "Sat", "time": "11:00am"}, {"days": "Sun", "time": "Closed"}], "id": "4931600011", "name": "USPS COLLECTION BOX - PO LOBBY", "address": {"city": "CALEDONIA", "state": "MI", "street": "9339 CHERRY VALLEY AVE SE", "postcode": "49316"}}},
{"geometry": {"type": "Point", "coordinates": [-85.62706, 42.83307]}, "type": "Feature", "properties": {"collection_times": [{"days": "Mon-Fri", "time": "12:00pm"}, {"days": "Sat", "time": "11:30am"}, {"days": "Sun", "time": "Closed"}], "id": "4931600012", "name": "USPS COLLECTION BOX - BLUE BOX", "address": {"city": "CALEDONIA", "state": "MI", "street": "1499 CRYSTAL SPRINGS BLVD SE", "postcode": "49316"}}},
{"geometry": {"type": "Point", "coordinates": [-85.533311214, 42.8261587185]}, "type": "Feature", "properties": {"collection_times": [{"days": "Mon-Sat", "time": "10:30am"}, {"days": "Sun", "time": "Closed"}], "id": "4931600013", "name": "USPS COLLECTION BOX - BLUE BOX", "address": {"city": "CALEDONIA", "state": "MI", "street": "5401 76TH ST SE", "postcode": "49316"}}},
{"geometry": {"type": "Point", "coordinates": [-85.622948981, 42.965997236]}, "type": "Feature", "properties": {"collection_times": [{"days": "Mon-Fri", "time": "12:00pm"}, {"days": "Sat", "time": "10:00am"}, {"days": "Sun", "time": "Closed"}], "id": "4931700001", "name": "USPS COLLECTION BOX - BLUE BOX", "address": {"city": "CANNONSBURG", "state": "MI", "street": "7825 CANNONSBURG RD NE", "postcode": "49317"}}},
{"geometry": {"type": "Point", "coordinates": [-85.622948981, 42.965997236]}, "type": "Feature", "properties": {"collection_times": [{"days": "Mon-Fri", "time": "12:00pm"}, {"days": "Sat", "time": "10:00am"}, {"days": "Sun", "time": "Closed"}], "id": "4931700003", "name": "USPS COLLECTION BOX - PO LOBBY", "address": {"city": "CANNONSBURG", "state": "MI", "street": "7825 CANNONSBURG RD NE", "postcode": "49317"}}},
{"geometry": {"type": "Point", "coordinates": [-85.790577755, 43.235729921]}, "type": "Feature", "properties": {"collection_times": [{"days": "Mon-Sat", "time": "12:00pm"}, {"days": "Sun", "time": "Closed"}], "id": "4931800001", "name": "USPS COLLECTION BOX - BLUE BOX", "address": {"city": "CASNOVIA", "state": "MI", "street": "87 N MAIN ST", "postcode": "49318"}}},
{"geometry": {"type": "Point", "coordinates": [-85.790577755, 43.235729921]}, "type": "Feature", "properties": {"collection_times": [{"days": "Mon-Sat", "time": "12:00pm"}, {"days": "Sun", "time": "Closed"}], "id": "4931800002", "name": "USPS COLLECTION BOX - PO LOBBY", "address": {"city": "CASNOVIA", "state": "MI", "street": "87 N MAIN ST", "postcode": "49318"}}},
{"geometry": {"type": "Point", "coordinates": [-85.5503193329, 43.2235691238]}, "type": "Feature", "properties": {"collection_times": [{"days": "Mon-Fri", "time": "4:35pm"}, {"days": "Sat", "time": "11:00am"}, {"days": "Sun", "time": "Closed"}], "id": "4931900001", "name": "USPS COLLECTION BOX - BLUE BOX", "address": {"city": "CEDAR SPRINGS", "state": "MI", "street": "36 E CHERRY ST", "postcode": "49319"}}},
{"geometry": {"type": "Point", "coordinates": [-85.5666306327, 43.2199263767]}, "type": "Feature", "properties": {"collection_times": [{"days": "Mon-Sat", "time": "9:30am"}, {"days": "Sun", "time": "Closed"}], "id": "4931900005", "name": "USPS COLLECTION BOX - BLUE BOX", "address": {"city": "CEDAR SPRINGS", "state": "MI", "street": "4175 17 MILE RD NE", "postcode": "49319"}}},
{"geometry": {"type": "Point", "coordinates": [-85.5503193329, 43.2235691238]}, "type": "Feature", "properties": {"collection_times": [{"days": "Mon-Fri", "time": "4:35pm"}, {"days": "Sat", "time": "11:00am"}, {"days": "Sun", "time": "Closed"}], "id": "4931900006", "name": "USPS COLLECTION BOX - PO LOBBY", "address": {"city": "CEDAR SPRINGS", "state": "MI", "street": "36 E CHERRY ST", "postcode": "49319"}}},
{"geometry": {"type": "Point", "coordinates": [-85.302448316, 43.743238962]}, "type": "Feature", "properties": {"collection_times": [{"days": "Mon-Fri", "time": "3:20pm"}, {"days": "Sat", "time": "10:45am"}, {"days": "Sun", "time": "Closed"}], "id": "4932000001", "name": "USPS COLLECTION BOX - BLUE BOX", "address": {"city": "CHIPPEWA LAKE", "state": "MI", "street": "10510 DWIGHT ST", "postcode": "49320"}}},
{"geometry": {"type": "Point", "coordinates": [-85.302448316, 43.743238962]}, "type": "Feature", "properties": {"collection_times": [{"days": "Mon-Fri", "time": "3:20pm"}, {"days": "Sat", "time": "10:45am"}, {"days": "Sun", "time": "Closed"}], "id": "4932000002", "name": "USPS COLLECTION BOX - PO LOBBY", "address": {"city": "CHIPPEWA LAKE", "state": "MI", "street": "10510 DWIGHT ST", "postcode": "49320"}}},
{"geometry": {"type": "Point", "coordinates": [-85.667756037, 43.033114992]}, "type": "Feature", "properties": {"collection_times": [{"days": "Mon-Fri", "time": "5:00pm"}, {"days": "Sat", "time": "11:00am"}, {"days": "Sun", "time": "Closed"}], "id": "4932100004", "name": "USPS COLLECTION BOX - BLUE BOX", "address": {"city": "COMSTOCK PARK", "state": "MI", "street": "3913 LELAND AVE NW", "postcode": "49321"}}},
{"geometry": {"type": "Point", "coordinates": [-85.6654337273, 43.0415516329]}, "type": "Feature", "properties": {"collection_times": [{"days": "Mon-Sat", "time": "10:15am"}, {"days": "Sun", "time": "Closed"}], "id": "4932100008", "name": "USPS COLLECTION BOX - BLUE BOX", "address": {"city": "COMSTOCK PARK", "state": "MI", "street": "4306 ROYAL GLEN DR NE", "postcode": "49321"}}},
{"geometry": {"type": "Point", "coordinates": [-85.6545913336, 43.0489500902]}, "type": "Feature", "properties": {"collection_times": [{"days": "Mon-Sat", "time": "9:15am"}, {"days": "Sun", "time": "Closed"}], "id": "4932100009", "name": "USPS COLLECTION BOX - BLUE BOX", "address": {"city": "COMSTOCK PARK", "state": "MI", "street": "4582 WEST RIVER DR NE", "postcode": "49321"}}},
{"geometry": {"type": "Point", "coordinates": [-85.6879205577, 43.0415510143]}, "type": "Feature", "properties": {"collection_times": [{"days": "Mon-Sat", "time": "9:30am"}, {"days": "Sun", "time": "Closed"}], "id": "4932100010", "name": "USPS COLLECTION BOX - BLUE BOX", "address": {"city": "COMSTOCK PARK", "state": "MI", "street": "650 YORK CREEK DR NW", "postcode": "49321"}}},
{"geometry": {"type": "Point", "coordinates": [-85.6897140437, 43.034028568]}, "type": "Feature", "properties": {"collection_times": [{"days": "Mon-Sat", "time": "9:30am"}, {"days": "Sun", "time": "Closed"}], "id": "4932100011", "name": "USPS COLLECTION BOX - BLUE BOX", "address": {"city": "COMSTOCK PARK", "state": "MI", "street": "3901 ALPINE AVE NW", "postcode": "49321"}}},
{"geometry": {"type": "Point", "coordinates": [-85.6917523099, 43.0473264321]}, "type": "Feature", "properties": {"collection_times": [{"days": "Mon-Sat", "time": "9:30am"}, {"days": "Sun", "time": "Closed"}], "id": "4932100012", "name": "USPS COLLECTION BOX - BLUE BOX", "address": {"city": "COMSTOCK PARK", "state": "MI", "street": "4601 ALDUN RIDGE AVE NW", "postcode": "49321"}}},
{"geometry": {"type": "Point", "coordinates": [-85.6901651598, 43.0586029903]}, "type": "Feature", "properties": {"collection_times": [{"days": "Mon-Sat", "time": "10:00am"}, {"days": "Sun", "time": "Closed"}], "id": "4932100013", "name": "USPS COLLECTION BOX - BLUE BOX", "address": {"city": "COMSTOCK PARK", "state": "MI", "street": "5255 ALPINE AVE NW", "postcode": "49321"}}},
{"geometry": {"type": "Point", "coordinates": [-85.667756037, 43.033114992]}, "type": "Feature", "properties": {"collection_times": [{"days": "Mon-Fri", "time": "5:00pm"}, {"days": "Sat", "time": "11:00am"}, {"days": "Sun", "time": "Closed"}], "id": "4932100014", "name": "USPS COLLECTION BOX - PO LOBBY", "address": {"city": "COMSTOCK PARK", "state": "MI", "street": "3913 LELAND AVE NW", "postcode": "49321"}}},
{"geometry": {"type": "Point", "coordinates": [-85.6898173627, 43.071215225]}, "type": "Feature", "properties": {"collection_times": [{"days": "Mon-Sat", "time": "9:30am"}, {"days": "Sun", "time": "Closed"}], "id": "4932100015", "name": "USPS COLLECTION BOX - BLUE BOX", "address": {"city": "COMSTOCK PARK", "state": "MI", "street": "5960 ALPINE AVE NW", "postcode": "49321"}}},
{"geometry": {"type": "Point", "coordinates": [-85.6901651598, 43.0586029903]}, "type": "Feature", "properties": {"collection_times": [{"days": "Mon-Sat", "time": "10:00am"}, {"days": "Sun", "time": "Closed"}], "id": "4932100016", "name": "USPS COLLECTION BOX - BLUE BOX", "address": {"city": "COMSTOCK PARK", "state": "MI", "street": "5255 ALPINE AVE NW", "postcode": "49321"}}},
{"geometry": {"type": "Point", "coordinates": [-85.402922498, 43.362959118]}, "type": "Feature", "properties": {"collection_times": [{"days": "Mon-Fri", "time": "1:00pm"}, {"days": "Sat", "time": "11:00am"}, {"days": "Sun", "time": "Closed"}], "id": "4932200001", "name": "USPS COLLECTION BOX - BLUE BOX", "address": {"city": "CORAL", "state": "MI", "street": "4726 N BAILEY RD", "postcode": "49322"}}},
{"geometry": {"type": "Point", "coordinates": [-85.402922498, 43.362959118]}, "type": "Feature", "properties": {"collection_times": [{"days": "Mon-Fri", "time": "1:00pm"}, {"days": "Sat", "time": "11:00am"}, {"days": "Sun", "time": "Closed"}], "id": "4932200002", "name": "USPS COLLECTION BOX - PO LOBBY", "address": {"city": "CORAL", "state": "MI", "street": "4726 N BAILEY RD", "postcode": "49322"}}},
{"geometry": {"type": "Point", "coordinates": [-85.725920919, 42.725166524]}, "type": "Feature", "properties": {"collection_times": [{"days": "Mon-Fri", "time": "4:00pm"}, {"days": "Sat", "time": "12:00pm"}, {"days": "Sun", "time": "Closed"}], "id": "4932300001", "name": "USPS COLLECTION BOX - BLUE BOX", "address": {"city": "DORR", "state": "MI", "street": "1841 142ND AVE", "postcode": "49323"}}},
{"geometry": {"type": "Point", "coordinates": [-85.725920919, 42.725166524]}, "type": "Feature", "properties": {"collection_times": [{"days": "Mon-Fri", "time": "4:00pm"}, {"days": "Sat", "time": "12:00pm"}, {"days": "Sun", "time": "Closed"}], "id": "4932300002", "name": "USPS COLLECTION BOX - PO LOBBY", "address": {"city": "DORR", "state": "MI", "street": "1841 142ND AVE", "postcode": "49323"}}},
{"geometry": {"type": "Point", "coordinates": [-85.31494002, 42.765981499]}, "type": "Feature", "properties": {"collection_times": [{"days": "Mon-Fri", "time": "4:00pm"}, {"days": "Sat", "time": "10:30am"}, {"days": "Sun", "time": "Closed"}], "id": "4932500001", "name": "USPS COLLECTION BOX - BLUE BOX", "address": {"city": "FREEPORT", "state": "MI", "street": "162 DIVISION ST", "postcode": "49325"}}},
{"geometry": {"type": "Point", "coordinates": [-85.31494002, 42.765981499]}, "type": "Feature", "properties": {"collection_times": [{"days": "Mon-Fri", "time": "4:00pm"}, {"days": "Sat", "time": "10:30am"}, {"days": "Sun", "time": "Closed"}], "id": "4932500002", "name": "USPS COLLECTION BOX - PO LOBBY", "address": {"city": "FREEPORT", "state": "MI", "street": "162 DIVISION ST", "postcode": "49325"}}},
{"geometry": {"type": "Point", "coordinates": [-85.299007419, 43.250700367]}, "type": "Feature", "properties": {"collection_times": [{"days": "Mon-Fri", "time": "4:00pm"}, {"days": "Sat", "time": "2:00pm"}, {"days": "Sun", "time": "Closed"}], "id": "4932600001", "name": "USPS COLLECTION BOX - BLUE BOX", "address": {"city": "GOWEN", "state": "MI", "street": "2922 OAK ST", "postcode": "49326"}}},
{"geometry": {"type": "Point", "coordinates": [-85.367865915, 43.2354448364]}, "type": "Feature", "properties": {"collection_times": [{"days": "Mon-Sat", "time": "2:00pm"}, {"days": "Sun", "time": "Closed"}], "id": "4932600002", "name": "USPS COLLECTION BOX - BLUE BOX", "address": {"city": "GOWEN", "state": "MI", "street": "12091 18 MILE RD", "postcode": "49326"}}},
{"geometry": {"type": "Point", "coordinates": [-85.299007419, 43.250700367]}, "type": "Feature", "properties": {"collection_times": [{"days": "Mon-Fri", "time": "4:00pm"}, {"days": "Sat", "time": "10:30am"}, {"days": "Sun", "time": "Closed"}], "id": "4932600003", "name": "USPS COLLECTION BOX - PO LOBBY", "address": {"city": "GOWEN", "state": "MI", "street": "2922 OAK ST", "postcode": "49326"}}},
{"geometry": {"type": "Point", "coordinates": [-85.812150775, 43.333337409]}, "type": "Feature", "properties": {"collection_times": [{"days": "Mon-Fri", "time": "4:00pm"}, {"days": "Sat", "time": "12:00pm"}, {"days": "Sun", "time": "Closed"}], "id": "4932700002", "name": "USPS COLLECTION BOX - BLUE BOX", "address": {"city": "GRANT", "state": "MI", "street": "79 W PINE ST", "postcode": "49327"}}},
{"geometry": {"type": "Point", "coordinates": [-85.812150775, 43.333337409]}, "type": "Feature", "properties": {"collection_times": [{"days": "Mon-Fri", "time": "4:00pm"}, {"days": "Sat", "time": "12:00pm"}, {"days": "Sun", "time": "Closed"}], "id": "4932700003", "name": "USPS COLLECTION BOX - PO LOBBY", "address": {"city": "GRANT", "state": "MI", "street": "79 W PINE ST", "postcode": "49327"}}},
{"geometry": {"type": "Point", "coordinates": [-85.763541768, 42.624012313]}, "type": "Feature", "properties": {"collection_times": [{"days": "Mon-Fri", "time": "2:00pm"}, {"days": "Sat", "time": "11:00am"}, {"days": "Sun", "time": "Closed"}], "id": "4932800002", "name": "USPS COLLECTION BOX - PO LOBBY", "address": {"city": "HOPKINS", "state": "MI", "street": "107 W MAIN ST", "postcode": "49328"}}},
{"geometry": {"type": "Point", "coordinates": [-85.763541768, 42.624012313]}, "type": "Feature", "properties": {"collection_times": [{"days": "Mon-Fri", "time": "2:00pm"}, {"days": "Sat", "time": "11:00am"}, {"days": "Sun", "time": "Closed"}], "id": "4932800004", "name": "USPS COLLECTION BOX - BLUE BOX", "address": {"city": "HOPKINS", "state": "MI", "street": "107 W MAIN ST", "postcode": "49328"}}},
{"geometry": {"type": "Point", "coordinates": [-85.4689854861, 43.3969162145]}, "type": "Feature", "properties": {"collection_times": [{"days": "Mon-Fri", "time": "3:30pm"}, {"days": "Sat", "time": "10:30am"}, {"days": "Sun", "time": "Closed"}], "id": "4932900001", "name": "USPS COLLECTION BOX - BLUE BOX", "address": {"city": "HOWARD CITY", "state": "MI", "street": "107 E EDGERTON ST", "postcode": "49329"}}},
{"geometry": {"type": "Point", "coordinates": [-85.4789862106, 43.3957131963]}, "type": "Feature", "properties": {"collection_times": [{"days": "Mon-Fri", "time": "10:00am"}, {"days": "Sat", "time": "9:00am"}, {"days": "Sun", "time": "Closed"}], "id": "4932900002", "name": "USPS COLLECTION BOX - BLUE BOX", "address": {"city": "HOWARD CITY", "state": "MI", "street": "730 W SHAW ST", "postcode": "49329"}}},
{"geometry": {"type": "Point", "coordinates": [-85.468985119, 43.396916863]}, "type": "Feature", "properties": {"collection_times": [{"days": "Mon-Fri", "time": "3:50pm"}, {"days": "Sat", "time": "11:00am"}, {"days": "Sun", "time": "Closed"}], "id": "4932900007", "name": "USPS COLLECTION BOX - PO LOBBY", "address": {"city": "HOWARD CITY", "state": "MI", "street": "107 E EDGERTON ST", "postcode": "49329"}}},
{"geometry": {"type": "Point", "coordinates": [-85.751143215, 43.218370796]}, "type": "Feature", "properties": {"collection_times": [{"days": "Mon-Fri", "time": "4:00pm"}, {"days": "Sat", "time": "11:00am"}, {"days": "Sun", "time": "Closed"}], "id": "4933000001", "name": "USPS COLLECTION BOX - BLUE BOX", "address": {"city": "KENT CITY", "state": "MI", "street": "60 S MAIN ST", "postcode": "49330"}}},
{"geometry": {"type": "Point", "coordinates": [-85.751143215, 43.218370796]}, "type": "Feature", "properties": {"collection_times": [{"days": "Mon-Fri", "time": "4:00pm"}, {"days": "Sat", "time": "11:00am"}, {"days": "Sun", "time": "Closed"}], "id": "4933000002", "name": "USPS COLLECTION BOX - PO LOBBY", "address": {"city": "KENT CITY", "state": "MI", "street": "60 S MAIN ST", "postcode": "49330"}}},
{"geometry": {"type": "Point", "coordinates": [-85.7588466409, 43.2195255785]}, "type": "Feature", "properties": {"collection_times": [{"days": "Mon-Sat", "time": "12:30pm"}, {"days": "Sun", "time": "Closed"}], "id": "4933000003", "name": "USPS COLLECTION BOX - BLUE BOX", "address": {"city": "KENT CITY", "state": "MI", "street": "380 W MUSKEGON ST", "postcode": "49330"}}},
{"geometry": {"type": "Point", "coordinates": [-85.3368946459, 42.9346977134]}, "type": "Feature", "properties": {"collection_times": [{"days": "Mon-Sat", "time": "2:00pm"}, {"days": "Sun", "time": "Closed"}], "id": "4933100001", "name": "USPS COLLECTION BOX - BLUE BOX", "address": {"city": "LOWELL", "state": "MI", "street": "301 E MAIN ST", "postcode": "49331"}}},
{"geometry": {"type": "Point", "coordinates": [-85.3556084421, 42.9322531149]}, "type": "Feature", "properties": {"collection_times": [{"days": "Mon-Sat", "time": "1:00pm"}, {"days": "Sun", "time": "Closed"}], "id": "4933100003", "name": "USPS COLLECTION BOX - BLUE BOX", "address": {"city": "LOWELL", "state": "MI", "street": "146 VALLEY VISTA DR", "postcode": "49331"}}},
{"geometry": {"type": "Point", "coordinates": [-85.3506155308, 42.9317037438]}, "type": "Feature", "properties": {"collection_times": [{"days": "Mon-Sat", "time": "2:00pm"}, {"days": "Sun", "time": "Closed"}], "id": "4933100007", "name": "USPS COLLECTION BOX - BLUE BOX", "address": {"city": "LOWELL", "state": "MI", "street": "1002 W MAIN ST", "postcode": "49331"}}},
{"geometry": {"type": "Point", "coordinates": [-85.340833317, 42.934098183]}, "type": "Feature", "properties": {"collection_times": [{"days": "Mon-Fri", "time": "5:00pm"}, {"days": "Sat", "time": "4:30pm"}, {"days": "Sun", "time": "Closed"}], "id": "4933100011", "name": "USPS COLLECTION BOX - BLUE BOX", "address": {"city": "LOWELL", "state": "MI", "street": "120 N BROADWAY ST", "postcode": "49331"}}},
{"geometry": {"type": "Point", "coordinates": [-85.340833317, 42.934098183]}, "type": "Feature", "properties": {"collection_times": [{"days": "Mon-Fri", "time": "5:00pm"}, {"days": "Sat", "time": "4:00pm"}, {"days": "Sun", "time": "Closed"}], "id": "4933100012", "name": "USPS COLLECTION BOX - PO LOBBY", "address": {"city": "LOWELL", "state": "MI", "street": "120 N BROADWAY ST", "postcode": "49331"}}},
{"geometry": {"type": "Point", "coordinates": [-85.3749793305, 42.9307115803]}, "type": "Feature", "properties": {"collection_times": [{"days": "Mon-Sat", "time": "2:00pm"}, {"days": "Sun", "time": "Closed"}], "id": "4933100014", "name": "USPS COLLECTION BOX - BLUE BOX", "address": {"city": "LOWELL", "state": "MI", "street": "11901 FULTON ST E", "postcode": "49331"}}},
{"geometry": {"type": "Point", "coordinates": [-85.3494091593, 42.9440827878]}, "type": "Feature", "properties": {"collection_times": [{"days": "Mon-Sat", "time": "2:00pm"}, {"days": "Sun", "time": "Closed"}], "id": "4933100015", "name": "USPS COLLECTION BOX - BLUE BOX", "address": {"city": "LOWELL", "state": "MI", "street": "414 E MAIN ST", "postcode": "49331"}}},
{"geometry": {"type": "Point", "coordinates": [-85.227938876, 43.621126182]}, "type": "Feature", "properties": {"collection_times": [{"days": "Mon-Fri", "time": "2:05pm"}, {"days": "Sat", "time": "11:00am"}, {"days": "Sun", "time": "Closed"}], "id": "4933200001", "name": "USPS COLLECTION BOX - BLUE BOX", "address": {"city": "MECOSTA", "state": "MI", "street": "250 W MAIN ST", "postcode": "49332"}}},
{"geometry": {"type": "Point", "coordinates": [-85.227938876, 43.621126182]}, "type": "Feature", "properties": {"collection_times": [{"days": "Mon-Fri", "time": "2:05pm"}, {"days": "Sat", "time": "11:00am"}, {"days": "Sun", "time": "Closed"}], "id": "4933200002", "name": "USPS COLLECTION BOX - PO LOBBY", "address": {"city": "MECOSTA", "state": "MI", "street": "250 W MAIN ST", "postcode": "49332"}}},
{"geometry": {"type": "Point", "coordinates": [-85.470077482, 42.709468989]}, "type": "Feature", "properties": {"collection_times": [{"days": "Mon-Fri", "time": "4:45pm"}, {"days": "Sat", "time": "11:00am"}, {"days": "Sun", "time": "Closed"}], "id": "4933300002", "name": "USPS COLLECTION BOX - BLUE BOX", "address": {"city": "MIDDLEVILLE", "state": "MI", "street": "220 S BROADWAY ST", "postcode": "49333"}}},
{"geometry": {"type": "Point", "coordinates": [-85.470077482, 42.709468989]}, "type": "Feature", "properties": {"collection_times": [{"days": "Mon-Fri", "time": "4:55pm"}, {"days": "Sat", "time": "11:00am"}, {"days": "Sun", "time": "Closed"}], "id": "4933300005", "name": "USPS COLLECTION BOX - PO LOBBY", "address": {"city": "MIDDLEVILLE", "state": "MI", "street": "220 S BROADWAY ST", "postcode": "49333"}}},
{"geometry": {"type": "Point", "coordinates": [-85.663296702, 42.758336387]}, "type": "Feature", "properties": {"collection_times": [{"days": "Mon-Fri", "time": "1:00pm"}, {"days": "Sat", "time": "10:30am"}, {"days": "Sun", "time": "Closed"}], "id": "4933500001", "name": "USPS COLLECTION BOX - BLUE BOX", "address": {"city": "MOLINE", "state": "MI", "street": "1229 144TH AVE", "postcode": "49335"}}},
{"geometry": {"type": "Point", "coordinates": [-85.663296702, 42.758336387]}, "type": "Feature", "properties": {"collection_times": [{"days": "Mon-Fri", "time": "1:00pm"}, {"days": "Sat", "time": "10:30am"}, {"days": "Sun", "time": "Closed"}], "id": "4933500002", "name": "USPS COLLECTION BOX - PO LOBBY", "address": {"city": "MOLINE", "state": "MI", "street": "1229 144TH AVE", "postcode": "49335"}}},
{"geometry": {"type": "Point", "coordinates": [-85.444737202, 43.490467256]}, "type": "Feature", "properties": {"collection_times": [{"days": "Mon-Fri", "time": "3:50pm"}, {"days": "Sat", "time": "11:00am"}, {"days": "Sun", "time": "Closed"}], "id": "4933600001", "name": "USPS COLLECTION BOX - BLUE BOX", "address": {"city": "MORLEY", "state": "MI", "street": "123 S CASS ST", "postcode": "49336"}}},
{"geometry": {"type": "Point", "coordinates": [-85.444737202, 43.490467256]}, "type": "Feature", "properties": {"collection_times": [{"days": "Mon-Fri", "time": "3:50pm"}, {"days": "Sat", "time": "11:00am"}, {"days": "Sun", "time": "Closed"}], "id": "4933600003", "name": "USPS COLLECTION BOX - PO LOBBY", "address": {"city": "MORLEY", "state": "MI", "street": "123 S CASS ST", "postcode": "49336"}}},
{"geometry": {"type": "Point", "coordinates": [-85.4433744764, 43.5475101948]}, "type": "Feature", "properties": {"collection_times": [{"days": "Mon-Sat", "time": "10:30am"}, {"days": "Sun", "time": "Closed"}], "id": "4933600004", "name": "USPS COLLECTION BOX - BLUE BOX", "address": {"city": "MORLEY", "state": "MI", "street": "4981 NORTHLAND DR", "postcode": "49336"}}},
{"geometry": {"type": "Point", "coordinates": [-85.8043395167, 43.418228449]}, "type": "Feature", "properties": {"collection_times": [{"days": "Mon-Sat", "time": "10:00am"}, {"days": "Sun", "time": "Closed"}], "id": "4933700001", "name": "USPS COLLECTION BOX - BLUE BOX", "address": {"city": "NEWAYGO", "state": "MI", "street": "193 W RIVER VALLEY DR STE A STE 0", "postcode": "49337"}}},
{"geometry": {"type": "Point", "coordinates": [-85.80202798, 43.419833444]}, "type": "Feature", "properties": {"collection_times": [{"days": "Mon-Fri", "time": "4:00pm"}, {"days": "Sat", "time": "12:00pm"}, {"days": "Sun", "time": "Closed"}], "id": "4933700004", "name": "USPS COLLECTION BOX - BLUE BOX", "address": {"city": "NEWAYGO", "state": "MI", "street": "136 W WOOD ST", "postcode": "49337"}}},
{"geometry": {"type": "Point", "coordinates": [-85.80202798, 43.419833444]}, "type": "Feature", "properties": {"collection_times": [{"days": "Mon-Fri", "time": "4:00pm"}, {"days": "Sat", "time": "12:00pm"}, {"days": "Sun", "time": "Closed"}], "id": "4933700007", "name": "USPS COLLECTION BOX - BLUE BOX", "address": {"city": "NEWAYGO", "state": "MI", "street": "136 W WOOD ST", "postcode": "49337"}}},
{"geometry": {"type": "Point", "coordinates": [-85.7941088784, 43.4051969463]}, "type": "Feature", "properties": {"collection_times": [{"days": "Mon-Sat", "time": "10:15am"}, {"days": "Sun", "time": "Closed"}], "id": "4933700008", "name": "USPS COLLECTION BOX - BLUE BOX", "address": {"city": "NEWAYGO", "state": "MI", "street": "290 E 82ND ST", "postcode": "49337"}}},
{"geometry": {"type": "Point", "coordinates": [-85.7868825996, 43.4128998219]}, "type": "Feature", "properties": {"collection_times": [{"days": "Mon-Sat", "time": "11:00am"}, {"days": "Sun", "time": "Closed"}], "id": "4933700010", "name": "USPS COLLECTION BOX - BLUE BOX", "address": {"city": "NEWAYGO", "state": "MI", "street": "622 DIVISION ST", "postcode": "49337"}}},
{"geometry": {"type": "Point", "coordinates": [-85.80202798, 43.419833444]}, "type": "Feature", "properties": {"collection_times": [{"days": "Mon-Fri", "time": "4:00pm"}, {"days": "Sat", "time": "12:00pm"}, {"days": "Sun", "time": "Closed"}], "id": "4933700011", "name": "USPS COLLECTION BOX - PO LOBBY", "address": {"city": "NEWAYGO", "state": "MI", "street": "136 W WOOD ST", "postcode": "49337"}}},
{"geometry": {"type": "Point", "coordinates": [-85.8063201717, 43.4108675538]}, "type": "Feature", "properties": {"collection_times": [{"days": "Mon-Sat", "time": "10:30am"}, {"days": "Sun", "time": "Closed"}], "id": "4933700014", "name": "USPS COLLECTION BOX - BLUE BOX", "address": {"city": "NEWAYGO", "state": "MI", "street": "335 ADAMS ST", "postcode": "49337"}}},
{"geometry": {"type": "Point", "coordinates": [-85.6614184866, 43.4384589269]}, "type": "Feature", "properties": {"collection_times": [{"days": "Mon-Sat", "time": "12:00pm"}, {"days": "Sun", "time": "Closed"}], "id": "4933700015", "name": "USPS COLLECTION BOX - BLUE BOX", "address": {"city": "NEWAYGO", "state": "MI", "street": "8249 S CROTON HARDY DR", "postcode": "49337"}}},
{"geometry": {"type": "Point", "coordinates": [-85.503053783, 43.772993169]}, "type": "Feature", "properties": {"collection_times": [{"days": "Mon-Fri", "time": "1:00pm"}, {"days": "Sat", "time": "11:00am"}, {"days": "Sun", "time": "Closed"}], "id": "4933800001", "name": "USPS COLLECTION BOX - BLUE BOX", "address": {"city": "PARIS", "state": "MI", "street": "21159 NORTHLAND DR", "postcode": "49338"}}},
{"geometry": {"type": "Point", "coordinates": [-85.503053783, 43.772993169]}, "type": "Feature", "properties": {"collection_times": [{"days": "Mon-Fri", "time": "1:00pm"}, {"days": "Sat", "time": "11:00am"}, {"days": "Sun", "time": "Closed"}], "id": "4933800002", "name": "USPS COLLECTION BOX - PO LOBBY", "address": {"city": "PARIS", "state": "MI", "street": "21159 NORTHLAND DR", "postcode": "49338"}}},
{"geometry": {"type": "Point", "coordinates": [-85.497524475, 43.318706298]}, "type": "Feature", "properties": {"collection_times": [{"days": "Mon-Fri", "time": "2:00pm"}, {"days": "Sat", "time": "10:45am"}, {"days": "Sun", "time": "Closed"}], "id": "4933900001", "name": "USPS COLLECTION BOX - BLUE BOX", "address": {"city": "PIERSON", "state": "MI", "street": "7 S 4TH ST", "postcode": "49339"}}},
{"geometry": {"type": "Point", "coordinates": [-85.497524475, 43.318706298]}, "type": "Feature", "properties": {"collection_times": [{"days": "Mon-Fri", "time": "11:30am"}, {"days": "Sat", "time": "10:45am"}, {"days": "Sun", "time": "Closed"}], "id": "4933900002", "name": "USPS COLLECTION BOX - PO LOBBY", "address": {"city": "PIERSON", "state": "MI", "street": "7 S 4TH ST", "postcode": "49339"}}},
{"geometry": {"type": "Point", "coordinates": [-85.148035062, 43.59653747]}, "type": "Feature", "properties": {"collection_times": [{"days": "Mon-Fri", "time": "3:05pm"}, {"days": "Sat", "time": "10:00am"}, {"days": "Sun", "time": "Closed"}], "id": "4934000002", "name": "USPS COLLECTION BOX - BLUE BOX", "address": {"city": "REMUS", "state": "MI", "street": "302 W WHEATLAND AVE", "postcode": "49340"}}},
{"geometry": {"type": "Point", "coordinates": [-85.148035062, 43.59653747]}, "type": "Feature", "properties": {"collection_times": [{"days": "Mon-Fri", "time": "3:05pm"}, {"days": "Sat", "time": "10:00am"}, {"days": "Sun", "time": "Closed"}], "id": "4934000003", "name": "USPS COLLECTION BOX - PO LOBBY", "address": {"city": "REMUS", "state": "MI", "street": "302 W WHEATLAND AVE", "postcode": "49340"}}},
{"geometry": {"type": "Point", "coordinates": [-85.5519812541, 43.1173434339]}, "type": "Feature", "properties": {"collection_times": [{"days": "Mon-Sat", "time": "9:00am"}, {"days": "Sun", "time": "Closed"}], "id": "4934100005", "name": "USPS COLLECTION BOX - BLUE BOX", "address": {"city": "ROCKFORD", "state": "MI", "street": "400 E DIVISION ST", "postcode": "49341"}}},
{"geometry": {"type": "Point", "coordinates": [-85.5457274488, 43.1165626713]}, "type": "Feature", "properties": {"collection_times": [{"days": "Mon-Sat", "time": "9:00am"}, {"days": "Sun", "time": "Closed"}], "id": "4934100006", "name": "USPS COLLECTION BOX - BLUE BOX", "address": {"city": "ROCKFORD", "state": "MI", "street": "185 MARCELL DR NE", "postcode": "49341"}}},
{"geometry": {"type": "Point", "coordinates": [-85.5595962845, 43.1187985918]}, "type": "Feature", "properties": {"collection_times": [{"days": "Mon-Fri", "time": "1:00pm"}, {"days": "Sat", "time": "12:00pm"}, {"days": "Sun", "time": "Closed"}], "id": "4934100007", "name": "USPS COLLECTION BOX - BLUE BOX", "address": {"city": "ROCKFORD", "state": "MI", "street": "23 S MAIN ST", "postcode": "49341"}}},
{"geometry": {"type": "Point", "coordinates": [-85.560260818, 43.120886602]}, "type": "Feature", "properties": {"collection_times": [{"days": "Mon-Fri", "time": "5:00pm"}, {"days": "Sat", "time": "12:00pm"}, {"days": "Sun", "time": "Closed"}], "id": "4934100008", "name": "USPS COLLECTION BOX - BLUE BOX", "address": {"city": "ROCKFORD", "state": "MI", "street": "57 COURTLAND ST", "postcode": "49341"}}},
{"geometry": {"type": "Point", "coordinates": [-85.560260818, 43.120886602]}, "type": "Feature", "properties": {"collection_times": [{"days": "Mon-Fri", "time": "5:00pm"}, {"days": "Sat", "time": "12:00pm"}, {"days": "Sun", "time": "Closed"}], "id": "4934100009", "name": "USPS COLLECTION BOX - BLUE BOX", "address": {"city": "ROCKFORD", "state": "MI", "street": "57 COURTLAND ST", "postcode": "49341"}}},
{"geometry": {"type": "Point", "coordinates": [-85.564249246, 43.0856952922]}, "type": "Feature", "properties": {"collection_times": [{"days": "Mon-Sat", "time": "9:30am"}, {"days": "Sun", "time": "Closed"}], "id": "4934100012", "name": "USPS COLLECTION BOX - BLUE BOX", "address": {"city": "ROCKFORD", "state": "MI", "street": "6737 NORTHLAND DR NE", "postcode": "49341"}}},
{"geometry": {"type": "Point", "coordinates": [-85.5534496525, 43.1170784974]}, "type": "Feature", "properties": {"collection_times": [{"days": "Mon-Sat", "time": "9:00am"}, {"days": "Sun", "time": "Closed"}], "id": "4934100014", "name": "USPS COLLECTION BOX - BLUE BOX", "address": {"city": "ROCKFORD", "state": "MI", "street": "111 S LINCOLN ST", "postcode": "49341"}}},
{"geometry": {"type": "Point", "coordinates": [-85.5582058845, 43.1156605108]}, "type": "Feature", "properties": {"collection_times": [{"days": "Mon-Sat", "time": "8:45am"}, {"days": "Sun", "time": "Closed"}], "id": "4934100018", "name": "USPS COLLECTION BOX - BLUE BOX", "address": {"city": "ROCKFORD", "state": "MI", "street": "161 S MONROE ST", "postcode": "49341"}}},
{"geometry": {"type": "Point", "coordinates": [-85.4990464227, 43.0862279403]}, "type": "Feature", "properties": {"collection_times": [{"days": "Mon-Sat", "time": "10:00am"}, {"days": "Sun", "time": "Closed"}], "id": "4934100020", "name": "USPS COLLECTION BOX - BLUE BOX", "address": {"city": "ROCKFORD", "state": "MI", "street": "6878 BELDING RD NE", "postcode": "49341"}}},
{"geometry": {"type": "Point", "coordinates": [-85.5594083561, 43.1609363763]}, "type": "Feature", "properties": {"collection_times": [{"days": "Mon-Sat", "time": "10:00am"}, {"days": "Sun", "time": "Closed"}], "id": "4934100022", "name": "USPS COLLECTION BOX - BLUE BOX", "address": {"city": "ROCKFORD", "state": "MI", "street": "10678 GALAXY DR NE", "postcode": "49341"}}},
{"geometry": {"type": "Point", "coordinates": [-85.560260818, 43.120886602]}, "type": "Feature", "properties": {"collection_times": [{"days": "Mon-Fri", "time": "5:00pm"}, {"days": "Sat", "time": "12:00pm"}, {"days": "Sun", "time": "Closed"}], "id": "4934100023", "name": "USPS COLLECTION BOX - PO LOBBY", "address": {"city": "ROCKFORD", "state": "MI", "street": "57 COURTLAND ST", "postcode": "49341"}}},
{"geometry": {"type": "Point", "coordinates": [-85.6020441842, 43.1170462563]}, "type": "Feature", "properties": {"collection_times": [{"days": "Mon-Sat", "time": "12:00pm"}, {"days": "Sun", "time": "Closed"}], "id": "4934100025", "name": "USPS COLLECTION BOX - BLUE BOX", "address": {"city": "ROCKFORD", "state": "MI", "street": "2745 10 MILE RD NE", "postcode": "49341"}}},
{"geometry": {"type": "Point", "coordinates": [-85.5017350116, 43.0863124018]}, "type": "Feature", "properties": {"collection_times": [{"days": "Mon-Sat", "time": "11:00am"}, {"days": "Sun", "time": "Closed"}], "id": "4934100026", "name": "USPS COLLECTION BOX - BLUE BOX", "address": {"city": "ROCKFORD", "state": "MI", "street": "6767 BELDING RD NE", "postcode": "49341"}}},
{"geometry": {"type": "Point", "coordinates": [-85.327978658, 43.673549255]}, "type": "Feature", "properties": {"collection_times": [{"days": "Mon-Fri", "time": "2:00pm"}, {"days": "Sat", "time": "10:45am"}, {"days": "Sun", "time": "Closed"}], "id": "4934200001", "name": "USPS COLLECTION BOX - BLUE BOX", "address": {"city": "RODNEY", "state": "MI", "street": "12190 MCKINLEY RD", "postcode": "49342"}}},
{"geometry": {"type": "Point", "coordinates": [-85.327978658, 43.673549255]}, "type": "Feature", "properties": {"collection_times": [{"days": "Mon-Fri", "time": "2:00pm"}, {"days": "Sat", "time": "10:45am"}, {"days": "Sun", "time": "Closed"}], "id": "4934200002", "name": "USPS COLLECTION BOX - PO LOBBY", "address": {"city": "RODNEY", "state": "MI", "street": "12190 MCKINLEY RD", "postcode": "49342"}}},
{"geometry": {"type": "Point", "coordinates": [-85.516171059, 43.293112404]}, "type": "Feature", "properties": {"collection_times": [{"days": "Mon-Fri", "time": "4:00pm"}, {"days": "Sat", "time": "12:00pm"}, {"days": "Sun", "time": "Closed"}], "id": "4934300000", "name": "USPS COLLECTION BOX - BLUE BOX", "address": {"city": "SAND LAKE", "state": "MI", "street": "20 E MAPLE ST", "postcode": "49343"}}},
{"geometry": {"type": "Point", "coordinates": [-85.516171059, 43.293112404]}, "type": "Feature", "properties": {"collection_times": [{"days": "Mon-Fri", "time": "4:00pm"}, {"days": "Sat", "time": "12:00pm"}, {"days": "Sun", "time": "Closed"}], "id": "4934300001", "name": "USPS COLLECTION BOX - PO LOBBY", "address": {"city": "SAND LAKE", "state": "MI", "street": "20 E MAPLE ST", "postcode": "49343"}}},
{"geometry": {"type": "Point", "coordinates": [-85.551316551, 42.59474668]}, "type": "Feature", "properties": {"collection_times": [{"days": "Mon-Fri", "time": "4:00pm"}, {"days": "Sat", "time": "11:00am"}, {"days": "Sun", "time": "Closed"}], "id": "4934400001", "name": "USPS COLLECTION BOX - BLUE BOX", "address": {"city": "SHELBYVILLE", "state": "MI", "street": "90 124TH AVE", "postcode": "49344"}}},
{"geometry": {"type": "Point", "coordinates": [-85.551316551, 42.59474668]}, "type": "Feature", "properties": {"collection_times": [{"days": "Mon-Fri", "time": "4:00pm"}, {"days": "Sat", "time": "11:00am"}, {"days": "Sun", "time": "Closed"}], "id": "4934400002", "name": "USPS COLLECTION BOX - PO LOBBY", "address": {"city": "SHELBYVILLE", "state": "MI", "street": "90 124TH AVE", "postcode": "49344"}}},
{"geometry": {"type": "Point", "coordinates": [-85.709231269, 43.160762467]}, "type": "Feature", "properties": {"collection_times": [{"days": "Mon-Fri", "time": "5:00pm"}, {"days": "Sat", "time": "12:00pm"}, {"days": "Sun", "time": "Closed"}], "id": "4934500004", "name": "USPS COLLECTION BOX - BLUE BOX", "address": {"city": "SPARTA", "state": "MI", "street": "34 E DIVISION ST", "postcode": "49345"}}},
{"geometry": {"type": "Point", "coordinates": [-85.7071048058, 43.1620208458]}, "type": "Feature", "properties": {"collection_times": [{"days": "Mon-Sat", "time": "12:00pm"}, {"days": "Sun", "time": "Closed"}], "id": "4934500006", "name": "USPS COLLECTION BOX - BLUE BOX", "address": {"city": "SPARTA", "state": "MI", "street": "38 N UNION ST", "postcode": "49345"}}},
{"geometry": {"type": "Point", "coordinates": [-85.7101353791, 43.1486401563]}, "type": "Feature", "properties": {"collection_times": [{"days": "Mon-Sat", "time": "12:00pm"}, {"days": "Sun", "time": "Closed"}], "id": "4934500018", "name": "USPS COLLECTION BOX - BLUE BOX", "address": {"city": "SPARTA", "state": "MI", "street": "565 S STATE ST", "postcode": "49345"}}},
{"geometry": {"type": "Point", "coordinates": [-85.7071048058, 43.1620208458]}, "type": "Feature", "properties": {"collection_times": [{"days": "Mon-Sat", "time": "12:00pm"}, {"days": "Sun", "time": "Closed"}], "id": "4934500020", "name": "USPS COLLECTION BOX - BLUE BOX", "address": {"city": "SPARTA", "state": "MI", "street": "38 N UNION ST", "postcode": "49345"}}},
{"geometry": {"type": "Point", "coordinates": [-85.709231269, 43.160762467]}, "type": "Feature", "properties": {"collection_times": [{"days": "Mon-Fri", "time": "5:00pm"}, {"days": "Sat", "time": "12:00pm"}, {"days": "Sun", "time": "Closed"}], "id": "4934500023", "name": "USPS COLLECTION BOX - PO LOBBY", "address": {"city": "SPARTA", "state": "MI", "street": "34 E DIVISION ST", "postcode": "49345"}}},
{"geometry": {"type": "Point", "coordinates": [-85.3634261471, 43.5860443154]}, "type": "Feature", "properties": {"collection_times": [{"days": "Mon-Fri", "time": "12:00pm"}, {"days": "Sat", "time": "11:00am"}, {"days": "Sun", "time": "Closed"}], "id": "4934600001", "name": "USPS COLLECTION BOX - BLUE BOX", "address": {"city": "STANWOOD", "state": "MI", "street": "10039 BUCHANAN RD", "postcode": "49346"}}},
{"geometry": {"type": "Point", "coordinates": [-85.45184792, 43.579186924]}, "type": "Feature", "properties": {"collection_times": [{"days": "Mon-Fri", "time": "4:00pm"}, {"days": "Sat", "time": "11:00am"}, {"days": "Sun", "time": "Closed"}], "id": "4934600005", "name": "USPS COLLECTION BOX - BLUE BOX", "address": {"city": "STANWOOD", "state": "MI", "street": "7551 NORTHLAND DR", "postcode": "49346"}}},
{"geometry": {"type": "Point", "coordinates": [-85.45184792, 43.579186924]}, "type": "Feature", "properties": {"collection_times": [{"days": "Mon-Fri", "time": "4:00pm"}, {"days": "Sat", "time": "11:00am"}, {"days": "Sun", "time": "Closed"}], "id": "4934600006", "name": "USPS COLLECTION BOX - PO LOBBY", "address": {"city": "STANWOOD", "state": "MI", "street": "7551 NORTHLAND DR", "postcode": "49346"}}},
{"geometry": {"type": "Point", "coordinates": [-85.3550054, 43.313664559]}, "type": "Feature", "properties": {"collection_times": [{"days": "Mon-Fri", "time": "4:00pm"}, {"days": "Sat", "time": "9:45am"}, {"days": "Sun", "time": "Closed"}], "id": "4934700001", "name": "USPS COLLECTION BOX - BLUE BOX", "address": {"city": "TRUFANT", "state": "MI", "street": "113 W 2ND ST", "postcode": "49347"}}},
{"geometry": {"type": "Point", "coordinates": [-85.3550054, 43.313664559]}, "type": "Feature", "properties": {"collection_times": [{"days": "Mon-Fri", "time": "4:00pm"}, {"days": "Sat", "time": "9:45am"}, {"days": "Sun", "time": "Closed"}], "id": "4934700003", "name": "USPS COLLECTION BOX - PO LOBBY", "address": {"city": "TRUFANT", "state": "MI", "street": "113 W 2ND ST", "postcode": "49347"}}},
{"geometry": {"type": "Point", "coordinates": [-85.343578162, 43.3125522892]}, "type": "Feature", "properties": {"collection_times": [{"days": "Mon-Sat", "time": "12:00pm"}, {"days": "Sun", "time": "Closed"}], "id": "4934700005", "name": "USPS COLLECTION BOX - BLUE BOX", "address": {"city": "TRUFANT", "state": "MI", "street": "106 W 2ND ST", "postcode": "49347"}}},
{"geometry": {"type": "Point", "coordinates": [-85.5427473918, 42.630957766]}, "type": "Feature", "properties": {"collection_times": [{"days": "Mon-Sat", "time": "11:00am"}, {"days": "Sun", "time": "Closed"}], "id": "4934800001", "name": "USPS COLLECTION BOX - BLUE BOX", "address": {"city": "WAYLAND", "state": "MI", "street": "12944 W M 179 HWY", "postcode": "49348"}}},
{"geometry": {"type": "Point", "coordinates": [-85.6431981055, 42.6755031475]}, "type": "Feature", "properties": {"collection_times": [{"days": "Mon-Sat", "time": "11:00am"}, {"days": "Sun", "time": "Closed"}], "id": "4934800005", "name": "USPS COLLECTION BOX - BLUE BOX", "address": {"city": "WAYLAND", "state": "MI", "street": "235 N MAIN ST", "postcode": "49348"}}},
{"geometry": {"type": "Point", "coordinates": [-85.6601024712, 42.6740250724]}, "type": "Feature", "properties": {"collection_times": [{"days": "Mon-Sat", "time": "10:00am"}, {"days": "Sun", "time": "Closed"}], "id": "4934800008", "name": "USPS COLLECTION BOX - BLUE BOX", "address": {"city": "WAYLAND", "state": "MI", "street": "1135 W SUPERIOR ST", "postcode": "49348"}}},
{"geometry": {"type": "Point", "coordinates": [-85.6762293838, 42.7248831415]}, "type": "Feature", "properties": {"collection_times": [{"days": "Mon-Sat", "time": "10:00am"}, {"days": "Sun", "time": "Closed"}], "id": "4934800009", "name": "USPS COLLECTION BOX - BLUE BOX", "address": {"city": "WAYLAND", "state": "MI", "street": "1331 142ND AVE", "postcode": "49348"}}},
{"geometry": {"type": "Point", "coordinates": [-85.5451175743, 42.6774820849]}, "type": "Feature", "properties": {"collection_times": [{"days": "Mon-Sat", "time": "10:00am"}, {"days": "Sun", "time": "Closed"}], "id": "4934800010", "name": "USPS COLLECTION BOX - BLUE BOX", "address": {"city": "WAYLAND", "state": "MI", "street": "1330 N PATTERSON RD", "postcode": "49348"}}},
{"geometry": {"type": "Point", "coordinates": [-85.656483263, 42.672057856]}, "type": "Feature", "properties": {"collection_times": [{"days": "Mon-Fri", "time": "4:45pm"}, {"days": "Sat", "time": "11:00am"}, {"days": "Sun", "time": "Closed"}], "id": "4934800011", "name": "USPS COLLECTION BOX - PO LOBBY", "address": {"city": "WAYLAND", "state": "MI", "street": "325 RENO DR", "postcode": "49348"}}},
{"geometry": {"type": "Point", "coordinates": [-85.6547995621, 42.677688321]}, "type": "Feature", "properties": {"collection_times": [{"days": "Mon-Sat", "time": "10:00am"}, {"days": "Sun", "time": "Closed"}], "id": "4934800012", "name": "USPS COLLECTION BOX - BLUE BOX", "address": {"city": "WAYLAND", "state": "MI", "street": "400 MILL ST", "postcode": "49348"}}},
{"geometry": {"type": "Point", "coordinates": [-85.656483263, 42.672057856]}, "type": "Feature", "properties": {"collection_times": [{"days": "Mon-Fri", "time": "4:45pm"}, {"days": "Sat", "time": "11:00am"}, {"days": "Sun", "time": "Closed"}], "id": "4934800013", "name": "USPS COLLECTION BOX - BLUE BOX", "address": {"city": "WAYLAND", "state": "MI", "street": "325 RENO DR", "postcode": "49348"}}},
{"geometry": {"type": "Point", "coordinates": [-85.774374028, 43.5501575804]}, "type": "Feature", "properties": {"collection_times": [{"days": "Mon-Fri", "time": "4:00pm"}, {"days": "Sat", "time": "1:00pm"}, {"days": "Sun", "time": "Closed"}], "id": "4934900001", "name": "USPS COLLECTION BOX - BLUE BOX", "address": {"city": "WHITE CLOUD", "state": "MI", "street": "1097 E WILCOX AVE", "postcode": "49349"}}},
{"geometry": {"type": "Point", "coordinates": [-85.774374028, 43.55015758]}, "type": "Feature", "properties": {"collection_times": [{"days": "Mon-Fri", "time": "4:00pm"}, {"days": "Sat", "time": "1:00pm"}, {"days": "Sun", "time": "Closed"}], "id": "4934900002", "name": "USPS COLLECTION BOX - BLUE BOX", "address": {"city": "WHITE CLOUD", "state": "MI", "street": "1097 E WILCOX AVE", "postcode": "49349"}}},
{"geometry": {"type": "Point", "coordinates": [-85.774374028, 43.55015758]}, "type": "Feature", "properties": {"collection_times": [{"days": "Mon-Fri", "time": "4:00pm"}, {"days": "Sat", "time": "1:00pm"}, {"days": "Sun", "time": "Closed"}], "id": "4934900003", "name": "USPS COLLECTION BOX - PO LOBBY", "address": {"city": "WHITE CLOUD", "state": "MI", "street": "1097 E WILCOX AVE", "postcode": "49349"}}},
{"geometry": {"type": "Point", "coordinates": [-85.7717135813, 43.5530794205]}, "type": "Feature", "properties": {"collection_times": [{"days": "Mon-Sat", "time": "1:00pm"}, {"days": "Sun", "time": "Closed"}], "id": "4934900005", "name": "USPS COLLECTION BOX - BLUE BOX", "address": {"city": "WHITE CLOUD", "state": "MI", "street": "47 S CHARLES ST", "postcode": "49349"}}}
]}
