{"type": "FeatureCollection", "features": [
{"geometry": {"type": "Point", "coordinates": [-85.8892614824, 42.9617467842]}, "type": "Feature", "properties": {"collection_times": [{"days": "Mon-Sat", "time": "9:30am"}, {"days": "Sun", "time": "Closed"}], "id": "4940100002", "name": "USPS COLLECTION BOX - BLUE BOX", "address": {"city": "ALLENDALE", "state": "MI", "street": "10670 S CAMPUS DR", "postcode": "49401"}}},
{"geometry": {"type": "Point", "coordinates": [-85.9546409221, 42.9723416947]}, "type": "Feature", "properties": {"collection_times": [{"days": "Mon-Sat", "time": "9:30am"}, {"days": "Sun", "time": "Closed"}], "id": "4940100004", "name": "USPS COLLECTION BOX - BLUE BOX", "address": {"city": "ALLENDALE", "state": "MI", "street": "6843 LAKE MICHIGAN DR", "postcode": "49401"}}},
{"geometry": {"type": "Point", "coordinates": [-85.936665779, 42.9724222237]}, "type": "Feature", "properties": {"collection_times": [{"days": "Mon-Sat", "time": "10:30am"}, {"days": "Sun", "time": "Closed"}], "id": "4940100008", "name": "USPS COLLECTION BOX - BLUE BOX", "address": {"city": "ALLENDALE", "state": "MI", "street": "6101 LAKE MICHIGAN DR", "postcode": "49401"}}},
{"geometry": {"type": "Point", "coordinates": [-85.9385648162, 42.9777484846]}, "type": "Feature", "properties": {"collection_times": [{"days": "Mon-Sat", "time": "9:30am"}, {"days": "Sun", "time": "Closed"}], "id": "4940100009", "name": "USPS COLLECTION BOX - BLUE BOX", "address": {"city": "ALLENDALE", "state": "MI", "street": "4046 CALDER DR", "postcode": "49401"}}},
{"geometry": {"type": "Point", "coordinates": [-85.9045882084, 42.9634174538]}, "type": "Feature", "properties": {"collection_times": [{"days": "Mon-Sat", "time": "9:30am"}, {"days": "Sun", "time": "Closed"}], "id": "4940100010", "name": "USPS COLLECTION BOX - BLUE BOX", "address": {"city": "ALLENDALE", "state": "MI", "street": "4832 W CAMPUS DR", "postcode": "49401"}}},
{"geometry": {"type": "Point", "coordinates": [-85.8931098361, 42.9624859644]}, "type": "Feature", "properties": {"collection_times": [{"days": "Mon-Sat", "time": "10:00am"}, {"days": "Sun", "time": "Closed"}], "id": "4940100013", "name": "USPS COLLECTION BOX - BLUE BOX", "address": {"city": "ALLENDALE", "state": "MI", "street": "10515 LAKER VILLAGE DR", "postcode": "49401"}}},
{"geometry": {"type": "Point", "coordinates": [-85.8888906271, 42.9569829998]}, "type": "Feature", "properties": {"collection_times": [{"days": "Mon-Sat", "time": "9:30am"}, {"days": "Sun", "time": "Closed"}], "id": "4940100015", "name": "USPS COLLECTION BOX - BLUE BOX", "address": {"city": "ALLENDALE", "state": "MI", "street": "10294 42ND AVE", "postcode": "49401"}}},
{"geometry": {"type": "Point", "coordinates": [-85.9070251877, 42.9725595298]}, "type": "Feature", "properties": {"collection_times": [{"days": "Mon-Sat", "time": "9:30am"}, {"days": "Sun", "time": "Closed"}], "id": "4940100016", "name": "USPS COLLECTION BOX - BLUE BOX", "address": {"city": "ALLENDALE", "state": "MI", "street": "4963 LAKE MICHIGAN DR", "postcode": "49401"}}},
{"geometry": {"type": "Point", "coordinates": [-85.943111061, 42.972191547]}, "type": "Feature", "properties": {"collection_times": [{"days": "Mon-Fri", "time": "3:45pm"}, {"days": "Sat", "time": "10:45am"}, {"days": "Sun", "time": "Closed"}], "id": "4940100018", "name": "USPS COLLECTION BOX - BLUE BOX", "address": {"city": "ALLENDALE", "state": "MI", "street": "6370 LAKE MICHIGAN DR", "postcode": "49401"}}},
{"geometry": {"type": "Point", "coordinates": [-85.943111061, 42.972191547]}, "type": "Feature", "properties": {"collection_times": [{"days": "Mon-Fri", "time": "4:00pm"}, {"days": "Sat", "time": "11:00am"}, {"days": "Sun", "time": "Closed"}], "id": "4940100019", "name": "USPS COLLECTION BOX - PO LOBBY", "address": {"city": "ALLENDALE", "state": "MI", "street": "6370 LAKE MICHIGAN DR", "postcode": "49401"}}},
{"geometry": {"type": "Point", "coordinates": [-86.038480817, 43.946147381]}, "type": "Feature", "properties": {"collection_times": [{"days": "Mon-Fri", "time": "3:20pm"}, {"days": "Sat", "time": "9:30am"}, {"days": "Sun", "time": "Closed"}], "id": "4940200001", "name": "USPS COLLECTION BOX - BLUE BOX", "address": {"city": "BRANCH", "state": "MI", "street": "11952 W US HIGHWAY 10", "postcode": "49402"}}},
{"geometry": {"type": "Point", "coordinates": [-86.038480817, 43.946147381]}, "type": "Feature", "properties": {"collection_times": [{"days": "Mon-Fri", "time": "3:20pm"}, {"days": "Sat", "time": "9:30am"}, {"days": "Sun", "time": "Closed"}], "id": "4940200002", "name": "USPS COLLECTION BOX - PO LOBBY", "address": {"city": "BRANCH", "state": "MI", "street": "11952 W US HIGHWAY 10", "postcode": "49402"}}},
{"geometry": {"type": "Point", "coordinates": [-85.882007861, 43.127818729]}, "type": "Feature", "properties": {"collection_times": [{"days": "Mon-Fri", "time": "1:00pm"}, {"days": "Sat", "time": "12:00pm"}, {"days": "Sun", "time": "Closed"}], "id": "4940300001", "name": "USPS COLLECTION BOX - BLUE BOX", "address": {"city": "CONKLIN", "state": "MI", "street": "19701 MAIN ST", "postcode": "49403"}}},
{"geometry": {"type": "Point", "coordinates": [-85.882007861, 43.127818729]}, "type": "Feature", "properties": {"collection_times": [{"days": "Mon-Fri", "time": "1:00pm"}, {"days": "Sat", "time": "12:00pm"}, {"days": "Sun", "time": "Closed"}], "id": "4940300002", "name": "USPS COLLECTION BOX - PO LOBBY", "address": {"city": "CONKLIN", "state": "MI", "street": "19701 MAIN ST", "postcode": "49403"}}},
{"geometry": {"type": "Point", "coordinates": [-85.937002815, 43.065148426]}, "type": "Feature", "properties": {"collection_times": [{"days": "Mon-Fri", "time": "4:00pm"}, {"days": "Sat", "time": "11:00am"}, {"days": "Sun", "time": "Closed"}], "id": "4940400001", "name": "USPS COLLECTION BOX - BLUE BOX", "address": {"city": "COOPERSVILLE", "state": "MI", "street": "314 CENTER ST", "postcode": "49404"}}},
{"geometry": {"type": "Point", "coordinates": [-85.937002815, 43.065148426]}, "type": "Feature", "properties": {"collection_times": [{"days": "Mon-Fri", "time": "4:00pm"}, {"days": "Sat", "time": "11:00am"}, {"days": "Sun", "time": "Closed"}], "id": "4940400002", "name": "USPS COLLECTION BOX - PO LOBBY", "address": {"city": "COOPERSVILLE", "state": "MI", "street": "314 CENTER ST", "postcode": "49404"}}},
{"geometry": {"type": "Point", "coordinates": [-85.9285781857, 43.0558939988]}, "type": "Feature", "properties": {"collection_times": [{"days": "Mon-Sat", "time": "10:00am"}, {"days": "Sun", "time": "Closed"}], "id": "4940400003", "name": "USPS COLLECTION BOX - BLUE BOX", "address": {"city": "COOPERSVILLE", "state": "MI", "street": "260 PIN OAK DR", "postcode": "49404"}}},
{"geometry": {"type": "Point", "coordinates": [-85.9332248113, 43.0634523087]}, "type": "Feature", "properties": {"collection_times": [{"days": "Mon-Sat", "time": "11:00am"}, {"days": "Sun", "time": "Closed"}], "id": "4940400008", "name": "USPS COLLECTION BOX - BLUE BOX", "address": {"city": "COOPERSVILLE", "state": "MI", "street": "235 MAIN ST", "postcode": "49404"}}},
{"geometry": {"type": "Point", "coordinates": [-85.9410685583, 43.0597815942]}, "type": "Feature", "properties": {"collection_times": [{"days": "Mon-Sat", "time": "9:00am"}, {"days": "Sun", "time": "Closed"}], "id": "4940400010", "name": "USPS COLLECTION BOX - BLUE BOX", "address": {"city": "COOPERSVILLE", "state": "MI", "street": "1181 W RANDALL ST", "postcode": "49404"}}},
{"geometry": {"type": "Point", "coordinates": [-86.220188746, 43.954208745]}, "type": "Feature", "properties": {"collection_times": [{"days": "Mon-Fri", "time": "2:00pm"}, {"days": "Sat", "time": "10:00am"}, {"days": "Sun", "time": "Closed"}], "id": "4940500001", "name": "USPS COLLECTION BOX - BLUE BOX", "address": {"city": "CUSTER", "state": "MI", "street": "9 S MADISON AVE", "postcode": "49405"}}},
{"geometry": {"type": "Point", "coordinates": [-86.220188746, 43.954208745]}, "type": "Feature", "properties": {"collection_times": [{"days": "Mon-Fri", "time": "2:00pm"}, {"days": "Sat", "time": "10:00am"}, {"days": "Sun", "time": "Closed"}], "id": "4940500002", "name": "USPS COLLECTION BOX - PO LOBBY", "address": {"city": "CUSTER", "state": "MI", "street": "9 S MADISON AVE", "postcode": "49405"}}},
{"geometry": {"type": "Point", "coordinates": [-86.202251175, 42.643737073]}, "type": "Feature", "properties": {"collection_times": [{"days": "Mon-Fri", "time": "3:30pm"}, {"days": "Sat", "time": "10:30am"}, {"days": "Sun", "time": "Closed"}], "id": "4940600001", "name": "USPS COLLECTION BOX - BLUE BOX", "address": {"city": "DOUGLAS", "state": "MI", "street": "70 CENTER ST", "postcode": "49406"}}},
{"geometry": {"type": "Point", "coordinates": [-86.202251175, 42.643737073]}, "type": "Feature", "properties": {"collection_times": [{"days": "Mon-Fri", "time": "3:30pm"}, {"days": "Sat", "time": "10:30am"}, {"days": "Sun", "time": "Closed"}], "id": "4940600002", "name": "USPS COLLECTION BOX - PO LOBBY", "address": {"city": "DOUGLAS", "state": "MI", "street": "70 CENTER ST", "postcode": "49406"}}},
{"geometry": {"type": "Point", "coordinates": [-86.10476122, 42.594316858]}, "type": "Feature", "properties": {"collection_times": [{"days": "Mon-Fri", "time": "3:50pm"}, {"days": "Sat", "time": "11:30am"}, {"days": "Sun", "time": "Closed"}], "id": "4940800001", "name": "USPS COLLECTION BOX - BLUE BOX", "address": {"city": "FENNVILLE", "state": "MI", "street": "100 W MAIN ST", "postcode": "49408"}}},
{"geometry": {"type": "Point", "coordinates": [-86.10476122, 42.594316858]}, "type": "Feature", "properties": {"collection_times": [{"days": "Mon-Fri", "time": "3:50pm"}, {"days": "Sat", "time": "11:30am"}, {"days": "Sun", "time": "Closed"}], "id": "4940800003", "name": "USPS COLLECTION BOX - BLUE BOX", "address": {"city": "FENNVILLE", "state": "MI", "street": "100 W MAIN ST", "postcode": "49408"}}},
{"geometry": {"type": "Point", "coordinates": [-86.10476122, 42.594316858]}, "type": "Feature", "properties": {"collection_times": [{"days": "Mon-Fri", "time": "3:50pm"}, {"days": "Sat", "time": "11:30am"}, {"days": "Sun", "time": "Closed"}], "id": "4940800009", "name": "USPS COLLECTION BOX - PO LOBBY", "address": {"city": "FENNVILLE", "state": "MI", "street": "100 W MAIN ST", "postcode": "49408"}}},
{"geometry": {"type": "Point", "coordinates": [-86.214290216, 43.080266364]}, "type": "Feature", "properties": {"collection_times": [{"days": "Mon-Fri", "time": "2:00pm"}, {"days": "Sat", "time": "11:00am"}, {"days": "Sun", "time": "Closed"}], "id": "4940900001", "name": "USPS COLLECTION BOX - BLUE BOX", "address": {"city": "FERRYSBURG", "state": "MI", "street": "110 4TH ST", "postcode": "49409"}}},
{"geometry": {"type": "Point", "coordinates": [-86.214290216, 43.080266364]}, "type": "Feature", "properties": {"collection_times": [{"days": "Mon-Fri", "time": "2:00pm"}, {"days": "Sat", "time": "11:00am"}, {"days": "Sun", "time": "Closed"}], "id": "4940900002", "name": "USPS COLLECTION BOX - PO LOBBY", "address": {"city": "FERRYSBURG", "state": "MI", "street": "110 4TH ST", "postcode": "49409"}}},
{"geometry": {"type": "Point", "coordinates": [-86.180815687, 44.045284618]}, "type": "Feature", "properties": {"collection_times": [{"days": "Mon-Fri", "time": "1:00pm"}, {"days": "Sat", "time": "8:00am"}, {"days": "Sun", "time": "Closed"}], "id": "4941000001", "name": "USPS COLLECTION BOX - BLUE BOX", "address": {"city": "FOUNTAIN", "state": "MI", "street": "5016 N CLEVELAND ST", "postcode": "49410"}}},
{"geometry": {"type": "Point", "coordinates": [-86.180815687, 44.045284618]}, "type": "Feature", "properties": {"collection_times": [{"days": "Mon-Fri", "time": "1:00pm"}, {"days": "Sat", "time": "8:00am"}, {"days": "Sun", "time": "Closed"}], "id": "4941000002", "name": "USPS COLLECTION BOX - PO LOBBY", "address": {"city": "FOUNTAIN", "state": "MI", "street": "5016 N CLEVELAND ST", "postcode": "49410"}}},
{"geometry": {"type": "Point", "coordinates": [-86.21511064, 44.107236379]}, "type": "Feature", "properties": {"collection_times": [{"days": "Mon-Fri", "time": "3:15pm"}, {"days": "Sat", "time": "9:15am"}, {"days": "Sun", "time": "Closed"}], "id": "4941100001", "name": "USPS COLLECTION BOX - BLUE BOX", "address": {"city": "FREE SOIL", "state": "MI", "street": "2650 E MICHIGAN ST", "postcode": "49411"}}},
{"geometry": {"type": "Point", "coordinates": [-86.21511064, 44.107236379]}, "type": "Feature", "properties": {"collection_times": [{"days": "Mon-Fri", "time": "3:15pm"}, {"days": "Sat", "time": "9:15am"}, {"days": "Sun", "time": "Closed"}], "id": "4941100002", "name": "USPS COLLECTION BOX - PO LOBBY", "address": {"city": "FREE SOIL", "state": "MI", "street": "2650 E MICHIGAN ST", "postcode": "49411"}}},
{"geometry": {"type": "Point", "coordinates": [-85.9487508675, 43.467061095]}, "type": "Feature", "properties": {"collection_times": [{"days": "Mon-Sat", "time": "11:15am"}, {"days": "Sun", "time": "Closed"}], "id": "4941200011", "name": "USPS COLLECTION BOX - BLUE BOX", "address": {"city": "FREMONT", "state": "MI", "street": "921 W MAIN ST", "postcode": "49412"}}},
{"geometry": {"type": "Point", "coordinates": [-85.944958168, 43.466529665]}, "type": "Feature", "properties": {"collection_times": [{"days": "Mon-Fri", "time": "4:10pm"}, {"days": "Sat", "time": "12:00pm"}, {"days": "Sun", "time": "Closed"}], "id": "4941200019", "name": "USPS COLLECTION BOX - BLUE BOX", "address": {"city": "FREMONT", "state": "MI", "street": "19 S DIVISION AVE", "postcode": "49412"}}},
{"geometry": {"type": "Point", "coordinates": [-85.944958168, 43.466529665]}, "type": "Feature", "properties": {"collection_times": [{"days": "Mon-Fri", "time": "4:10pm"}, {"days": "Sat", "time": "12:00pm"}, {"days": "Sun", "time": "Closed"}], "id": "4941200020", "name": "USPS COLLECTION BOX - BLUE BOX", "address": {"city": "FREMONT", "state": "MI", "street": "19 S DIVISION AVE", "postcode": "49412"}}},
{"geometry": {"type": "Point", "coordinates": [-85.9744371701, 43.4672608956]}, "type": "Feature", "properties": {"collection_times": [{"days": "Mon-Sat", "time": "9:30am"}, {"days": "Sun", "time": "Closed"}], "id": "4941200024", "name": "USPS COLLECTION BOX - BLUE BOX", "address": {"city": "FREMONT", "state": "MI", "street": "7083 W 48TH ST", "postcode": "49412"}}},
{"geometry": {"type": "Point", "coordinates": [-85.944958168, 43.466529665]}, "type": "Feature", "properties": {"collection_times": [{"days": "Mon-Fri", "time": "4:10pm"}, {"days": "Sat", "time": "12:00pm"}, {"days": "Sun", "time": "Closed"}], "id": "4941200025", "name": "USPS COLLECTION BOX - BLUE BOX", "address": {"city": "FREMONT", "state": "MI", "street": "19 S DIVISION AVE", "postcode": "49412"}}},
{"geometry": {"type": "Point", "coordinates": [-85.944958168, 43.466529665]}, "type": "Feature", "properties": {"collection_times": [{"days": "Mon-Fri", "time": "4:10pm"}, {"days": "Sat", "time": "12:00pm"}, {"days": "Sun", "time": "Closed"}], "id": "4941200026", "name": "USPS COLLECTION BOX - PO LOBBY", "address": {"city": "FREMONT", "state": "MI", "street": "19 S DIVISION AVE", "postcode": "49412"}}},
{"geometry": {"type": "Point", "coordinates": [-86.1549919858, 43.1325541857]}, "type": "Feature", "properties": {"collection_times": [{"days": "Mon-Sat", "time": "12:00pm"}, {"days": "Sun", "time": "Closed"}], "id": "4941500001", "name": "USPS COLLECTION BOX - BLUE BOX", "address": {"city": "FRUITPORT", "state": "MI", "street": "6530 AIRLINE RD", "postcode": "49415"}}},
{"geometry": {"type": "Point", "coordinates": [-86.155287626, 43.125340172]}, "type": "Feature", "properties": {"collection_times": [{"days": "Mon-Fri", "time": "4:00pm"}, {"days": "Sat", "time": "12:00pm"}, {"days": "Sun", "time": "Closed"}], "id": "4941500002", "name": "USPS COLLECTION BOX - BLUE BOX", "address": {"city": "FRUITPORT", "state": "MI", "street": "53 N 3RD AVE", "postcode": "49415"}}},
{"geometry": {"type": "Point", "coordinates": [-86.155287626, 43.125340172]}, "type": "Feature", "properties": {"collection_times": [{"days": "Mon-Fri", "time": "4:00pm"}, {"days": "Sat", "time": "12:00pm"}, {"days": "Sun", "time": "Closed"}], "id": "4941500003", "name": "USPS COLLECTION BOX - PO LOBBY", "address": {"city": "FRUITPORT", "state": "MI", "street": "53 N 3RD AVE", "postcode": "49415"}}},
{"geometry": {"type": "Point", "coordinates": [-86.22761, 42.520386]}, "type": "Feature", "properties": {"collection_times": [{"days": "Mon-Sat", "time": "10:30am"}, {"days": "Sun", "time": "Closed"}], "id": "4941600001", "name": "USPS COLLECTION BOX - BLUE BOX", "address": {"city": "GLENN", "state": "MI", "street": "PO BOX 269", "postcode": "49416"}}},
{"geometry": {"type": "Point", "coordinates": [-86.2204461644, 43.0453705917]}, "type": "Feature", "properties": {"collection_times": [{"days": "Mon-Sat", "time": "1:00pm"}, {"days": "Sun", "time": "Closed"}], "id": "4941700001", "name": "USPS COLLECTION BOX - BLUE BOX", "address": {"city": "GRAND HAVEN", "state": "MI", "street": "1705 S BEACON BLVD", "postcode": "49417"}}},
{"geometry": {"type": "Point", "coordinates": [-86.217028281, 43.0445060857]}, "type": "Feature", "properties": {"collection_times": [{"days": "Mon-Sat", "time": "1:00pm"}, {"days": "Sun", "time": "Closed"}], "id": "4941700018", "name": "USPS COLLECTION BOX - BLUE BOX", "address": {"city": "GRAND HAVEN", "state": "MI", "street": "17270 ROBBINS RD", "postcode": "49417"}}},
{"geometry": {"type": "Point", "coordinates": [-86.228528962, 43.063193004]}, "type": "Feature", "properties": {"collection_times": [{"days": "Mon-Fri", "time": "5:00pm"}, {"days": "Sat", "time": "3:30pm"}, {"days": "Sun", "time": "Closed"}], "id": "4941700021", "name": "USPS COLLECTION BOX - PO LOBBY", "address": {"city": "GRAND HAVEN", "state": "MI", "street": "324 WASHINGTON AVE", "postcode": "49417"}}},
{"geometry": {"type": "Point", "coordinates": [-86.228528962, 43.063193004]}, "type": "Feature", "properties": {"collection_times": [{"days": "Mon-Fri", "time": "5:00pm"}, {"days": "Sat", "time": "3:30pm"}, {"days": "Sun", "time": "Closed"}], "id": "4941700023", "name": "USPS COLLECTION BOX - BLUE BOX", "address": {"city": "GRAND HAVEN", "state": "MI", "street": "324 WASHINGTON AVE", "postcode": "49417"}}},
{"geometry": {"type": "Point", "coordinates": [-86.2334372605, 43.0647888863]}, "type": "Feature", "properties": {"collection_times": [{"days": "Mon-Sat", "time": "12:30pm"}, {"days": "Sun", "time": "Closed"}], "id": "4941700032", "name": "USPS COLLECTION BOX - BLUE BOX", "address": {"city": "GRAND HAVEN", "state": "MI", "street": "41 WASHINGTON AVE", "postcode": "49417"}}},
{"geometry": {"type": "Point", "coordinates": [-86.2142972156, 43.0446776345]}, "type": "Feature", "properties": {"collection_times": [{"days": "Mon-Sat", "time": "1:30pm"}, {"days": "Sun", "time": "Closed"}], "id": "4941700041", "name": "USPS COLLECTION BOX - BLUE BOX", "address": {"city": "GRAND HAVEN", "state": "MI", "street": "1116 ROBBINS RD", "postcode": "49417"}}},
{"geometry": {"type": "Point", "coordinates": [-86.1957742719, 43.030327888]}, "type": "Feature", "properties": {"collection_times": [{"days": "Mon-Sat", "time": "12:00pm"}, {"days": "Sun", "time": "Closed"}], "id": "4941700042", "name": "USPS COLLECTION BOX - BLUE BOX", "address": {"city": "GRAND HAVEN", "state": "MI", "street": "1811 HAYES ST", "postcode": "49417"}}},
{"geometry": {"type": "Point", "coordinates": [-86.2190989789, 43.0517786413]}, "type": "Feature", "properties": {"collection_times": [{"days": "Mon-Sat", "time": "1:30pm"}, {"days": "Sun", "time": "Closed"}], "id": "4941700050", "name": "USPS COLLECTION BOX - BLUE BOX", "address": {"city": "GRAND HAVEN", "state": "MI", "street": "950 TAYLOR AVE", "postcode": "49417"}}},
{"geometry": {"type": "Point", "coordinates": [-86.2240409187, 43.066537384]}, "type": "Feature", "properties": {"collection_times": [{"days": "Mon-Sat", "time": "10:00am"}, {"days": "Sun", "time": "Closed"}], "id": "4941700055", "name": "USPS COLLECTION BOX - BLUE BOX", "address": {"city": "GRAND HAVEN", "state": "MI", "street": "500 JACKSON ST", "postcode": "49417"}}},
{"geometry": {"type": "Point", "coordinates": [-86.2057050073, 43.0527743557]}, "type": "Feature", "properties": {"collection_times": [{"days": "Mon-Sat", "time": "12:00pm"}, {"days": "Sun", "time": "Closed"}], "id": "4941700057", "name": "USPS COLLECTION BOX - BLUE BOX", "address": {"city": "GRAND HAVEN", "state": "MI", "street": "925 S BEECHTREE ST", "postcode": "49417"}}},
{"geometry": {"type": "Point", "coordinates": [-86.222851995, 43.0616975216]}, "type": "Feature", "properties": {"collection_times": [{"days": "Mon-Sat", "time": "11:00am"}, {"days": "Sun", "time": "Closed"}], "id": "4941700059", "name": "USPS COLLECTION BOX - BLUE BOX", "address": {"city": "GRAND HAVEN", "state": "MI", "street": "18 N 7TH ST", "postcode": "49417"}}},
{"geometry": {"type": "Point", "coordinates": [-86.228528962, 43.063193004]}, "type": "Feature", "properties": {"collection_times": [{"days": "Mon-Fri", "time": "5:00pm"}, {"days": "Sat", "time": "3:30pm"}, {"days": "Sun", "time": "Closed"}], "id": "4941700060", "name": "USPS COLLECTION BOX - APC", "address": {"city": "GRAND HAVEN", "state": "MI", "street": "324 WASHINGTON AVE", "postcode": "49417"}}},
{"geometry": {"type": "Point", "coordinates": [-85.7632298729, 42.9109317853]}, "type": "Feature", "properties": {"collection_times": [{"days": "Mon-Fri", "time": "5:00pm"}, {"days": "Sat", "time": "11:00am"}, {"days": "Sun", "time": "Closed"}], "id": "4941800019", "name": "USPS COLLECTION BOX - BLUE BOX", "address": {"city": "GRANDVILLE", "state": "MI", "street": "2939 WILSON AVE SW", "postcode": "49418"}}},
{"geometry": {"type": "Point", "coordinates": [-85.7632298729, 42.9109317853]}, "type": "Feature", "properties": {"collection_times": [{"days": "Mon-Fri", "time": "5:00pm"}, {"days": "Sat", "time": "12:00pm"}, {"days": "Sun", "time": "Closed"}], "id": "4941800023", "name": "USPS COLLECTION BOX - APC", "address": {"city": "GRANDVILLE", "state": "MI", "street": "2939 WILSON AVE SW", "postcode": "49418"}}},
{"geometry": {"type": "Point", "coordinates": [-85.760746485, 42.8883016072]}, "type": "Feature", "properties": {"collection_times": [{"days": "Mon-Fri", "time": "2:00pm"}, {"days": "Sat-Sun", "time": "Closed"}], "id": "4941800025", "name": "USPS COLLECTION BOX - BLUE BOX", "address": {"city": "GRANDVILLE", "state": "MI", "street": "4542 KENOWA AVE SW", "postcode": "49418"}}},
{"geometry": {"type": "Point", "coordinates": [-85.9981350013, 42.6703766302]}, "type": "Feature", "properties": {"collection_times": [{"days": "Mon-Fri", "time": "12:00pm"}, {"days": "Sat", "time": "10:00am"}, {"days": "Sun", "time": "Closed"}], "id": "4941900000", "name": "USPS COLLECTION BOX - BLUE BOX", "address": {"city": "HAMILTON", "state": "MI", "street": "3416 LINCOLN RD", "postcode": "49419"}}},
{"geometry": {"type": "Point", "coordinates": [-86.001666223, 42.672866419]}, "type": "Feature", "properties": {"collection_times": [{"days": "Mon-Fri", "time": "4:00pm"}, {"days": "Sat", "time": "11:00am"}, {"days": "Sun", "time": "Closed"}], "id": "4941900001", "name": "USPS COLLECTION BOX - PO LOBBY", "address": {"city": "HAMILTON", "state": "MI", "street": "4668 PINE ST", "postcode": "49419"}}},
{"geometry": {"type": "Point", "coordinates": [-86.001666223, 42.672866419]}, "type": "Feature", "properties": {"collection_times": [{"days": "Mon-Fri", "time": "4:00pm"}, {"days": "Sat", "time": "11:00am"}, {"days": "Sun", "time": "Closed"}], "id": "4941900002", "name": "USPS COLLECTION BOX - BLUE BOX", "address": {"city": "HAMILTON", "state": "MI", "street": "4668 PINE ST", "postcode": "49419"}}},
{"geometry": {"type": "Point", "coordinates": [-86.3634947517, 43.7026101879]}, "type": "Feature", "properties": {"collection_times": [{"days": "Mon-Sat", "time": "9:00am"}, {"days": "Sun", "time": "Closed"}], "id": "4942000002", "name": "USPS COLLECTION BOX - BLUE BOX", "address": {"city": "HART", "state": "MI", "street": "44 S STATE ST", "postcode": "49420"}}},
{"geometry": {"type": "Point", "coordinates": [-86.3639544143, 43.6951641715]}, "type": "Feature", "properties": {"collection_times": [{"days": "Mon-Sat", "time": "9:30am"}, {"days": "Sun", "time": "Closed"}], "id": "4942000004", "name": "USPS COLLECTION BOX - BLUE BOX", "address": {"city": "HART", "state": "MI", "street": "704 S STATE ST", "postcode": "49420"}}},
{"geometry": {"type": "Point", "coordinates": [-86.363659817, 43.701504212]}, "type": "Feature", "properties": {"collection_times": [{"days": "Mon-Fri", "time": "2:55pm"}, {"days": "Sat", "time": "11:00am"}, {"days": "Sun", "time": "Closed"}], "id": "4942000005", "name": "USPS COLLECTION BOX - BLUE BOX", "address": {"city": "HART", "state": "MI", "street": "135 S STATE ST", "postcode": "49420"}}},
{"geometry": {"type": "Point", "coordinates": [-86.363659817, 43.701504212]}, "type": "Feature", "properties": {"collection_times": [{"days": "Mon-Fri", "time": "2:55pm"}, {"days": "Sat", "time": "11:00am"}, {"days": "Sun", "time": "Closed"}], "id": "4942000006", "name": "USPS COLLECTION BOX - BLUE BOX", "address": {"city": "HART", "state": "MI", "street": "135 S STATE ST", "postcode": "49420"}}},
{"geometry": {"type": "Point", "coordinates": [-86.3607087573, 43.6964921797]}, "type": "Feature", "properties": {"collection_times": [{"days": "Mon-Fri", "time": "12:00pm"}, {"days": "Sat", "time": "11:00am"}, {"days": "Sun", "time": "Closed"}], "id": "4942000008", "name": "USPS COLLECTION BOX - BLUE BOX", "address": {"city": "HART", "state": "MI", "street": "408 WOOD ST", "postcode": "49420"}}},
{"geometry": {"type": "Point", "coordinates": [-86.3717915568, 43.6888469819]}, "type": "Feature", "properties": {"collection_times": [{"days": "Mon-Sat", "time": "9:00am"}, {"days": "Sun", "time": "Closed"}], "id": "4942000009", "name": "USPS COLLECTION BOX - BLUE BOX", "address": {"city": "HART", "state": "MI", "street": "3750 W POLK RD", "postcode": "49420"}}},
{"geometry": {"type": "Point", "coordinates": [-86.3782348891, 43.7042126534]}, "type": "Feature", "properties": {"collection_times": [{"days": "Mon-Sat", "time": "9:30am"}, {"days": "Sun", "time": "Closed"}], "id": "4942000013", "name": "USPS COLLECTION BOX - BLUE BOX", "address": {"city": "HART", "state": "MI", "street": "3241 N 72ND AVE", "postcode": "49420"}}},
{"geometry": {"type": "Point", "coordinates": [-86.363659817, 43.701504212]}, "type": "Feature", "properties": {"collection_times": [{"days": "Mon-Fri", "time": "2:55pm"}, {"days": "Sat", "time": "11:00am"}, {"days": "Sun", "time": "Closed"}], "id": "4942000015", "name": "USPS COLLECTION BOX - PO LOBBY", "address": {"city": "HART", "state": "MI", "street": "135 S STATE ST", "postcode": "49420"}}},
{"geometry": {"type": "Point", "coordinates": [-86.3542512265, 43.7029494358]}, "type": "Feature", "properties": {"collection_times": [{"days": "Mon-Sat", "time": "10:00am"}, {"days": "Sun", "time": "Closed"}], "id": "4942000016", "name": "USPS COLLECTION BOX - BLUE BOX", "address": {"city": "HART", "state": "MI", "street": "710 E MAIN ST", "postcode": "49420"}}},
{"geometry": {"type": "Point", "coordinates": [-86.040922469, 43.571679827]}, "type": "Feature", "properties": {"collection_times": [{"days": "Mon-Fri", "time": "4:00pm"}, {"days": "Sat", "time": "10:00am"}, {"days": "Sun", "time": "Closed"}], "id": "4942100001", "name": "USPS COLLECTION BOX - BLUE BOX", "address": {"city": "HESPERIA", "state": "MI", "street": "100 W MICHIGAN AVE", "postcode": "49421"}}},
{"geometry": {"type": "Point", "coordinates": [-86.040922469, 43.571679827]}, "type": "Feature", "properties": {"collection_times": [{"days": "Mon-Fri", "time": "4:00pm"}, {"days": "Sat", "time": "10:00am"}, {"days": "Sun", "time": "Closed"}], "id": "4942100003", "name": "USPS COLLECTION BOX - PO LOBBY", "address": {"city": "HESPERIA", "state": "MI", "street": "100 W MICHIGAN AVE", "postcode": "49421"}}},
{"geometry": {"type": "Point", "coordinates": [-86.0774504908, 42.797689216]}, "type": "Feature", "properties": {"collection_times": [{"days": "Mon-Sat", "time": "10:00am"}, {"days": "Sun", "time": "Closed"}], "id": "4942300003", "name": "USPS COLLECTION BOX - BLUE BOX", "address": {"city": "HOLLAND", "state": "MI", "street": "710 CHICAGO DR", "postcode": "49423"}}},
{"geometry": {"type": "Point", "coordinates": [-86.0971023863, 42.7684026219]}, "type": "Feature", "properties": {"collection_times": [{"days": "Mon-Sat", "time": "2:30pm"}, {"days": "Sun", "time": "Closed"}], "id": "4942300025", "name": "USPS COLLECTION BOX - BLUE BOX", "address": {"city": "HOLLAND", "state": "MI", "street": "803 LINCOLN AVE", "postcode": "49423"}}},
{"geometry": {"type": "Point", "coordinates": [-86.1125437449, 42.7747913162]}, "type": "Feature", "properties": {"collection_times": [{"days": "Mon-Sat", "time": "9:30am"}, {"days": "Sun", "time": "Closed"}], "id": "4942300027", "name": "USPS COLLECTION BOX - BLUE BOX", "address": {"city": "HOLLAND", "state": "MI", "street": "601 MICHIGAN AVE", "postcode": "49423"}}},
{"geometry": {"type": "Point", "coordinates": [-86.1070216381, 42.7865959021]}, "type": "Feature", "properties": {"collection_times": [{"days": "Mon-Sat", "time": "10:00am"}, {"days": "Sun", "time": "Closed"}], "id": "4942300033", "name": "USPS COLLECTION BOX - BLUE BOX", "address": {"city": "HOLLAND", "state": "MI", "street": "8 E 12TH ST", "postcode": "49423"}}},
{"geometry": {"type": "Point", "coordinates": [-86.098879973, 42.790341888]}, "type": "Feature", "properties": {"collection_times": [{"days": "Mon-Fri", "time": "5:00pm"}, {"days": "Sat", "time": "4:00pm"}, {"days": "Sun", "time": "Closed"}], "id": "4942300047", "name": "USPS COLLECTION BOX - BLUE BOX", "address": {"city": "HOLLAND", "state": "MI", "street": "190 E 8TH ST", "postcode": "49423"}}},
{"geometry": {"type": "Point", "coordinates": [-86.0987802509, 42.7903416481]}, "type": "Feature", "properties": {"collection_times": [{"days": "Mon-Fri", "time": "5:00pm"}, {"days": "Sat", "time": "4:00pm"}, {"days": "Sun", "time": "Closed"}], "id": "4942300049", "name": "USPS COLLECTION BOX - BLUE BOX", "address": {"city": "HOLLAND", "state": "MI", "street": "190 E 8TH ST", "postcode": "49423"}}},
{"geometry": {"type": "Point", "coordinates": [-86.109012632, 42.7902493643]}, "type": "Feature", "properties": {"collection_times": [{"days": "Mon-Sat", "time": "9:30am"}, {"days": "Sun", "time": "Closed"}], "id": "4942300054", "name": "USPS COLLECTION BOX - BLUE BOX", "address": {"city": "HOLLAND", "state": "MI", "street": "194 S RIVER AVE", "postcode": "49423"}}},
{"geometry": {"type": "Point", "coordinates": [-86.1151501643, 42.7712284471]}, "type": "Feature", "properties": {"collection_times": [{"days": "Mon-Sat", "time": "9:00am"}, {"days": "Sun", "time": "Closed"}], "id": "4942300056", "name": "USPS COLLECTION BOX - BLUE BOX", "address": {"city": "HOLLAND", "state": "MI", "street": "700 MICHIGAN AVE", "postcode": "49423"}}},
{"geometry": {"type": "Point", "coordinates": [-86.1162860763, 42.7563079757]}, "type": "Feature", "properties": {"collection_times": [{"days": "Mon-Sat", "time": "3:00pm"}, {"days": "Sun", "time": "Closed"}], "id": "4942300077", "name": "USPS COLLECTION BOX - BLUE BOX", "address": {"city": "HOLLAND", "state": "MI", "street": "1185 WASHINGTON AVE", "postcode": "49423"}}},
{"geometry": {"type": "Point", "coordinates": [-86.1354229098, 42.8269742356]}, "type": "Feature", "properties": {"collection_times": [{"days": "Mon-Sat", "time": "10:00am"}, {"days": "Sun", "time": "Closed"}], "id": "4942300087", "name": "USPS COLLECTION BOX - BLUE BOX", "address": {"city": "HOLLAND", "state": "MI", "street": "977 BUTTERNUT DR", "postcode": "49423"}}},
{"geometry": {"type": "Point", "coordinates": [-86.1103957573, 42.8035656328]}, "type": "Feature", "properties": {"collection_times": [{"days": "Mon-Sat", "time": "2:30pm"}, {"days": "Sun", "time": "Closed"}], "id": "4942300088", "name": "USPS COLLECTION BOX - BLUE BOX", "address": {"city": "HOLLAND", "state": "MI", "street": "91 DOUGLAS AVE", "postcode": "49423"}}},
{"geometry": {"type": "Point", "coordinates": [-86.1230196553, 42.8135409902]}, "type": "Feature", "properties": {"collection_times": [{"days": "Mon-Sat", "time": "12:30pm"}, {"days": "Sun", "time": "Closed"}], "id": "4942300096", "name": "USPS COLLECTION BOX - BLUE BOX", "address": {"city": "HOLLAND", "state": "MI", "street": "520 BUTTERNUT DR", "postcode": "49423"}}},
{"geometry": {"type": "Point", "coordinates": [-86.1360647319, 42.7975404244]}, "type": "Feature", "properties": {"collection_times": [{"days": "Mon-Sat", "time": "9:00am"}, {"days": "Sun", "time": "Closed"}], "id": "4942300097", "name": "USPS COLLECTION BOX - BLUE BOX", "address": {"city": "HOLLAND", "state": "MI", "street": "645 DOUGLAS AVE", "postcode": "49423"}}},
{"geometry": {"type": "Point", "coordinates": [-86.0859587624, 42.8212834067]}, "type": "Feature", "properties": {"collection_times": [{"days": "Mon-Sat", "time": "10:00am"}, {"days": "Sun", "time": "Closed"}], "id": "4942300100", "name": "USPS COLLECTION BOX - BLUE BOX", "address": {"city": "HOLLAND", "state": "MI", "street": "2900 MILLPOND DR W", "postcode": "49423"}}},
{"geometry": {"type": "Point", "coordinates": [-86.098879973, 42.790341888]}, "type": "Feature", "properties": {"collection_times": [{"days": "Mon-Fri", "time": "5:00pm"}, {"days": "Sat", "time": "4:00pm"}, {"days": "Sun", "time": "Closed"}], "id": "4942300109", "name": "USPS COLLECTION BOX - PO LOBBY", "address": {"city": "HOLLAND", "state": "MI", "street": "190 E 8TH ST", "postcode": "49423"}}},
{"geometry": {"type": "Point", "coordinates": [-86.0795324316, 42.8280829531]}, "type": "Feature", "properties": {"collection_times": [{"days": "Mon-Sat", "time": "10:00am"}, {"days": "Sun", "time": "Closed"}], "id": "4942300111", "name": "USPS COLLECTION BOX - BLUE BOX", "address": {"city": "HOLLAND", "state": "MI", "street": "12100 CLEAR VIEW LN", "postcode": "49423"}}},
{"geometry": {"type": "Point", "coordinates": [-86.0871575751, 42.827850824]}, "type": "Feature", "properties": {"collection_times": [{"days": "Mon-Sat", "time": "10:00am"}, {"days": "Sun", "time": "Closed"}], "id": "4942300113", "name": "USPS COLLECTION BOX - BLUE BOX", "address": {"city": "HOLLAND", "state": "MI", "street": "3235 N WELLNESS DR", "postcode": "49423"}}},
{"geometry": {"type": "Point", "coordinates": [-86.0850538529, 42.8121446182]}, "type": "Feature", "properties": {"collection_times": [{"days": "Mon-Sat", "time": "10:00am"}, {"days": "Sun", "time": "Closed"}], "id": "4942300115", "name": "USPS COLLECTION BOX - BLUE BOX", "address": {"city": "HOLLAND", "state": "MI", "street": "12265 JAMES ST", "postcode": "49423"}}},
{"geometry": {"type": "Point", "coordinates": [-86.098879973, 42.790341888]}, "type": "Feature", "properties": {"collection_times": [{"days": "Mon-Fri", "time": "5:00pm"}, {"days": "Sat", "time": "4:00pm"}, {"days": "Sun", "time": "Closed"}], "id": "4942300116", "name": "USPS COLLECTION BOX - APC", "address": {"city": "HOLLAND", "state": "MI", "street": "190 E 8TH ST", "postcode": "49423"}}},
{"geometry": {"type": "Point", "coordinates": [-86.078978914, 43.413229717]}, "type": "Feature", "properties": {"collection_times": [{"days": "Mon-Fri", "time": "2:00pm"}, {"days": "Sat", "time": "10:00am"}, {"days": "Sun", "time": "Closed"}], "id": "4942500001", "name": "USPS COLLECTION BOX - BLUE BOX", "address": {"city": "HOLTON", "state": "MI", "street": "8779 HOLTON DUCK LAKE RD", "postcode": "49425"}}},
{"geometry": {"type": "Point", "coordinates": [-86.078978914, 43.413229717]}, "type": "Feature", "properties": {"collection_times": [{"days": "Mon-Fri", "time": "2:00pm"}, {"days": "Sat", "time": "10:00am"}, {"days": "Sun", "time": "Closed"}], "id": "4942500002", "name": "USPS COLLECTION BOX - PO LOBBY", "address": {"city": "HOLTON", "state": "MI", "street": "8779 HOLTON DUCK LAKE RD", "postcode": "49425"}}},
{"geometry": {"type": "Point", "coordinates": [-86.0992788985, 43.4279903953]}, "type": "Feature", "properties": {"collection_times": [{"days": "Mon-Sat", "time": "11:00am"}, {"days": "Sun", "time": "Closed"}], "id": "4942500003", "name": "USPS COLLECTION BOX - BLUE BOX", "address": {"city": "HOLTON", "state": "MI", "street": "8505 HOLTON RD", "postcode": "49425"}}},
{"geometry": {"type": "Point", "coordinates": [-85.864380253, 42.865937336]}, "type": "Feature", "properties": {"collection_times": [{"days": "Mon-Fri", "time": "5:00pm"}, {"days": "Sat", "time": "3:45pm"}, {"days": "Sun", "time": "Closed"}], "id": "4942600002", "name": "USPS COLLECTION BOX - BLUE BOX", "address": {"city": "HUDSONVILLE", "state": "MI", "street": "3333 CENTRAL BLVD", "postcode": "49426"}}},
{"geometry": {"type": "Point", "coordinates": [-85.8526540109, 42.8845766845]}, "type": "Feature", "properties": {"collection_times": [{"days": "Mon-Fri", "time": "12:00pm"}, {"days": "Sat", "time": "10:00am"}, {"days": "Sun", "time": "Closed"}], "id": "4942600003", "name": "USPS COLLECTION BOX - BLUE BOX", "address": {"city": "HUDSONVILLE", "state": "MI", "street": "6480 BALSAM DR", "postcode": "49426"}}},
{"geometry": {"type": "Point", "coordinates": [-85.864380253, 42.865937336]}, "type": "Feature", "properties": {"collection_times": [{"days": "Mon-Fri", "time": "5:00pm"}, {"days": "Sat", "time": "4:00pm"}, {"days": "Sun", "time": "Closed"}], "id": "4942600007", "name": "USPS COLLECTION BOX - PO LOBBY", "address": {"city": "HUDSONVILLE", "state": "MI", "street": "3333 CENTRAL BLVD", "postcode": "49426"}}},
{"geometry": {"type": "Point", "coordinates": [-85.8686565287, 42.8644066603]}, "type": "Feature", "properties": {"collection_times": [{"days": "Mon-Fri", "time": "2:15pm"}, {"days": "Sat", "time": "10:00am"}, {"days": "Sun", "time": "Closed"}], "id": "4942600009", "name": "USPS COLLECTION BOX - BLUE BOX", "address": {"city": "HUDSONVILLE", "state": "MI", "street": "5221 CHERRY AVE", "postcode": "49426"}}},
{"geometry": {"type": "Point", "coordinates": [-85.8610232364, 42.8545104632]}, "type": "Feature", "properties": {"collection_times": [{"days": "Mon-Sat", "time": "10:00am"}, {"days": "Sun", "time": "Closed"}], "id": "4942600010", "name": "USPS COLLECTION BOX - BLUE BOX", "address": {"city": "HUDSONVILLE", "state": "MI", "street": "4554 32ND AVE", "postcode": "49426"}}},
{"geometry": {"type": "Point", "coordinates": [-85.842259152, 42.82586415]}, "type": "Feature", "properties": {"collection_times": [{"days": "Mon-Fri", "time": "1:00pm"}, {"days": "Sat", "time": "11:30am"}, {"days": "Sun", "time": "Closed"}], "id": "4942700003", "name": "USPS COLLECTION BOX - BLUE BOX", "address": {"city": "JAMESTOWN", "state": "MI", "street": "3209 24TH AVE", "postcode": "49427"}}},
{"geometry": {"type": "Point", "coordinates": [-85.842259152, 42.82586415]}, "type": "Feature", "properties": {"collection_times": [{"days": "Mon-Fri", "time": "1:00pm"}, {"days": "Sat", "time": "11:30am"}, {"days": "Sun", "time": "Closed"}], "id": "4942700004", "name": "USPS COLLECTION BOX - PO LOBBY", "address": {"city": "JAMESTOWN", "state": "MI", "street": "3209 24TH AVE", "postcode": "49427"}}},
{"geometry": {"type": "Point", "coordinates": [-85.842259152, 42.82586415]}, "type": "Feature", "properties": {"collection_times": [{"days": "Mon-Fri", "time": "1:00pm"}, {"days": "Sat", "time": "11:30am"}, {"days": "Sun", "time": "Closed"}], "id": "4942700005", "name": "USPS COLLECTION BOX - BLUE BOX", "address": {"city": "JAMESTOWN", "state": "MI", "street": "3209 24TH AVE", "postcode": "49427"}}},
{"geometry": {"type": "Point", "coordinates": [-85.8309859477, 42.9072386565]}, "type": "Feature", "properties": {"collection_times": [{"days": "Mon-Sat", "time": "2:15pm"}, {"days": "Sun", "time": "Closed"}], "id": "4942800002", "name": "USPS COLLECTION BOX - BLUE BOX", "address": {"city": "JENISON", "state": "MI", "street": "1965 BALDWIN ST", "postcode": "49428"}}},
{"geometry": {"type": "Point", "coordinates": [-85.7911756574, 42.9031132612]}, "type": "Feature", "properties": {"collection_times": [{"days": "Mon-Fri", "time": "5:00pm"}, {"days": "Sat", "time": "3:00pm"}, {"days": "Sun", "time": "Closed"}], "id": "4942800003", "name": "USPS COLLECTION BOX - BLUE BOX", "address": {"city": "JENISON", "state": "MI", "street": "408 CHICAGO DR", "postcode": "49428"}}},
{"geometry": {"type": "Point", "coordinates": [-85.8365766056, 42.9198088718]}, "type": "Feature", "properties": {"collection_times": [{"days": "Mon-Sat", "time": "2:00pm"}, {"days": "Sun", "time": "Closed"}], "id": "4942800014", "name": "USPS COLLECTION BOX - BLUE BOX", "address": {"city": "JENISON", "state": "MI", "street": "2876 28TH ST SW", "postcode": "49428"}}},
{"geometry": {"type": "Point", "coordinates": [-85.8365766056, 42.9198088718]}, "type": "Feature", "properties": {"collection_times": [{"days": "Mon-Sat", "time": "2:00pm"}, {"days": "Sun", "time": "Closed"}], "id": "4942800015", "name": "USPS COLLECTION BOX - BLUE BOX", "address": {"city": "JENISON", "state": "MI", "street": "3191 28TH ST SW", "postcode": "49428"}}},
{"geometry": {"type": "Point", "coordinates": [-85.8365766056, 42.9198088718]}, "type": "Feature", "properties": {"collection_times": [{"days": "Mon-Sat", "time": "2:00pm"}, {"days": "Sun", "time": "Closed"}], "id": "4942800018", "name": "USPS COLLECTION BOX - BLUE BOX", "address": {"city": "JENISON", "state": "MI", "street": "3960 44TH ST SW", "postcode": "49428"}}},
{"geometry": {"type": "Point", "coordinates": [-85.8365766056, 42.9198088718]}, "type": "Feature", "properties": {"collection_times": [{"days": "Mon-Sat", "time": "10:00am"}, {"days": "Sun", "time": "Closed"}], "id": "4942800032", "name": "USPS COLLECTION BOX - BLUE BOX", "address": {"city": "JENISON", "state": "MI", "street": "4370 WIMBLEDON DR SW", "postcode": "49428"}}},
{"geometry": {"type": "Point", "coordinates": [-85.8365766056, 42.9198088718]}, "type": "Feature", "properties": {"collection_times": [{"days": "Mon-Sat", "time": "2:00pm"}, {"days": "Sun", "time": "Closed"}], "id": "4942800033", "name": "USPS COLLECTION BOX - BLUE BOX", "address": {"city": "JENISON", "state": "MI", "street": "4380 KENOWA AVE SW", "postcode": "49428"}}},
{"geometry": {"type": "Point", "coordinates": [-85.7911756574, 42.9031132612]}, "type": "Feature", "properties": {"collection_times": [{"days": "Mon-Fri", "time": "5:00pm"}, {"days": "Sat", "time": "3:00pm"}, {"days": "Sun", "time": "Closed"}], "id": "4942800034", "name": "USPS COLLECTION BOX - BLUE BOX", "address": {"city": "JENISON", "state": "MI", "street": "408 CHICAGO DR", "postcode": "49428"}}},
{"geometry": {"type": "Point", "coordinates": [-85.8365766056, 42.9198088718]}, "type": "Feature", "properties": {"collection_times": [{"days": "Mon-Sat", "time": "2:00pm"}, {"days": "Sun", "time": "Closed"}], "id": "4942800043", "name": "USPS COLLECTION BOX - BLUE BOX", "address": {"city": "JENISON", "state": "MI", "street": "3022 28TH STREET SW", "postcode": "49428"}}},
{"geometry": {"type": "Point", "coordinates": [-85.8365766056, 42.9198088718]}, "type": "Feature", "properties": {"collection_times": [{"days": "Mon-Sat", "time": "2:00pm"}, {"days": "Sun", "time": "Closed"}], "id": "4942800044", "name": "USPS COLLECTION BOX - BLUE BOX", "address": {"city": "JENISON", "state": "MI", "street": "3195 WILSON AVE SW", "postcode": "49428"}}},
{"geometry": {"type": "Point", "coordinates": [-85.7911756574, 42.9031132612]}, "type": "Feature", "properties": {"collection_times": [{"days": "Mon-Fri", "time": "5:00pm"}, {"days": "Sat", "time": "3:00pm"}, {"days": "Sun", "time": "Closed"}], "id": "4942800046", "name": "USPS COLLECTION BOX - APC", "address": {"city": "JENISON", "state": "MI", "street": "408 CHICAGO DR", "postcode": "49428"}}},
{"geometry": {"type": "Point", "coordinates": [-85.906099954, 43.008595669]}, "type": "Feature", "properties": {"collection_times": [{"days": "Mon-Fri", "time": "4:30pm"}, {"days": "Sat", "time": "10:30am"}, {"days": "Sun", "time": "Closed"}], "id": "4943000001", "name": "USPS COLLECTION BOX - BLUE BOX", "address": {"city": "LAMONT", "state": "MI", "street": "4521 LEONARD RD", "postcode": "49430"}}},
{"geometry": {"type": "Point", "coordinates": [-85.906099954, 43.008595669]}, "type": "Feature", "properties": {"collection_times": [{"days": "Mon-Fri", "time": "4:30pm"}, {"days": "Sat", "time": "10:30am"}, {"days": "Sun", "time": "Closed"}], "id": "4943000002", "name": "USPS COLLECTION BOX - PO LOBBY", "address": {"city": "LAMONT", "state": "MI", "street": "4521 LEONARD RD", "postcode": "49430"}}},
{"geometry": {"type": "Point", "coordinates": [-86.445890794, 43.955606462]}, "type": "Feature", "properties": {"collection_times": [{"days": "Mon-Fri", "time": "4:00pm"}, {"days": "Sat", "time": "3:00pm"}, {"days": "Sun", "time": "Closed"}], "id": "4943100004", "name": "USPS COLLECTION BOX - BLUE BOX", "address": {"city": "LUDINGTON", "state": "MI", "street": "201 E LUDINGTON AVE", "postcode": "49431"}}},
{"geometry": {"type": "Point", "coordinates": [-86.4449496508, 43.9556056009]}, "type": "Feature", "properties": {"collection_times": [{"days": "Mon-Fri", "time": "3:00pm"}, {"days": "Sat-Sun", "time": "Closed"}], "id": "4943100017", "name": "USPS COLLECTION BOX - BLUE BOX", "address": {"city": "LUDINGTON", "state": "MI", "street": "304 E LUDINGTON AVE", "postcode": "49431"}}},
{"geometry": {"type": "Point", "coordinates": [-86.4599569453, 44.0037076874]}, "type": "Feature", "properties": {"collection_times": [{"days": "Mon-Sat", "time": "10:30am"}, {"days": "Sun", "time": "Closed"}], "id": "4943100018", "name": "USPS COLLECTION BOX - BLUE BOX", "address": {"city": "LUDINGTON", "state": "MI", "street": "2875 N LAKESHORE DR", "postcode": "49431"}}},
{"geometry": {"type": "Point", "coordinates": [-86.4231185237, 43.9563543421]}, "type": "Feature", "properties": {"collection_times": [{"days": "Mon-Fri", "time": "1:30pm"}, {"days": "Sat", "time": "10:00am"}, {"days": "Sun", "time": "Closed"}], "id": "4943100035", "name": "USPS COLLECTION BOX - BLUE BOX", "address": {"city": "LUDINGTON", "state": "MI", "street": "5742 W US HIGHWAY 10", "postcode": "49431"}}},
{"geometry": {"type": "Point", "coordinates": [-86.445890794, 43.955606462]}, "type": "Feature", "properties": {"collection_times": [{"days": "Mon-Fri", "time": "4:00pm"}, {"days": "Sat", "time": "3:00pm"}, {"days": "Sun", "time": "Closed"}], "id": "4943100063", "name": "USPS COLLECTION BOX - PO LOBBY", "address": {"city": "LUDINGTON", "state": "MI", "street": "201 E LUDINGTON AVE", "postcode": "49431"}}},
{"geometry": {"type": "Point", "coordinates": [-86.419324739, 43.9620498829]}, "type": "Feature", "properties": {"collection_times": [{"days": "Mon-Sat", "time": "9:45am"}, {"days": "Sun", "time": "Closed"}], "id": "4943100064", "name": "USPS COLLECTION BOX - BLUE BOX", "address": {"city": "LUDINGTON", "state": "MI", "street": "329 N JEBAVY DR", "postcode": "49431"}}},
{"geometry": {"type": "Point", "coordinates": [-86.4294570951, 43.9563794536]}, "type": "Feature", "properties": {"collection_times": [{"days": "Mon-Fri", "time": "1:30pm"}, {"days": "Sat", "time": "10:30am"}, {"days": "Sun", "time": "Closed"}], "id": "4943100065", "name": "USPS COLLECTION BOX - BLUE BOX", "address": {"city": "LUDINGTON", "state": "MI", "street": "7 N ATKINSON DR", "postcode": "49431"}}},
{"geometry": {"type": "Point", "coordinates": [-86.3840173466, 43.9560314]}, "type": "Feature", "properties": {"collection_times": [{"days": "Mon-Fri", "time": "1:30pm"}, {"days": "Sat", "time": "12:00pm"}, {"days": "Sun", "time": "Closed"}], "id": "4943100066", "name": "USPS COLLECTION BOX - BLUE BOX", "address": {"city": "LUDINGTON", "state": "MI", "street": "4854 W US HIGHWAY 10", "postcode": "49431"}}},
{"geometry": {"type": "Point", "coordinates": [-86.4294603755, 43.9562110563]}, "type": "Feature", "properties": {"collection_times": [{"days": "Mon-Fri", "time": "1:30pm"}, {"days": "Sat", "time": "10:30am"}, {"days": "Sun", "time": "Closed"}], "id": "4943100068", "name": "USPS COLLECTION BOX - BLUE BOX", "address": {"city": "LUDINGTON", "state": "MI", "street": "1 N ATKINSON DR", "postcode": "49431"}}},
{"geometry": {"type": "Point", "coordinates": [-86.4339432933, 43.9581013483]}, "type": "Feature", "properties": {"collection_times": [{"days": "Mon-Fri", "time": "1:30pm"}, {"days": "Sat", "time": "10:30am"}, {"days": "Sun", "time": "Closed"}], "id": "4943100070", "name": "USPS COLLECTION BOX - BLUE BOX", "address": {"city": "LUDINGTON", "state": "MI", "street": "915 DIANA ST", "postcode": "49431"}}},
{"geometry": {"type": "Point", "coordinates": [-86.196849278, 42.769561638]}, "type": "Feature", "properties": {"collection_times": [{"days": "Mon-Fri", "time": "2:45pm"}, {"days": "Sat", "time": "11:00am"}, {"days": "Sun", "time": "Closed"}], "id": "4943400001", "name": "USPS COLLECTION BOX - BLUE BOX", "address": {"city": "MACATAWA", "state": "MI", "street": "2150 S SHORE DR", "postcode": "49434"}}},
{"geometry": {"type": "Point", "coordinates": [-86.196849278, 42.769561638]}, "type": "Feature", "properties": {"collection_times": [{"days": "Mon-Fri", "time": "2:45pm"}, {"days": "Sat", "time": "11:00am"}, {"days": "Sun", "time": "Closed"}], "id": "4943400002", "name": "USPS COLLECTION BOX - PO LOBBY", "address": {"city": "MACATAWA", "state": "MI", "street": "2150 S SHORE DR", "postcode": "49434"}}},
{"geometry": {"type": "Point", "coordinates": [-85.826947227, 43.034721272]}, "type": "Feature", "properties": {"collection_times": [{"days": "Mon-Fri", "time": "4:00pm"}, {"days": "Sat", "time": "10:00am"}, {"days": "Sun", "time": "Closed"}], "id": "4943500002", "name": "USPS COLLECTION BOX - BLUE BOX", "address": {"city": "MARNE", "state": "MI", "street": "14614 STATE ST", "postcode": "49435"}}},
{"geometry": {"type": "Point", "coordinates": [-85.826947227, 43.034721272]}, "type": "Feature", "properties": {"collection_times": [{"days": "Mon-Fri", "time": "4:00pm"}, {"days": "Sat", "time": "10:00am"}, {"days": "Sun", "time": "Closed"}], "id": "4943500003", "name": "USPS COLLECTION BOX - PO LOBBY", "address": {"city": "MARNE", "state": "MI", "street": "14614 STATE ST", "postcode": "49435"}}},
{"geometry": {"type": "Point", "coordinates": [-86.420407196, 43.681988231]}, "type": "Feature", "properties": {"collection_times": [{"days": "Mon-Fri", "time": "1:45pm"}, {"days": "Sat", "time": "10:30am"}, {"days": "Sun", "time": "Closed"}], "id": "4943600001", "name": "USPS COLLECTION BOX - BLUE BOX", "address": {"city": "MEARS", "state": "MI", "street": "5666 W FOX RD", "postcode": "49436"}}},
{"geometry": {"type": "Point", "coordinates": [-86.4886001979, 43.6677815224]}, "type": "Feature", "properties": {"collection_times": [{"days": "Mon-Sat", "time": "10:30am"}, {"days": "Sun", "time": "Closed"}], "id": "4943600003", "name": "USPS COLLECTION BOX - BLUE BOX", "address": {"city": "MEARS", "state": "MI", "street": "8447 W HAZEL RD", "postcode": "49436"}}},
{"geometry": {"type": "Point", "coordinates": [-86.420407196, 43.681988231]}, "type": "Feature", "properties": {"collection_times": [{"days": "Mon-Fri", "time": "1:45pm"}, {"days": "Sat", "time": "10:30am"}, {"days": "Sun", "time": "Closed"}], "id": "4943600006", "name": "USPS COLLECTION BOX - PO LOBBY", "address": {"city": "MEARS", "state": "MI", "street": "5666 W FOX RD", "postcode": "49436"}}},
{"geometry": {"type": "Point", "coordinates": [-86.355370991, 43.417565753]}, "type": "Feature", "properties": {"collection_times": [{"days": "Mon-Fri", "time": "4:00pm"}, {"days": "Sat", "time": "12:00pm"}, {"days": "Sun", "time": "Closed"}], "id": "4943700010", "name": "USPS COLLECTION BOX - PO LOBBY", "address": {"city": "MONTAGUE", "state": "MI", "street": "8761 FERRY ST", "postcode": "49437"}}},
{"geometry": {"type": "Point", "coordinates": [-86.355370991, 43.417565753]}, "type": "Feature", "properties": {"collection_times": [{"days": "Mon-Fri", "time": "4:00pm"}, {"days": "Sat", "time": "12:00pm"}, {"days": "Sun", "time": "Closed"}], "id": "4943700011", "name": "USPS COLLECTION BOX - BLUE BOX", "address": {"city": "MONTAGUE", "state": "MI", "street": "8761 FERRY ST", "postcode": "49437"}}},
{"geometry": {"type": "Point", "coordinates": [-86.2078248322, 43.2341271151]}, "type": "Feature", "properties": {"collection_times": [{"days": "Mon-Sat", "time": "3:00pm"}, {"days": "Sun", "time": "Closed"}], "id": "4944000011", "name": "USPS COLLECTION BOX - BLUE BOX", "address": {"city": "MUSKEGON", "state": "MI", "street": "1465 E APPLE AVE", "postcode": "49440"}}},
{"geometry": {"type": "Point", "coordinates": [-86.1933397974, 43.2195805085]}, "type": "Feature", "properties": {"collection_times": [{"days": "Mon-Sat", "time": "3:00pm"}, {"days": "Sun", "time": "Closed"}], "id": "4944000013", "name": "USPS COLLECTION BOX - BLUE BOX", "address": {"city": "MUSKEGON", "state": "MI", "street": "2037 E LAKETON AVE", "postcode": "49440"}}},
{"geometry": {"type": "Point", "coordinates": [-86.2449848238, 43.2373311932]}, "type": "Feature", "properties": {"collection_times": [{"days": "Mon-Fri", "time": "3:00pm"}, {"days": "Sat-Sun", "time": "Closed"}], "id": "4944000018", "name": "USPS COLLECTION BOX - BLUE BOX", "address": {"city": "MUSKEGON", "state": "MI", "street": "1 W WEBSTER AVE", "postcode": "49440"}}},
{"geometry": {"type": "Point", "coordinates": [-86.2201360522, 43.1759056896]}, "type": "Feature", "properties": {"collection_times": [{"days": "Mon-Sat", "time": "1:00pm"}, {"days": "Sun", "time": "Closed"}], "id": "4944000022", "name": "USPS COLLECTION BOX - BLUE BOX", "address": {"city": "MUSKEGON", "state": "MI", "street": "4218 GRAND HAVEN RD", "postcode": "49440"}}},
{"geometry": {"type": "Point", "coordinates": [-86.2594419657, 43.1830386056]}, "type": "Feature", "properties": {"collection_times": [{"days": "Mon-Sat", "time": "11:00am"}, {"days": "Sun", "time": "Closed"}], "id": "4944000026", "name": "USPS COLLECTION BOX - BLUE BOX", "address": {"city": "MUSKEGON", "state": "MI", "street": "581 LAKE FOREST LN", "postcode": "49440"}}},
{"geometry": {"type": "Point", "coordinates": [-86.2920098622, 43.2157371371]}, "type": "Feature", "properties": {"collection_times": [{"days": "Mon-Sat", "time": "3:00pm"}, {"days": "Sun", "time": "Closed"}], "id": "4944000027", "name": "USPS COLLECTION BOX - BLUE BOX", "address": {"city": "MUSKEGON", "state": "MI", "street": "1965 LAKESHORE DR", "postcode": "49440"}}},
{"geometry": {"type": "Point", "coordinates": [-86.2645175045, 43.1907339552]}, "type": "Feature", "properties": {"collection_times": [{"days": "Mon-Sat", "time": "3:00pm"}, {"days": "Sun", "time": "Closed"}], "id": "4944000040", "name": "USPS COLLECTION BOX - BLUE BOX", "address": {"city": "MUSKEGON", "state": "MI", "street": "801 W NORTON AVE", "postcode": "49440"}}},
{"geometry": {"type": "Point", "coordinates": [-86.2673155151, 43.1908649204]}, "type": "Feature", "properties": {"collection_times": [{"days": "Mon-Sat", "time": "3:00pm"}, {"days": "Sun", "time": "Closed"}], "id": "4944000041", "name": "USPS COLLECTION BOX - BLUE BOX", "address": {"city": "MUSKEGON", "state": "MI", "street": "950 W NORTON AVE", "postcode": "49440"}}},
{"geometry": {"type": "Point", "coordinates": [-86.2354556151, 43.2341712744]}, "type": "Feature", "properties": {"collection_times": [{"days": "Mon-Sat", "time": "10:30am"}, {"days": "Sun", "time": "Closed"}], "id": "4944000044", "name": "USPS COLLECTION BOX - BLUE BOX", "address": {"city": "MUSKEGON", "state": "MI", "street": "341 E APPLE AVE", "postcode": "49440"}}},
{"geometry": {"type": "Point", "coordinates": [-86.2240273397, 43.2342007548]}, "type": "Feature", "properties": {"collection_times": [{"days": "Mon-Sat", "time": "3:00pm"}, {"days": "Sun", "time": "Closed"}], "id": "4944000045", "name": "USPS COLLECTION BOX - BLUE BOX", "address": {"city": "MUSKEGON", "state": "MI", "street": "1000 S GETTY ST", "postcode": "49440"}}},
{"geometry": {"type": "Point", "coordinates": [-86.1140572598, 43.2348704487]}, "type": "Feature", "properties": {"collection_times": [{"days": "Mon-Sat", "time": "2:00pm"}, {"days": "Sun", "time": "Closed"}], "id": "4944000047", "name": "USPS COLLECTION BOX - BLUE BOX", "address": {"city": "MUSKEGON", "state": "MI", "street": "5483 E APPLE AVE", "postcode": "49440"}}},
{"geometry": {"type": "Point", "coordinates": [-86.1956756076, 43.240249361]}, "type": "Feature", "properties": {"collection_times": [{"days": "Mon-Sat", "time": "1:00pm"}, {"days": "Sun", "time": "Closed"}], "id": "4944000049", "name": "USPS COLLECTION BOX - BLUE BOX", "address": {"city": "MUSKEGON", "state": "MI", "street": "1890 CARRIAGE RD", "postcode": "49440"}}},
{"geometry": {"type": "Point", "coordinates": [-86.1257400067, 43.2432635965]}, "type": "Feature", "properties": {"collection_times": [{"days": "Mon-Sat", "time": "1:00pm"}, {"days": "Sun", "time": "Closed"}], "id": "4944000052", "name": "USPS COLLECTION BOX - BLUE BOX", "address": {"city": "MUSKEGON", "state": "MI", "street": "516 COURTLAND LN", "postcode": "49440"}}},
{"geometry": {"type": "Point", "coordinates": [-86.202624368, 43.2342881255]}, "type": "Feature", "properties": {"collection_times": [{"days": "Mon-Sat", "time": "3:00pm"}, {"days": "Sun", "time": "Closed"}], "id": "4944000053", "name": "USPS COLLECTION BOX - BLUE BOX", "address": {"city": "MUSKEGON", "state": "MI", "street": "1640 E APPLE AVE", "postcode": "49440"}}},
{"geometry": {"type": "Point", "coordinates": [-86.2001726084, 43.2447988799]}, "type": "Feature", "properties": {"collection_times": [{"days": "Mon-Sat", "time": "1:00pm"}, {"days": "Sun", "time": "Closed"}], "id": "4944000059", "name": "USPS COLLECTION BOX - BLUE BOX", "address": {"city": "MUSKEGON", "state": "MI", "street": "410 GLEN OAKS DR", "postcode": "49440"}}},
{"geometry": {"type": "Point", "coordinates": [-86.2032405558, 43.2424952392]}, "type": "Feature", "properties": {"collection_times": [{"days": "Mon-Sat", "time": "1:00pm"}, {"days": "Sun", "time": "Closed"}], "id": "4944000060", "name": "USPS COLLECTION BOX - BLUE BOX", "address": {"city": "MUSKEGON", "state": "MI", "street": "629 GLEN OAKS DR", "postcode": "49440"}}},
{"geometry": {"type": "Point", "coordinates": [-86.2406680355, 43.2215551944]}, "type": "Feature", "properties": {"collection_times": [{"days": "Mon-Sat", "time": "3:00pm"}, {"days": "Sun", "time": "Closed"}], "id": "4944000063", "name": "USPS COLLECTION BOX - BLUE BOX", "address": {"city": "MUSKEGON", "state": "MI", "street": "1675 LEAHY ST", "postcode": "49440"}}},
{"geometry": {"type": "Point", "coordinates": [-86.2435701966, 43.2335116737]}, "type": "Feature", "properties": {"collection_times": [{"days": "Mon-Sat", "time": "2:00pm"}, {"days": "Sun", "time": "Closed"}], "id": "4944000070", "name": "USPS COLLECTION BOX - BLUE BOX", "address": {"city": "MUSKEGON", "state": "MI", "street": "990 TERRACE ST", "postcode": "49440"}}},
{"geometry": {"type": "Point", "coordinates": [-86.2446468171, 43.2065833072]}, "type": "Feature", "properties": {"collection_times": [{"days": "Mon-Fri", "time": "5:00pm"}, {"days": "Sat", "time": "3:00pm"}, {"days": "Sun", "time": "Closed"}], "id": "4944000083", "name": "USPS COLLECTION BOX - BLUE BOX", "address": {"city": "MUSKEGON", "state": "MI", "street": "2515 PECK ST", "postcode": "49440"}}},
{"geometry": {"type": "Point", "coordinates": [-86.2446468171, 43.2065833072]}, "type": "Feature", "properties": {"collection_times": [{"days": "Mon-Fri", "time": "5:00pm"}, {"days": "Sat", "time": "3:00pm"}, {"days": "Sun", "time": "Closed"}], "id": "4944000084", "name": "USPS COLLECTION BOX - BLUE BOX", "address": {"city": "MUSKEGON", "state": "MI", "street": "2515 PECK ST", "postcode": "49440"}}},
{"geometry": {"type": "Point", "coordinates": [-86.2229887355, 43.2851821146]}, "type": "Feature", "properties": {"collection_times": [{"days": "Mon-Sat", "time": "3:00pm"}, {"days": "Sun", "time": "Closed"}], "id": "4944000093", "name": "USPS COLLECTION BOX - BLUE BOX", "address": {"city": "MUSKEGON", "state": "MI", "street": "1800 HOLTON RD", "postcode": "49440"}}},
{"geometry": {"type": "Point", "coordinates": [-86.2520076391, 43.2677230333]}, "type": "Feature", "properties": {"collection_times": [{"days": "Mon-Sat", "time": "1:00pm"}, {"days": "Sun", "time": "Closed"}], "id": "4944000094", "name": "USPS COLLECTION BOX - BLUE BOX", "address": {"city": "MUSKEGON", "state": "MI", "street": "520 WHITEHALL RD", "postcode": "49440"}}},
{"geometry": {"type": "Point", "coordinates": [-86.2443711729, 43.219842402]}, "type": "Feature", "properties": {"collection_times": [{"days": "Mon-Sat", "time": "3:00pm"}, {"days": "Sun", "time": "Closed"}], "id": "4944000095", "name": "USPS COLLECTION BOX - BLUE BOX", "address": {"city": "MUSKEGON", "state": "MI", "street": "1781 PECK ST", "postcode": "49440"}}},
{"geometry": {"type": "Point", "coordinates": [-86.1547117699, 43.2116231221]}, "type": "Feature", "properties": {"collection_times": [{"days": "Mon-Sat", "time": "10:15am"}, {"days": "Sun", "time": "Closed"}], "id": "4944000099", "name": "USPS COLLECTION BOX - BLUE BOX", "address": {"city": "MUSKEGON", "state": "MI", "street": "2190 S MILL IRON RD", "postcode": "49440"}}},
{"geometry": {"type": "Point", "coordinates": [-86.2443711729, 43.219842402]}, "type": "Feature", "properties": {"collection_times": [{"days": "Mon-Sat", "time": "3:00pm"}, {"days": "Sun", "time": "Closed"}], "id": "4944000101", "name": "USPS COLLECTION BOX - BLUE BOX", "address": {"city": "MUSKEGON", "state": "MI", "street": "1781 PECK ST", "postcode": "49440"}}},
{"geometry": {"type": "Point", "coordinates": [-86.2445603255, 43.2024371327]}, "type": "Feature", "properties": {"collection_times": [{"days": "Mon-Sat", "time": "3:00pm"}, {"days": "Sun", "time": "Closed"}], "id": "4944000103", "name": "USPS COLLECTION BOX - BLUE BOX", "address": {"city": "MUSKEGON", "state": "MI", "street": "2724 PECK ST", "postcode": "49440"}}},
{"geometry": {"type": "Point", "coordinates": [-86.2454373144, 43.2341660815]}, "type": "Feature", "properties": {"collection_times": [{"days": "Mon-Sat", "time": "3:00pm"}, {"days": "Sun", "time": "Closed"}], "id": "4944000107", "name": "USPS COLLECTION BOX - BLUE BOX", "address": {"city": "MUSKEGON", "state": "MI", "street": "25 W APPLE AVE", "postcode": "49440"}}},
{"geometry": {"type": "Point", "coordinates": [-86.2454373144, 43.2341660815]}, "type": "Feature", "properties": {"collection_times": [{"days": "Mon-Sat", "time": "3:00pm"}, {"days": "Sun", "time": "Closed"}], "id": "4944000108", "name": "USPS COLLECTION BOX - BLUE BOX", "address": {"city": "MUSKEGON", "state": "MI", "street": "25 W APPLE AVE", "postcode": "49440"}}},
{"geometry": {"type": "Point", "coordinates": [-86.249582637, 43.236074236]}, "type": "Feature", "properties": {"collection_times": [{"days": "Mon-Fri", "time": "5:00pm"}, {"days": "Sat", "time": "3:00pm"}, {"days": "Sun", "time": "Closed"}], "id": "4944000113", "name": "USPS COLLECTION BOX - BLUE BOX", "address": {"city": "MUSKEGON", "state": "MI", "street": "800 1ST ST", "postcode": "49440"}}},
{"geometry": {"type": "Point", "coordinates": [-86.249582637, 43.236074236]}, "type": "Feature", "properties": {"collection_times": [{"days": "Mon-Fri", "time": "5:00pm"}, {"days": "Sat", "time": "3:00pm"}, {"days": "Sun", "time": "Closed"}], "id": "4944000114", "name": "USPS COLLECTION BOX - BLUE BOX", "address": {"city": "MUSKEGON", "state": "MI", "street": "800 1ST ST", "postcode": "49440"}}},
{"geometry": {"type": "Point", "coordinates": [-86.249582637, 43.236074236]}, "type": "Feature", "properties": {"collection_times": [{"days": "Mon-Fri", "time": "5:00pm"}, {"days": "Sat", "time": "3:00pm"}, {"days": "Sun", "time": "Closed"}], "id": "4944000115", "name": "USPS COLLECTION BOX - BLUE BOX", "address": {"city": "MUSKEGON", "state": "MI", "street": "800 1ST ST", "postcode": "49440"}}},
{"geometry": {"type": "Point", "coordinates": [-86.249582637, 43.236074236]}, "type": "Feature", "properties": {"collection_times": [{"days": "Mon-Fri", "time": "5:00pm"}, {"days": "Sat", "time": "3:00pm"}, {"days": "Sun", "time": "Closed"}], "id": "4944000117", "name": "USPS COLLECTION BOX - BLUE BOX", "address": {"city": "MUSKEGON", "state": "MI", "street": "800 1ST ST", "postcode": "49440"}}},
{"geometry": {"type": "Point", "coordinates": [-86.2935135184, 43.1913038625]}, "type": "Feature", "properties": {"collection_times": [{"days": "Mon-Sat", "time": "10:30am"}, {"days": "Sun", "time": "Closed"}], "id": "4944000125", "name": "USPS COLLECTION BOX - BLUE BOX", "address": {"city": "MUSKEGON", "state": "MI", "street": "3381 MCCRACKEN ST", "postcode": "49440"}}},
{"geometry": {"type": "Point", "coordinates": [-86.3028295414, 43.2059039253]}, "type": "Feature", "properties": {"collection_times": [{"days": "Mon-Sat", "time": "10:30am"}, {"days": "Sun", "time": "Closed"}], "id": "4944000134", "name": "USPS COLLECTION BOX - BLUE BOX", "address": {"city": "MUSKEGON", "state": "MI", "street": "2390 W SHERMAN BLVD", "postcode": "49440"}}},
{"geometry": {"type": "Point", "coordinates": [-86.2673774985, 43.2013292053]}, "type": "Feature", "properties": {"collection_times": [{"days": "Mon-Sat", "time": "3:00pm"}, {"days": "Sun", "time": "Closed"}], "id": "4944000154", "name": "USPS COLLECTION BOX - BLUE BOX", "address": {"city": "MUSKEGON", "state": "MI", "street": "980 W BROADWAY AVE", "postcode": "49440"}}},
{"geometry": {"type": "Point", "coordinates": [-86.2842479198, 43.2055871212]}, "type": "Feature", "properties": {"collection_times": [{"days": "Mon-Sat", "time": "2:00pm"}, {"days": "Sun", "time": "Closed"}], "id": "4944000155", "name": "USPS COLLECTION BOX - BLUE BOX", "address": {"city": "MUSKEGON", "state": "MI", "street": "1663 W SHERMAN BLVD", "postcode": "49440"}}},
{"geometry": {"type": "Point", "coordinates": [-86.2673155151, 43.1908649204]}, "type": "Feature", "properties": {"collection_times": [{"days": "Mon-Sat", "time": "3:00pm"}, {"days": "Sun", "time": "Closed"}], "id": "4944000156", "name": "USPS COLLECTION BOX - BLUE BOX", "address": {"city": "MUSKEGON", "state": "MI", "street": "950 W NORTON AVE", "postcode": "49440"}}},
{"geometry": {"type": "Point", "coordinates": [-86.270633833, 43.2127590539]}, "type": "Feature", "properties": {"collection_times": [{"days": "Mon-Sat", "time": "10:30am"}, {"days": "Sun", "time": "Closed"}], "id": "4944000174", "name": "USPS COLLECTION BOX - BLUE BOX", "address": {"city": "MUSKEGON", "state": "MI", "street": "1100 W HACKLEY AVE", "postcode": "49440"}}},
{"geometry": {"type": "Point", "coordinates": [-86.1655353733, 43.1903914534]}, "type": "Feature", "properties": {"collection_times": [{"days": "Mon-Sat", "time": "1:00pm"}, {"days": "Sun", "time": "Closed"}], "id": "4944000176", "name": "USPS COLLECTION BOX - BLUE BOX", "address": {"city": "MUSKEGON", "state": "MI", "street": "3162 HEIGHTS RAVENNA RD", "postcode": "49440"}}},
{"geometry": {"type": "Point", "coordinates": [-86.2003283356, 43.2967615465]}, "type": "Feature", "properties": {"collection_times": [{"days": "Mon-Sat", "time": "11:00am"}, {"days": "Sun", "time": "Closed"}], "id": "4944000177", "name": "USPS COLLECTION BOX - BLUE BOX", "address": {"city": "MUSKEGON", "state": "MI", "street": "2301 HOLTON RD", "postcode": "49440"}}},
{"geometry": {"type": "Point", "coordinates": [-86.2536793033, 43.2378416513]}, "type": "Feature", "properties": {"collection_times": [{"days": "Mon-Sat", "time": "10:15am"}, {"days": "Sun", "time": "Closed"}], "id": "4944000178", "name": "USPS COLLECTION BOX - BLUE BOX", "address": {"city": "MUSKEGON", "state": "MI", "street": "2060 IRONWOOD EAST CT", "postcode": "49440"}}},
{"geometry": {"type": "Point", "coordinates": [-86.2032881967, 43.2051292139]}, "type": "Feature", "properties": {"collection_times": [{"days": "Mon-Sat", "time": "3:00pm"}, {"days": "Sun", "time": "Closed"}], "id": "4944000212", "name": "USPS COLLECTION BOX - BLUE BOX", "address": {"city": "MUSKEGON", "state": "MI", "street": "1500 E SHERMAN BLVD", "postcode": "49440"}}},
{"geometry": {"type": "Point", "coordinates": [-86.2636705273, 43.1749705002]}, "type": "Feature", "properties": {"collection_times": [{"days": "Mon-Sat", "time": "3:00pm"}, {"days": "Sun", "time": "Closed"}], "id": "4944000213", "name": "USPS COLLECTION BOX - BLUE BOX", "address": {"city": "MUSKEGON", "state": "MI", "street": "4230 HENRY ST", "postcode": "49440"}}},
{"geometry": {"type": "Point", "coordinates": [-86.200929615, 43.2378901406]}, "type": "Feature", "properties": {"collection_times": [{"days": "Mon-Sat", "time": "2:00pm"}, {"days": "Sun", "time": "Closed"}], "id": "4944000218", "name": "USPS COLLECTION BOX - BLUE BOX", "address": {"city": "MUSKEGON", "state": "MI", "street": "1700 OAK AVE", "postcode": "49440"}}},
{"geometry": {"type": "Point", "coordinates": [-86.2500801, 43.2655069533]}, "type": "Feature", "properties": {"collection_times": [{"days": "Mon-Sat", "time": "3:00pm"}, {"days": "Sun", "time": "Closed"}], "id": "4944000219", "name": "USPS COLLECTION BOX - BLUE BOX", "address": {"city": "MUSKEGON", "state": "MI", "street": "2580 LAKE AVE", "postcode": "49440"}}},
{"geometry": {"type": "Point", "coordinates": [-86.2500801, 43.2655069533]}, "type": "Feature", "properties": {"collection_times": [{"days": "Mon-Sat", "time": "3:00pm"}, {"days": "Sun", "time": "Closed"}], "id": "4944000220", "name": "USPS COLLECTION BOX - BLUE BOX", "address": {"city": "MUSKEGON", "state": "MI", "street": "2580 LAKE AVE", "postcode": "49440"}}},
{"geometry": {"type": "Point", "coordinates": [-86.2536793033, 43.2378416513]}, "type": "Feature", "properties": {"collection_times": [{"days": "Mon-Sat", "time": "3:00pm"}, {"days": "Sun", "time": "Closed"}], "id": "4944000234", "name": "USPS COLLECTION BOX - BLUE BOX", "address": {"city": "MUSKEGON", "state": "MI", "street": "100 TERRACE PLZ", "postcode": "49440"}}},
{"geometry": {"type": "Point", "coordinates": [-86.2207651028, 43.2193904942]}, "type": "Feature", "properties": {"collection_times": [{"days": "Mon-Sat", "time": "3:00pm"}, {"days": "Sun", "time": "Closed"}], "id": "4944000243", "name": "USPS COLLECTION BOX - BLUE BOX", "address": {"city": "MUSKEGON", "state": "MI", "street": "939 E LAKETON AVE", "postcode": "49440"}}},
{"geometry": {"type": "Point", "coordinates": [-86.2456263039, 43.2353698408]}, "type": "Feature", "properties": {"collection_times": [{"days": "Mon-Sat", "time": "3:00pm"}, {"days": "Sun", "time": "Closed"}], "id": "4944000249", "name": "USPS COLLECTION BOX - BLUE BOX", "address": {"city": "MUSKEGON", "state": "MI", "street": "933 TERRACE ST", "postcode": "49440"}}},
{"geometry": {"type": "Point", "coordinates": [-86.2356297954, 43.1651130013]}, "type": "Feature", "properties": {"collection_times": [{"days": "Mon-Sat", "time": "2:00pm"}, {"days": "Sun", "time": "Closed"}], "id": "4944000260", "name": "USPS COLLECTION BOX - BLUE BOX", "address": {"city": "MUSKEGON", "state": "MI", "street": "60 SINCLAIR DR", "postcode": "49440"}}},
{"geometry": {"type": "Point", "coordinates": [-86.2058486644, 43.1536965311]}, "type": "Feature", "properties": {"collection_times": [{"days": "Mon-Sat", "time": "3:00pm"}, {"days": "Sun", "time": "Closed"}], "id": "4944000263", "name": "USPS COLLECTION BOX - BLUE BOX", "address": {"city": "MUSKEGON", "state": "MI", "street": "5225 HARVEY ST", "postcode": "49440"}}},
{"geometry": {"type": "Point", "coordinates": [-86.1880514927, 43.2014009615]}, "type": "Feature", "properties": {"collection_times": [{"days": "Mon-Sat", "time": "2:30pm"}, {"days": "Sun", "time": "Closed"}], "id": "4944000265", "name": "USPS COLLECTION BOX - BLUE BOX", "address": {"city": "MUSKEGON", "state": "MI", "street": "2277 E BROADWAY AVE", "postcode": "49440"}}},
{"geometry": {"type": "Point", "coordinates": [-86.3238538241, 43.2180203828]}, "type": "Feature", "properties": {"collection_times": [{"days": "Mon-Sat", "time": "10:45am"}, {"days": "Sun", "time": "Closed"}], "id": "4944000266", "name": "USPS COLLECTION BOX - BLUE BOX", "address": {"city": "MUSKEGON", "state": "MI", "street": "3200 LAKESHORE DR", "postcode": "49440"}}},
{"geometry": {"type": "Point", "coordinates": [-86.249582637, 43.236074236]}, "type": "Feature", "properties": {"collection_times": [{"days": "Mon-Fri", "time": "5:00pm"}, {"days": "Sat", "time": "3:00pm"}, {"days": "Sun", "time": "Closed"}], "id": "4944000271", "name": "USPS COLLECTION BOX - PO LOBBY", "address": {"city": "MUSKEGON", "state": "MI", "street": "800 1ST ST", "postcode": "49440"}}},
{"geometry": {"type": "Point", "coordinates": [-86.2633945437, 43.1878541633]}, "type": "Feature", "properties": {"collection_times": [{"days": "Mon-Sat", "time": "3:00pm"}, {"days": "Sun", "time": "Closed"}], "id": "4944000272", "name": "USPS COLLECTION BOX - BLUE BOX", "address": {"city": "MUSKEGON", "state": "MI", "street": "3530 HENRY ST", "postcode": "49440"}}},
{"geometry": {"type": "Point", "coordinates": [-86.2464749748, 43.2341718457]}, "type": "Feature", "properties": {"collection_times": [{"days": "Mon-Sat", "time": "2:30pm"}, {"days": "Sun", "time": "Closed"}], "id": "4944000274", "name": "USPS COLLECTION BOX - BLUE BOX", "address": {"city": "MUSKEGON", "state": "MI", "street": "97 E APPLE AVE", "postcode": "49440"}}},
{"geometry": {"type": "Point", "coordinates": [-86.2632198355, 43.2021215217]}, "type": "Feature", "properties": {"collection_times": [{"days": "Mon-Sat", "time": "3:00pm"}, {"days": "Sun", "time": "Closed"}], "id": "4944000276", "name": "USPS COLLECTION BOX - BLUE BOX", "address": {"city": "MUSKEGON", "state": "MI", "street": "2743 HENRY ST", "postcode": "49440"}}},
{"geometry": {"type": "Point", "coordinates": [-86.1963983395, 43.2450998582]}, "type": "Feature", "properties": {"collection_times": [{"days": "Mon-Fri", "time": "3:00pm"}, {"days": "Sat-Sun", "time": "Closed"}], "id": "4944000277", "name": "USPS COLLECTION BOX - BLUE BOX", "address": {"city": "MUSKEGON", "state": "MI", "street": "1903 MARQUETTE AVE", "postcode": "49440"}}},
{"geometry": {"type": "Point", "coordinates": [-86.1944373096, 43.2342572676]}, "type": "Feature", "properties": {"collection_times": [{"days": "Mon-Sat", "time": "3:00pm"}, {"days": "Sun", "time": "Closed"}], "id": "4944000278", "name": "USPS COLLECTION BOX - BLUE BOX", "address": {"city": "MUSKEGON", "state": "MI", "street": "1990 E APPLE AVE", "postcode": "49440"}}},
{"geometry": {"type": "Point", "coordinates": [-86.2535360283, 43.2363669945]}, "type": "Feature", "properties": {"collection_times": [{"days": "Mon-Sat", "time": "3:00pm"}, {"days": "Sun", "time": "Closed"}], "id": "4944000281", "name": "USPS COLLECTION BOX - BLUE BOX", "address": {"city": "MUSKEGON", "state": "MI", "street": "450 MORRIS AVE", "postcode": "49440"}}},
{"geometry": {"type": "Point", "coordinates": [-86.2606864731, 43.261881892]}, "type": "Feature", "properties": {"collection_times": [{"days": "Mon-Fri", "time": "5:00pm"}, {"days": "Sat", "time": "3:00pm"}, {"days": "Sun", "time": "Closed"}], "id": "4944000282", "name": "USPS COLLECTION BOX - BLUE BOX", "address": {"city": "MUSKEGON", "state": "MI", "street": "404 CENTER ST", "postcode": "49440"}}},
{"geometry": {"type": "Point", "coordinates": [-86.1732749697, 43.234186329]}, "type": "Feature", "properties": {"collection_times": [{"days": "Mon-Sat", "time": "3:00pm"}, {"days": "Sun", "time": "Closed"}], "id": "4944000284", "name": "USPS COLLECTION BOX - BLUE BOX", "address": {"city": "MUSKEGON", "state": "MI", "street": "2829 E APPLE AVE", "postcode": "49440"}}},
{"geometry": {"type": "Point", "coordinates": [-86.2057627348, 43.1493966452]}, "type": "Feature", "properties": {"collection_times": [{"days": "Mon-Sat", "time": "3:00pm"}, {"days": "Sun", "time": "Closed"}], "id": "4944000289", "name": "USPS COLLECTION BOX - BLUE BOX", "address": {"city": "MUSKEGON", "state": "MI", "street": "5600 HARVEY ST", "postcode": "49440"}}},
{"geometry": {"type": "Point", "coordinates": [-86.2684097987, 43.2290325194]}, "type": "Feature", "properties": {"collection_times": [{"days": "Mon-Sat", "time": "3:00pm"}, {"days": "Sun", "time": "Closed"}], "id": "4944000290", "name": "USPS COLLECTION BOX - BLUE BOX", "address": {"city": "MUSKEGON", "state": "MI", "street": "1050 W WESTERN AVE", "postcode": "49440"}}},
{"geometry": {"type": "Point", "coordinates": [-86.2617553814, 43.2053184921]}, "type": "Feature", "properties": {"collection_times": [{"days": "Mon-Sat", "time": "2:00pm"}, {"days": "Sun", "time": "Closed"}], "id": "4944000291", "name": "USPS COLLECTION BOX - BLUE BOX", "address": {"city": "MUSKEGON", "state": "MI", "street": "750 W SHERMAN BLVD", "postcode": "49440"}}},
{"geometry": {"type": "Point", "coordinates": [-86.1958333309, 43.2059412247]}, "type": "Feature", "properties": {"collection_times": [{"days": "Mon-Sat", "time": "2:30pm"}, {"days": "Sun", "time": "Closed"}], "id": "4944000295", "name": "USPS COLLECTION BOX - BLUE BOX", "address": {"city": "MUSKEGON", "state": "MI", "street": "1848 E SHERMAN BLVD", "postcode": "49440"}}},
{"geometry": {"type": "Point", "coordinates": [-86.345239839, 43.559277497]}, "type": "Feature", "properties": {"collection_times": [{"days": "Mon-Fri", "time": "3:30pm"}, {"days": "Sat", "time": "10:00am"}, {"days": "Sun", "time": "Closed"}], "id": "4944600001", "name": "USPS COLLECTION BOX - BLUE BOX", "address": {"city": "NEW ERA", "state": "MI", "street": "4695 1ST ST", "postcode": "49446"}}},
{"geometry": {"type": "Point", "coordinates": [-86.3469968415, 43.5594378503]}, "type": "Feature", "properties": {"collection_times": [{"days": "Mon-Fri", "time": "3:30pm"}, {"days": "Sat", "time": "10:00am"}, {"days": "Sun", "time": "Closed"}], "id": "4944600003", "name": "USPS COLLECTION BOX - BLUE BOX", "address": {"city": "NEW ERA", "state": "MI", "street": "2622 RAY AVE", "postcode": "49446"}}},
{"geometry": {"type": "Point", "coordinates": [-86.345239839, 43.559277497]}, "type": "Feature", "properties": {"collection_times": [{"days": "Mon-Fri", "time": "3:30pm"}, {"days": "Sat", "time": "10:00am"}, {"days": "Sun", "time": "Closed"}], "id": "4944600004", "name": "USPS COLLECTION BOX - PO LOBBY", "address": {"city": "NEW ERA", "state": "MI", "street": "4695 1ST ST", "postcode": "49446"}}},
{"geometry": {"type": "Point", "coordinates": [-86.066992879, 43.077729039]}, "type": "Feature", "properties": {"collection_times": [{"days": "Mon-Fri", "time": "4:00pm"}, {"days": "Sat", "time": "10:00am"}, {"days": "Sun", "time": "Closed"}], "id": "4944800001", "name": "USPS COLLECTION BOX - BLUE BOX", "address": {"city": "NUNICA", "state": "MI", "street": "16980 MAIN ST", "postcode": "49448"}}},
{"geometry": {"type": "Point", "coordinates": [-86.066992879, 43.077729039]}, "type": "Feature", "properties": {"collection_times": [{"days": "Mon-Fri", "time": "4:00pm"}, {"days": "Sat", "time": "10:00am"}, {"days": "Sun", "time": "Closed"}], "id": "4944800002", "name": "USPS COLLECTION BOX - PO LOBBY", "address": {"city": "NUNICA", "state": "MI", "street": "16980 MAIN ST", "postcode": "49448"}}},
{"geometry": {"type": "Point", "coordinates": [-86.433125619, 43.781002386]}, "type": "Feature", "properties": {"collection_times": [{"days": "Mon-Fri", "time": "4:00pm"}, {"days": "Sat", "time": "11:00am"}, {"days": "Sun", "time": "Closed"}], "id": "4944900002", "name": "USPS COLLECTION BOX - BLUE BOX", "address": {"city": "PENTWATER", "state": "MI", "street": "91 S HANCOCK ST", "postcode": "49449"}}},
{"geometry": {"type": "Point", "coordinates": [-86.433125619, 43.781002386]}, "type": "Feature", "properties": {"collection_times": [{"days": "Mon-Fri", "time": "4:00pm"}, {"days": "Sat", "time": "11:00am"}, {"days": "Sun", "time": "Closed"}], "id": "4944900004", "name": "USPS COLLECTION BOX - PO LOBBY", "address": {"city": "PENTWATER", "state": "MI", "street": "91 S HANCOCK ST", "postcode": "49449"}}},
{"geometry": {"type": "Point", "coordinates": [-86.090535264, 42.483407525]}, "type": "Feature", "properties": {"collection_times": [{"days": "Mon-Fri", "time": "2:00pm"}, {"days": "Sat", "time": "10:30am"}, {"days": "Sun", "time": "Closed"}], "id": "4945000001", "name": "USPS COLLECTION BOX - BLUE BOX", "address": {"city": "PULLMAN", "state": "MI", "street": "887 56TH ST", "postcode": "49450"}}},
{"geometry": {"type": "Point", "coordinates": [-86.090535264, 42.483407525]}, "type": "Feature", "properties": {"collection_times": [{"days": "Mon-Fri", "time": "2:00pm"}, {"days": "Sat", "time": "10:30am"}, {"days": "Sun", "time": "Closed"}], "id": "4945000002", "name": "USPS COLLECTION BOX - PO LOBBY", "address": {"city": "PULLMAN", "state": "MI", "street": "887 56TH ST", "postcode": "49450"}}},
{"geometry": {"type": "Point", "coordinates": [-85.9569799684, 43.2056912239]}, "type": "Feature", "properties": {"collection_times": [{"days": "Mon-Fri", "time": "4:00pm"}, {"days": "Sat", "time": "11:30am"}, {"days": "Sun", "time": "Closed"}], "id": "4945100001", "name": "USPS COLLECTION BOX - BLUE BOX", "address": {"city": "RAVENNA", "state": "MI", "street": "12444 CROCKERY CREEK DR", "postcode": "49451"}}},
{"geometry": {"type": "Point", "coordinates": [-85.938013366, 43.188681102]}, "type": "Feature", "properties": {"collection_times": [{"days": "Mon-Fri", "time": "4:00pm"}, {"days": "Sat", "time": "11:30am"}, {"days": "Sun", "time": "Closed"}], "id": "4945100004", "name": "USPS COLLECTION BOX - PO LOBBY", "address": {"city": "RAVENNA", "state": "MI", "street": "12521 CROCKERY CREEK DR", "postcode": "49451"}}},
{"geometry": {"type": "Point", "coordinates": [-86.349119863, 43.506906771]}, "type": "Feature", "properties": {"collection_times": [{"days": "Mon-Fri", "time": "3:15pm"}, {"days": "Sat", "time": "12:00pm"}, {"days": "Sun", "time": "Closed"}], "id": "4945200001", "name": "USPS COLLECTION BOX - BLUE BOX", "address": {"city": "ROTHBURY", "state": "MI", "street": "2854 W WINSTON RD", "postcode": "49452"}}},
{"geometry": {"type": "Point", "coordinates": [-86.349119863, 43.506906771]}, "type": "Feature", "properties": {"collection_times": [{"days": "Mon-Fri", "time": "11:30am"}, {"days": "Sat", "time": "10:30am"}, {"days": "Sun", "time": "Closed"}], "id": "4945200002", "name": "USPS COLLECTION BOX - PO LOBBY", "address": {"city": "ROTHBURY", "state": "MI", "street": "2854 W WINSTON RD", "postcode": "49452"}}},
{"geometry": {"type": "Point", "coordinates": [-86.20417779, 42.658198209]}, "type": "Feature", "properties": {"collection_times": [{"days": "Mon-Fri", "time": "3:20pm"}, {"days": "Sat", "time": "11:00am"}, {"days": "Sun", "time": "Closed"}], "id": "4945300002", "name": "USPS COLLECTION BOX - BLUE BOX", "address": {"city": "SAUGATUCK", "state": "MI", "street": "434 BUTLER ST", "postcode": "49453"}}},
{"geometry": {"type": "Point", "coordinates": [-86.20417779, 42.658198209]}, "type": "Feature", "properties": {"collection_times": [{"days": "Mon-Fri", "time": "3:20pm"}, {"days": "Sat", "time": "11:00am"}, {"days": "Sun", "time": "Closed"}], "id": "4945300003", "name": "USPS COLLECTION BOX - PO LOBBY", "address": {"city": "SAUGATUCK", "state": "MI", "street": "434 BUTLER ST", "postcode": "49453"}}},
{"geometry": {"type": "Point", "coordinates": [-86.2799196651, 43.9548875928]}, "type": "Feature", "properties": {"collection_times": [{"days": "Mon-Sat", "time": "12:30pm"}, {"days": "Sun", "time": "Closed"}], "id": "4945400002", "name": "USPS COLLECTION BOX - BLUE BOX", "address": {"city": "SCOTTVILLE", "state": "MI", "street": "107 W STATE ST", "postcode": "49454"}}},
{"geometry": {"type": "Point", "coordinates": [-86.279469036, 43.952699255]}, "type": "Feature", "properties": {"collection_times": [{"days": "Mon-Fri", "time": "4:00pm"}, {"days": "Sat", "time": "12:30pm"}, {"days": "Sun", "time": "Closed"}], "id": "4945400003", "name": "USPS COLLECTION BOX - BLUE BOX", "address": {"city": "SCOTTVILLE", "state": "MI", "street": "202 S MAIN ST", "postcode": "49454"}}},
{"geometry": {"type": "Point", "coordinates": [-86.279469036, 43.952699255]}, "type": "Feature", "properties": {"collection_times": [{"days": "Mon-Fri", "time": "4:00pm"}, {"days": "Sat", "time": "12:30pm"}, {"days": "Sun", "time": "Closed"}], "id": "4945400005", "name": "USPS COLLECTION BOX - PO LOBBY", "address": {"city": "SCOTTVILLE", "state": "MI", "street": "202 S MAIN ST", "postcode": "49454"}}},
{"geometry": {"type": "Point", "coordinates": [-86.2773456666, 43.9612758114]}, "type": "Feature", "properties": {"collection_times": [{"days": "Mon-Fri", "time": "1:00pm"}, {"days": "Sat", "time": "12:30pm"}, {"days": "Sun", "time": "Closed"}], "id": "4945400006", "name": "USPS COLLECTION BOX - BLUE BOX", "address": {"city": "SCOTTVILLE", "state": "MI", "street": "110 THORNWILD DR", "postcode": "49454"}}},
{"geometry": {"type": "Point", "coordinates": [-86.2827955628, 43.9509813426]}, "type": "Feature", "properties": {"collection_times": [{"days": "Mon-Sat", "time": "12:00pm"}, {"days": "Sun", "time": "Closed"}], "id": "4945400007", "name": "USPS COLLECTION BOX - BLUE BOX", "address": {"city": "SCOTTVILLE", "state": "MI", "street": "400 W 3RD ST", "postcode": "49454"}}},
{"geometry": {"type": "Point", "coordinates": [-86.363912856, 43.612069772]}, "type": "Feature", "properties": {"collection_times": [{"days": "Mon-Fri", "time": "3:50pm"}, {"days": "Sat", "time": "11:00am"}, {"days": "Sun", "time": "Closed"}], "id": "4945500002", "name": "USPS COLLECTION BOX - BLUE BOX", "address": {"city": "SHELBY", "state": "MI", "street": "210 N MICHIGAN AVE", "postcode": "49455"}}},
{"geometry": {"type": "Point", "coordinates": [-86.3673882219, 43.6159847136]}, "type": "Feature", "properties": {"collection_times": [{"days": "Mon-Sat", "time": "8:45am"}, {"days": "Sun", "time": "Closed"}], "id": "4945500007", "name": "USPS COLLECTION BOX - BLUE BOX", "address": {"city": "SHELBY", "state": "MI", "street": "182 W 6TH ST", "postcode": "49455"}}},
{"geometry": {"type": "Point", "coordinates": [-86.363912856, 43.612069772]}, "type": "Feature", "properties": {"collection_times": [{"days": "Mon-Fri", "time": "3:50pm"}, {"days": "Sat", "time": "11:00am"}, {"days": "Sun", "time": "Closed"}], "id": "4945500010", "name": "USPS COLLECTION BOX - PO LOBBY", "address": {"city": "SHELBY", "state": "MI", "street": "210 N MICHIGAN AVE", "postcode": "49455"}}},
{"geometry": {"type": "Point", "coordinates": [-86.3595139455, 43.6136496127]}, "type": "Feature", "properties": {"collection_times": [{"days": "Mon-Sat", "time": "9:00am"}, {"days": "Sun", "time": "Closed"}], "id": "4945500013", "name": "USPS COLLECTION BOX - BLUE BOX", "address": {"city": "SHELBY", "state": "MI", "street": "424 N STATE ST", "postcode": "49455"}}},
{"geometry": {"type": "Point", "coordinates": [-86.2207514056, 43.0889624314]}, "type": "Feature", "properties": {"collection_times": [{"days": "Mon-Sat", "time": "10:00am"}, {"days": "Sun", "time": "Closed"}], "id": "4945600005", "name": "USPS COLLECTION BOX - BLUE BOX", "address": {"city": "SPRING LAKE", "state": "MI", "street": "17717 174TH AVE", "postcode": "49456"}}},
{"geometry": {"type": "Point", "coordinates": [-86.198938365, 43.0761700012]}, "type": "Feature", "properties": {"collection_times": [{"days": "Mon-Fri", "time": "5:00pm"}, {"days": "Sat", "time": "4:00pm"}, {"days": "Sun", "time": "Closed"}], "id": "4945600008", "name": "USPS COLLECTION BOX - BLUE BOX", "address": {"city": "SPRING LAKE", "state": "MI", "street": "109 S JACKSON ST", "postcode": "49456"}}},
{"geometry": {"type": "Point", "coordinates": [-86.2434348368, 43.0892918929]}, "type": "Feature", "properties": {"collection_times": [{"days": "Mon-Sat", "time": "10:00am"}, {"days": "Sun", "time": "Closed"}], "id": "4945600009", "name": "USPS COLLECTION BOX - BLUE BOX", "address": {"city": "SPRING LAKE", "state": "MI", "street": "18201 WOODLAND RIDGE DR", "postcode": "49456"}}},
{"geometry": {"type": "Point", "coordinates": [-86.1489706214, 43.0876250942]}, "type": "Feature", "properties": {"collection_times": [{"days": "Mon-Sat", "time": "10:00am"}, {"days": "Sun", "time": "Closed"}], "id": "4945600011", "name": "USPS COLLECTION BOX - BLUE BOX", "address": {"city": "SPRING LAKE", "state": "MI", "street": "14700 STATE RD", "postcode": "49456"}}},
{"geometry": {"type": "Point", "coordinates": [-86.199731134, 43.075616906]}, "type": "Feature", "properties": {"collection_times": [{"days": "Mon-Fri", "time": "5:00pm"}, {"days": "Sat", "time": "4:00pm"}, {"days": "Sun", "time": "Closed"}], "id": "4945600013", "name": "USPS COLLECTION BOX - BLUE BOX", "address": {"city": "SPRING LAKE", "state": "MI", "street": "211 W EXCHANGE ST", "postcode": "49456"}}},
{"geometry": {"type": "Point", "coordinates": [-86.1555169127, 43.0740746532]}, "type": "Feature", "properties": {"collection_times": [{"days": "Mon-Sat", "time": "10:00am"}, {"days": "Sun", "time": "Closed"}], "id": "4945600017", "name": "USPS COLLECTION BOX - BLUE BOX", "address": {"city": "SPRING LAKE", "state": "MI", "street": "14785 CLEVELAND ST", "postcode": "49456"}}},
{"geometry": {"type": "Point", "coordinates": [-86.1733524551, 43.0774714583]}, "type": "Feature", "properties": {"collection_times": [{"days": "Mon-Sat", "time": "10:00am"}, {"days": "Sun", "time": "Closed"}], "id": "4945600018", "name": "USPS COLLECTION BOX - BLUE BOX", "address": {"city": "SPRING LAKE", "state": "MI", "street": "17026 LLOYDS BAYOU DR", "postcode": "49456"}}},
{"geometry": {"type": "Point", "coordinates": [-86.199731134, 43.075616906]}, "type": "Feature", "properties": {"collection_times": [{"days": "Mon-Fri", "time": "5:00pm"}, {"days": "Sat", "time": "4:00pm"}, {"days": "Sun", "time": "Closed"}], "id": "4945600019", "name": "USPS COLLECTION BOX - PO LOBBY", "address": {"city": "SPRING LAKE", "state": "MI", "street": "211 W EXCHANGE ST", "postcode": "49456"}}},
{"geometry": {"type": "Point", "coordinates": [-86.215890514, 43.095742227]}, "type": "Feature", "properties": {"collection_times": [{"days": "Mon-Sat", "time": "10:00am"}, {"days": "Sun", "time": "Closed"}], "id": "4945600021", "name": "USPS COLLECTION BOX - BLUE BOX", "address": {"city": "SPRING LAKE", "state": "MI", "street": "17190 VAN WAGONER RD", "postcode": "49456"}}},
{"geometry": {"type": "Point", "coordinates": [-86.162542392, 43.363588264]}, "type": "Feature", "properties": {"collection_times": [{"days": "Mon-Fri", "time": "3:55pm"}, {"days": "Sat", "time": "10:00am"}, {"days": "Sun", "time": "Closed"}], "id": "4945700001", "name": "USPS COLLECTION BOX - BLUE BOX", "address": {"city": "TWIN LAKE", "state": "MI", "street": "6034 EAST ST", "postcode": "49457"}}},
{"geometry": {"type": "Point", "coordinates": [-86.162542392, 43.363588264]}, "type": "Feature", "properties": {"collection_times": [{"days": "Mon-Fri", "time": "3:55pm"}, {"days": "Sat", "time": "10:00am"}, {"days": "Sun", "time": "Closed"}], "id": "4945700002", "name": "USPS COLLECTION BOX - PO LOBBY", "address": {"city": "TWIN LAKE", "state": "MI", "street": "6034 EAST ST", "postcode": "49457"}}},
{"geometry": {"type": "Point", "coordinates": [-86.0390470268, 43.315813054]}, "type": "Feature", "properties": {"collection_times": [{"days": "Mon-Sat", "time": "11:30am"}, {"days": "Sun", "time": "Closed"}], "id": "4945700004", "name": "USPS COLLECTION BOX - BLUE BOX", "address": {"city": "TWIN LAKE", "state": "MI", "street": "3465 MAPLE ISLAND RD", "postcode": "49457"}}},
{"geometry": {"type": "Point", "coordinates": [-86.113532389, 43.95328231]}, "type": "Feature", "properties": {"collection_times": [{"days": "Mon-Fri", "time": "3:05pm"}, {"days": "Sat", "time": "10:30am"}, {"days": "Sun", "time": "Closed"}], "id": "4945800001", "name": "USPS COLLECTION BOX - BLUE BOX", "address": {"city": "WALHALLA", "state": "MI", "street": "6635 E US HIGHWAY 10", "postcode": "49458"}}},
{"geometry": {"type": "Point", "coordinates": [-86.113532389, 43.95328231]}, "type": "Feature", "properties": {"collection_times": [{"days": "Mon-Fri", "time": "3:05pm"}, {"days": "Sat", "time": "10:30am"}, {"days": "Sun", "time": "Closed"}], "id": "4945800002", "name": "USPS COLLECTION BOX - PO LOBBY", "address": {"city": "WALHALLA", "state": "MI", "street": "6635 E US HIGHWAY 10", "postcode": "49458"}}},
{"geometry": {"type": "Point", "coordinates": [-86.122449898, 43.713556992]}, "type": "Feature", "properties": {"collection_times": [{"days": "Mon-Fri", "time": "2:15pm"}, {"days": "Sat", "time": "10:30am"}, {"days": "Sun", "time": "Closed"}], "id": "4945900001", "name": "USPS COLLECTION BOX - BLUE BOX", "address": {"city": "WALKERVILLE", "state": "MI", "street": "132 E LAUREL ST", "postcode": "49459"}}},
{"geometry": {"type": "Point", "coordinates": [-86.122449898, 43.713556992]}, "type": "Feature", "properties": {"collection_times": [{"days": "Mon-Fri", "time": "1:00pm"}, {"days": "Sat", "time": "10:30am"}, {"days": "Sun", "time": "Closed"}], "id": "4945900002", "name": "USPS COLLECTION BOX - PO LOBBY", "address": {"city": "WALKERVILLE", "state": "MI", "street": "132 E LAUREL ST", "postcode": "49459"}}},
{"geometry": {"type": "Point", "coordinates": [-86.147062637, 42.924511278]}, "type": "Feature", "properties": {"collection_times": [{"days": "Mon-Fri", "time": "3:00pm"}, {"days": "Sat", "time": "10:00am"}, {"days": "Sun", "time": "Closed"}], "id": "4946000001", "name": "USPS COLLECTION BOX - BLUE BOX", "address": {"city": "WEST OLIVE", "state": "MI", "street": "8600 146TH AVE", "postcode": "49460"}}},
{"geometry": {"type": "Point", "coordinates": [-86.1419885929, 42.9302905518]}, "type": "Feature", "properties": {"collection_times": [{"days": "Mon-Sat", "time": "10:00am"}, {"days": "Sun", "time": "Closed"}], "id": "4946000002", "name": "USPS COLLECTION BOX - BLUE BOX", "address": {"city": "WEST OLIVE", "state": "MI", "street": "14429 WINDING CREEK LN", "postcode": "49460"}}},
{"geometry": {"type": "Point", "coordinates": [-86.1955160962, 42.8891355024]}, "type": "Feature", "properties": {"collection_times": [{"days": "Mon-Sat", "time": "10:00am"}, {"days": "Sun", "time": "Closed"}], "id": "4946000003", "name": "USPS COLLECTION BOX - BLUE BOX", "address": {"city": "WEST OLIVE", "state": "MI", "street": "6789 BUTTERNUT DR", "postcode": "49460"}}},
{"geometry": {"type": "Point", "coordinates": [-86.147062637, 42.924511278]}, "type": "Feature", "properties": {"collection_times": [{"days": "Mon-Fri", "time": "3:00pm"}, {"days": "Sat", "time": "10:00am"}, {"days": "Sun", "time": "Closed"}], "id": "4946000004", "name": "USPS COLLECTION BOX - PO LOBBY", "address": {"city": "WEST OLIVE", "state": "MI", "street": "8600 146TH AVE", "postcode": "49460"}}},
{"geometry": {"type": "Point", "coordinates": [-86.1561362912, 42.93528931]}, "type": "Feature", "properties": {"collection_times": [{"days": "Mon-Sat", "time": "10:00am"}, {"days": "Sun", "time": "Closed"}], "id": "4946000005", "name": "USPS COLLECTION BOX - BLUE BOX", "address": {"city": "WEST OLIVE", "state": "MI", "street": "9170 US HIGHWAY 31", "postcode": "49460"}}},
{"geometry": {"type": "Point", "coordinates": [-86.3240155477, 43.4090994893]}, "type": "Feature", "properties": {"collection_times": [{"days": "Mon-Sat", "time": "11:00am"}, {"days": "Sun", "time": "Closed"}], "id": "4946100002", "name": "USPS COLLECTION BOX - BLUE BOX", "address": {"city": "WHITEHALL", "state": "MI", "street": "3271 COLBY RD", "postcode": "49461"}}},
{"geometry": {"type": "Point", "coordinates": [-86.347822393, 43.408360174]}, "type": "Feature", "properties": {"collection_times": [{"days": "Mon-Fri", "time": "4:00pm"}, {"days": "Sat", "time": "11:00am"}, {"days": "Sun", "time": "Closed"}], "id": "4946100005", "name": "USPS COLLECTION BOX - BLUE BOX", "address": {"city": "WHITEHALL", "state": "MI", "street": "203 S MEARS AVE", "postcode": "49461"}}},
{"geometry": {"type": "Point", "coordinates": [-86.347822393, 43.408360174]}, "type": "Feature", "properties": {"collection_times": [{"days": "Mon-Fri", "time": "4:00pm"}, {"days": "Sat", "time": "11:00am"}, {"days": "Sun", "time": "Closed"}], "id": "4946100006", "name": "USPS COLLECTION BOX - PO LOBBY", "address": {"city": "WHITEHALL", "state": "MI", "street": "203 S MEARS AVE", "postcode": "49461"}}},
{"geometry": {"type": "Point", "coordinates": [-86.014550229, 42.812347015]}, "type": "Feature", "properties": {"collection_times": [{"days": "Mon-Fri", "time": "5:00pm"}, {"days": "Sat", "time": "3:00pm"}, {"days": "Sun", "time": "Closed"}], "id": "4946400018", "name": "USPS COLLECTION BOX - BLUE BOX", "address": {"city": "ZEELAND", "state": "MI", "street": "155 E MAIN AVE", "postcode": "49464"}}},
{"geometry": {"type": "Point", "coordinates": [-86.014550229, 42.812347015]}, "type": "Feature", "properties": {"collection_times": [{"days": "Mon-Fri", "time": "5:00pm"}, {"days": "Sat", "time": "3:00pm"}, {"days": "Sun", "time": "Closed"}], "id": "4946400019", "name": "USPS COLLECTION BOX - BLUE BOX", "address": {"city": "ZEELAND", "state": "MI", "street": "155 E MAIN AVE", "postcode": "49464"}}},
{"geometry": {"type": "Point", "coordinates": [-86.014550229, 42.812347015]}, "type": "Feature", "properties": {"collection_times": [{"days": "Mon-Fri", "time": "5:00pm"}, {"days": "Sat", "time": "3:00pm"}, {"days": "Sun", "time": "Closed"}], "id": "4946400039", "name": "USPS COLLECTION BOX - PO LOBBY", "address": {"city": "ZEELAND", "state": "MI", "street": "155 E MAIN AVE", "postcode": "49464"}}},
{"geometry": {"type": "Point", "coordinates": [-86.0162691383, 42.8269378357]}, "type": "Feature", "properties": {"collection_times": [{"days": "Mon-Sat", "time": "1:30pm"}, {"days": "Sun", "time": "Closed"}], "id": "4946400040", "name": "USPS COLLECTION BOX - BLUE BOX", "address": {"city": "ZEELAND", "state": "MI", "street": "9479 RILEY ST", "postcode": "49464"}}},
{"geometry": {"type": "Point", "coordinates": [-86.014550229, 42.812347015]}, "type": "Feature", "properties": {"collection_times": [{"days": "Mon-Fri", "time": "5:00pm"}, {"days": "Sat", "time": "3:00pm"}, {"days": "Sun", "time": "Closed"}], "id": "4946400041", "name": "USPS COLLECTION BOX - BLUE BOX", "address": {"city": "ZEELAND", "state": "MI", "street": "155 E MAIN AVE", "postcode": "49464"}}},
{"geometry": {"type": "Point", "coordinates": [-86.0162691383, 42.8269378357]}, "type": "Feature", "properties": {"collection_times": [{"days": "Mon-Sat", "time": "1:30pm"}, {"days": "Sun", "time": "Closed"}], "id": "4946400043", "name": "USPS COLLECTION BOX - BLUE BOX", "address": {"city": "ZEELAND", "state": "MI", "street": "9479 RILEY ST", "postcode": "49464"}}}
]}
