{"type": "FeatureCollection", "features": [
{"geometry": {"type": "Point", "coordinates": [-85.6724563441, 42.9704474165]}, "type": "Feature", "properties": {"collection_times": [{"days": "Mon-Sat", "time": "6:00pm"}, {"days": "Sun", "time": "Closed"}], "id": "4950100012", "name": "USPS COLLECTION BOX - BLUE BOX", "address": {"city": "GRAND RAPIDS", "state": "MI", "street": "225 MICHIGAN ST NW", "postcode": "49501"}}},
{"geometry": {"type": "Point", "coordinates": [-85.6724563441, 42.9704474165]}, "type": "Feature", "properties": {"collection_times": [{"days": "Mon-Sat", "time": "6:00pm"}, {"days": "Sun", "time": "Closed"}], "id": "4950100013", "name": "USPS COLLECTION BOX - BLUE BOX", "address": {"city": "GRAND RAPIDS", "state": "MI", "street": "225 MICHIGAN ST NW", "postcode": "49501"}}},
{"geometry": {"type": "Point", "coordinates": [-85.6724563441, 42.9704474165]}, "type": "Feature", "properties": {"collection_times": [{"days": "Mon-Sat", "time": "6:00pm"}, {"days": "Sun", "time": "Closed"}], "id": "4950100015", "name": "USPS COLLECTION BOX - APC", "address": {"city": "GRAND RAPIDS", "state": "MI", "street": "225 MICHIGAN ST NW", "postcode": "49501"}}},
{"geometry": {"type": "Point", "coordinates": [-85.6397628261, 42.9764645937]}, "type": "Feature", "properties": {"collection_times": [{"days": "Mon-Sat", "time": "3:00pm"}, {"days": "Sun", "time": "Closed"}], "id": "4950300018", "name": "USPS COLLECTION BOX - BLUE BOX", "address": {"city": "GRAND RAPIDS", "state": "MI", "street": "750 FULLER AVE NE", "postcode": "49503"}}},
{"geometry": {"type": "Point", "coordinates": [-85.6633342394, 42.9631686583]}, "type": "Feature", "properties": {"collection_times": [{"days": "Mon-Sat", "time": "3:00pm"}, {"days": "Sun", "time": "Closed"}], "id": "4950300021", "name": "USPS COLLECTION BOX - BLUE BOX", "address": {"city": "GRAND RAPIDS", "state": "MI", "street": "233 FULTON ST E", "postcode": "49503"}}},
{"geometry": {"type": "Point", "coordinates": [-85.635644487, 42.9627937437]}, "type": "Feature", "properties": {"collection_times": [{"days": "Mon-Sat", "time": "3:00pm"}, {"days": "Sun", "time": "Closed"}], "id": "4950300025", "name": "USPS COLLECTION BOX - BLUE BOX", "address": {"city": "GRAND RAPIDS", "state": "MI", "street": "1415 FULTON ST E", "postcode": "49503"}}},
{"geometry": {"type": "Point", "coordinates": [-85.6640511452, 42.9593903144]}, "type": "Feature", "properties": {"collection_times": [{"days": "Mon-Sat", "time": "3:00pm"}, {"days": "Sun", "time": "Closed"}], "id": "4950300032", "name": "USPS COLLECTION BOX - BLUE BOX", "address": {"city": "GRAND RAPIDS", "state": "MI", "street": "200 JEFFERSON AVE SE", "postcode": "49503"}}},
{"geometry": {"type": "Point", "coordinates": [-85.6706863115, 42.9654813946]}, "type": "Feature", "properties": {"collection_times": [{"days": "Mon-Fri", "time": "5:00pm"}, {"days": "Sat", "time": "3:00pm"}, {"days": "Sun", "time": "Closed"}], "id": "4950300081", "name": "USPS COLLECTION BOX - BLUE BOX", "address": {"city": "GRAND RAPIDS", "state": "MI", "street": "120 MONROE CENTER ST NW", "postcode": "49503"}}},
{"geometry": {"type": "Point", "coordinates": [-85.6701339535, 42.9654406987]}, "type": "Feature", "properties": {"collection_times": [{"days": "Mon-Fri", "time": "5:00pm"}, {"days": "Sat", "time": "3:00pm"}, {"days": "Sun", "time": "Closed"}], "id": "4950300087", "name": "USPS COLLECTION BOX - BLUE BOX", "address": {"city": "GRAND RAPIDS", "state": "MI", "street": "98 OTTAWA AVE NW", "postcode": "49503"}}},
{"geometry": {"type": "Point", "coordinates": [-85.6314009116, 42.9783799389]}, "type": "Feature", "properties": {"collection_times": [{"days": "Mon-Sat", "time": "10:00am"}, {"days": "Sun", "time": "Closed"}], "id": "4950300097", "name": "USPS COLLECTION BOX - BLUE BOX", "address": {"city": "GRAND RAPIDS", "state": "MI", "street": "1540 MASON ST NE", "postcode": "49503"}}},
{"geometry": {"type": "Point", "coordinates": [-85.656796206, 42.9593964386]}, "type": "Feature", "properties": {"collection_times": [{"days": "Mon-Sat", "time": "3:00pm"}, {"days": "Sun", "time": "Closed"}], "id": "4950300105", "name": "USPS COLLECTION BOX - BLUE BOX", "address": {"city": "GRAND RAPIDS", "state": "MI", "street": "499 CHERRY ST SE", "postcode": "49503"}}},
{"geometry": {"type": "Point", "coordinates": [-85.669060728, 42.9680401603]}, "type": "Feature", "properties": {"collection_times": [{"days": "Mon-Fri", "time": "5:00pm"}, {"days": "Sat", "time": "3:00pm"}, {"days": "Sun", "time": "Closed"}], "id": "4950300112", "name": "USPS COLLECTION BOX - BLUE BOX", "address": {"city": "GRAND RAPIDS", "state": "MI", "street": "251 IONIA AVE NW", "postcode": "49503"}}},
{"geometry": {"type": "Point", "coordinates": [-85.6703893844, 42.9630796649]}, "type": "Feature", "properties": {"collection_times": [{"days": "Mon-Sat", "time": "3:00pm"}, {"days": "Sun", "time": "Closed"}], "id": "4950300124", "name": "USPS COLLECTION BOX - BLUE BOX", "address": {"city": "GRAND RAPIDS", "state": "MI", "street": "5 IONIA AVE SW", "postcode": "49503"}}},
{"geometry": {"type": "Point", "coordinates": [-85.6703893844, 42.9630796649]}, "type": "Feature", "properties": {"collection_times": [{"days": "Mon-Sat", "time": "3:00pm"}, {"days": "Sun", "time": "Closed"}], "id": "4950300125", "name": "USPS COLLECTION BOX - BLUE BOX", "address": {"city": "GRAND RAPIDS", "state": "MI", "street": "5 IONIA AVE SW", "postcode": "49503"}}},
{"geometry": {"type": "Point", "coordinates": [-85.6337554198, 42.965599036]}, "type": "Feature", "properties": {"collection_times": [{"days": "Mon-Sat", "time": "10:00am"}, {"days": "Sun", "time": "Closed"}], "id": "4950300139", "name": "USPS COLLECTION BOX - BLUE BOX", "address": {"city": "GRAND RAPIDS", "state": "MI", "street": "160 LOWELL AVE NE", "postcode": "49503"}}},
{"geometry": {"type": "Point", "coordinates": [-85.6260906785, 42.9666317873]}, "type": "Feature", "properties": {"collection_times": [{"days": "Mon-Sat", "time": "10:00am"}, {"days": "Sun", "time": "Closed"}], "id": "4950300140", "name": "USPS COLLECTION BOX - BLUE BOX", "address": {"city": "GRAND RAPIDS", "state": "MI", "street": "1736 LYON ST NE", "postcode": "49503"}}},
{"geometry": {"type": "Point", "coordinates": [-85.643176744, 42.9778837557]}, "type": "Feature", "properties": {"collection_times": [{"days": "Mon-Sat", "time": "10:00am"}, {"days": "Sun", "time": "Closed"}], "id": "4950300155", "name": "USPS COLLECTION BOX - BLUE BOX", "address": {"city": "GRAND RAPIDS", "state": "MI", "street": "1039 SHORT ST NE", "postcode": "49503"}}},
{"geometry": {"type": "Point", "coordinates": [-85.639817323, 42.970675862]}, "type": "Feature", "properties": {"collection_times": [{"days": "Mon-Sat", "time": "10:00am"}, {"days": "Sun", "time": "Closed"}], "id": "4950300168", "name": "USPS COLLECTION BOX - BLUE BOX", "address": {"city": "GRAND RAPIDS", "state": "MI", "street": "425 FULLER AVE NE", "postcode": "49503"}}},
{"geometry": {"type": "Point", "coordinates": [-85.661710125, 42.9565895745]}, "type": "Feature", "properties": {"collection_times": [{"days": "Mon-Fri", "time": "3:00pm"}, {"days": "Sat-Sun", "time": "Closed"}], "id": "4950300179", "name": "USPS COLLECTION BOX - BLUE BOX", "address": {"city": "GRAND RAPIDS", "state": "MI", "street": "350 LAFAYETTE AVE SE", "postcode": "49503"}}},
{"geometry": {"type": "Point", "coordinates": [-85.6665412228, 42.9693218071]}, "type": "Feature", "properties": {"collection_times": [{"days": "Mon-Sat", "time": "3:00pm"}, {"days": "Sun", "time": "Closed"}], "id": "4950300181", "name": "USPS COLLECTION BOX - BLUE BOX", "address": {"city": "GRAND RAPIDS", "state": "MI", "street": "333 BOSTWICK AVE NE", "postcode": "49503"}}},
{"geometry": {"type": "Point", "coordinates": [-85.6721761238, 42.9789107766]}, "type": "Feature", "properties": {"collection_times": [{"days": "Mon-Sat", "time": "1:00pm"}, {"days": "Sun", "time": "Closed"}], "id": "4950300183", "name": "USPS COLLECTION BOX - BLUE BOX", "address": {"city": "GRAND RAPIDS", "state": "MI", "street": "940 MONROE AVE NW", "postcode": "49503"}}},
{"geometry": {"type": "Point", "coordinates": [-85.6702995718, 42.9729128634]}, "type": "Feature", "properties": {"collection_times": [{"days": "Mon-Sat", "time": "3:00pm"}, {"days": "Sun", "time": "Closed"}], "id": "4950300188", "name": "USPS COLLECTION BOX - BLUE BOX", "address": {"city": "GRAND RAPIDS", "state": "MI", "street": "549 OTTAWA AVE NW", "postcode": "49503"}}},
{"geometry": {"type": "Point", "coordinates": [-85.6655372537, 42.967288531]}, "type": "Feature", "properties": {"collection_times": [{"days": "Mon-Sat", "time": "3:00pm"}, {"days": "Sun", "time": "Closed"}], "id": "4950300190", "name": "USPS COLLECTION BOX - BLUE BOX", "address": {"city": "GRAND RAPIDS", "state": "MI", "street": "122 LYON ST NE", "postcode": "49503"}}},
{"geometry": {"type": "Point", "coordinates": [-85.6131935679, 42.9699214821]}, "type": "Feature", "properties": {"collection_times": [{"days": "Mon-Sat", "time": "10:00am"}, {"days": "Sun", "time": "Closed"}], "id": "4950300191", "name": "USPS COLLECTION BOX - BLUE BOX", "address": {"city": "GRAND RAPIDS", "state": "MI", "street": "2280 MICHIGAN ST NE", "postcode": "49503"}}},
{"geometry": {"type": "Point", "coordinates": [-85.6711798657, 42.9664111656]}, "type": "Feature", "properties": {"collection_times": [{"days": "Mon-Sat", "time": "3:00pm"}, {"days": "Sun", "time": "Closed"}], "id": "4950300192", "name": "USPS COLLECTION BOX - BLUE BOX", "address": {"city": "GRAND RAPIDS", "state": "MI", "street": "25 JEFFERSON AVE SE", "postcode": "49503"}}},
{"geometry": {"type": "Point", "coordinates": [-85.6696332072, 42.962176942]}, "type": "Feature", "properties": {"collection_times": [{"days": "Mon-Fri", "time": "5:00pm"}, {"days": "Sat", "time": "3:00pm"}, {"days": "Sun", "time": "Closed"}], "id": "4950300194", "name": "USPS COLLECTION BOX - BLUE BOX", "address": {"city": "GRAND RAPIDS", "state": "MI", "street": "50 WESTON ST SW", "postcode": "49503"}}},
{"geometry": {"type": "Point", "coordinates": [-85.6889767607, 43.0217226047]}, "type": "Feature", "properties": {"collection_times": [{"days": "Mon-Sat", "time": "3:00pm"}, {"days": "Sun", "time": "Closed"}], "id": "4950400004", "name": "USPS COLLECTION BOX - BLUE BOX", "address": {"city": "GRAND RAPIDS", "state": "MI", "street": "3200 ALPINE AVE NW", "postcode": "49504"}}},
{"geometry": {"type": "Point", "coordinates": [-85.695005158, 43.0292078662]}, "type": "Feature", "properties": {"collection_times": [{"days": "Mon-Fri", "time": "5:00pm"}, {"days": "Sat", "time": "3:00pm"}, {"days": "Sun", "time": "Closed"}], "id": "4950400028", "name": "USPS COLLECTION BOX - BLUE BOX", "address": {"city": "GRAND RAPIDS", "state": "MI", "street": "1025 4 MILE RD NW", "postcode": "49504"}}},
{"geometry": {"type": "Point", "coordinates": [-85.6754209689, 42.9869974108]}, "type": "Feature", "properties": {"collection_times": [{"days": "Mon-Sat", "time": "3:00pm"}, {"days": "Sun", "time": "Closed"}], "id": "4950400036", "name": "USPS COLLECTION BOX - BLUE BOX", "address": {"city": "GRAND RAPIDS", "state": "MI", "street": "1336 FRONT AVE NW", "postcode": "49504"}}},
{"geometry": {"type": "Point", "coordinates": [-85.6867681062, 42.9634514892]}, "type": "Feature", "properties": {"collection_times": [{"days": "Mon-Fri", "time": "10:45am"}, {"days": "Sat", "time": "3:00pm"}, {"days": "Sun", "time": "Closed"}], "id": "4950400037", "name": "USPS COLLECTION BOX - BLUE BOX", "address": {"city": "GRAND RAPIDS", "state": "MI", "street": "758 FULTON ST W", "postcode": "49504"}}},
{"geometry": {"type": "Point", "coordinates": [-85.6962849358, 42.9638324518]}, "type": "Feature", "properties": {"collection_times": [{"days": "Mon-Fri", "time": "10:45am"}, {"days": "Sat", "time": "3:00pm"}, {"days": "Sun", "time": "Closed"}], "id": "4950400038", "name": "USPS COLLECTION BOX - BLUE BOX", "address": {"city": "GRAND RAPIDS", "state": "MI", "street": "1157 FULTON ST W", "postcode": "49504"}}},
{"geometry": {"type": "Point", "coordinates": [-85.7185018721, 42.971412457]}, "type": "Feature", "properties": {"collection_times": [{"days": "Mon-Sat", "time": "3:00pm"}, {"days": "Sun", "time": "Closed"}], "id": "4950400041", "name": "USPS COLLECTION BOX - BLUE BOX", "address": {"city": "GRAND RAPIDS", "state": "MI", "street": "2058 LAKE MICHIGAN DR NW", "postcode": "49504"}}},
{"geometry": {"type": "Point", "coordinates": [-85.7362579557, 42.9718367189]}, "type": "Feature", "properties": {"collection_times": [{"days": "Mon-Sat", "time": "3:00pm"}, {"days": "Sun", "time": "Closed"}], "id": "4950400042", "name": "USPS COLLECTION BOX - BLUE BOX", "address": {"city": "GRAND RAPIDS", "state": "MI", "street": "2755 LAKE MICHIGAN DR NW", "postcode": "49504"}}},
{"geometry": {"type": "Point", "coordinates": [-85.7636394545, 42.9712201864]}, "type": "Feature", "properties": {"collection_times": [{"days": "Mon-Fri", "time": "1:00pm"}, {"days": "Sat", "time": "3:00pm"}, {"days": "Sun", "time": "Closed"}], "id": "4950400049", "name": "USPS COLLECTION BOX - BLUE BOX", "address": {"city": "GRAND RAPIDS", "state": "MI", "street": "306 MANZANA CT NW", "postcode": "49504"}}},
{"geometry": {"type": "Point", "coordinates": [-85.7737142255, 43.0060477258]}, "type": "Feature", "properties": {"collection_times": [{"days": "Mon-Fri", "time": "5:00pm"}, {"days": "Sat", "time": "3:00pm"}, {"days": "Sun", "time": "Closed"}], "id": "4950400057", "name": "USPS COLLECTION BOX - BLUE BOX", "address": {"city": "GRAND RAPIDS", "state": "MI", "street": "4243 REMEMBRANCE RD NW", "postcode": "49504"}}},
{"geometry": {"type": "Point", "coordinates": [-85.7737142255, 43.0060477258]}, "type": "Feature", "properties": {"collection_times": [{"days": "Mon-Fri", "time": "5:00pm"}, {"days": "Sat", "time": "3:00pm"}, {"days": "Sun", "time": "Closed"}], "id": "4950400058", "name": "USPS COLLECTION BOX - BLUE BOX", "address": {"city": "GRAND RAPIDS", "state": "MI", "street": "4243 REMEMBRANCE RD NW", "postcode": "49504"}}},
{"geometry": {"type": "Point", "coordinates": [-85.6768448995, 42.9799799202]}, "type": "Feature", "properties": {"collection_times": [{"days": "Mon-Sat", "time": "3:00pm"}, {"days": "Sun", "time": "Closed"}], "id": "4950400059", "name": "USPS COLLECTION BOX - BLUE BOX", "address": {"city": "GRAND RAPIDS", "state": "MI", "street": "920 SCRIBNER AVE NW", "postcode": "49504"}}},
{"geometry": {"type": "Point", "coordinates": [-85.6867520744, 43.0140678382]}, "type": "Feature", "properties": {"collection_times": [{"days": "Mon-Fri", "time": "5:00pm"}, {"days": "Sat", "time": "3:00pm"}, {"days": "Sun", "time": "Closed"}], "id": "4950400063", "name": "USPS COLLECTION BOX - BLUE BOX", "address": {"city": "GRAND RAPIDS", "state": "MI", "street": "700 3 MILE RD NW", "postcode": "49504"}}},
{"geometry": {"type": "Point", "coordinates": [-85.7195959175, 43.0151204424]}, "type": "Feature", "properties": {"collection_times": [{"days": "Mon-Fri", "time": "5:00pm"}, {"days": "Sat", "time": "3:00pm"}, {"days": "Sun", "time": "Closed"}], "id": "4950400067", "name": "USPS COLLECTION BOX - BLUE BOX", "address": {"city": "GRAND RAPIDS", "state": "MI", "street": "2065 3 MILE RD NW", "postcode": "49504"}}},
{"geometry": {"type": "Point", "coordinates": [-85.6974277556, 42.9815307836]}, "type": "Feature", "properties": {"collection_times": [{"days": "Mon-Sat", "time": "10:00am"}, {"days": "Sun", "time": "Closed"}], "id": "4950400068", "name": "USPS COLLECTION BOX - BLUE BOX", "address": {"city": "GRAND RAPIDS", "state": "MI", "street": "1181 WALKER AVE NW", "postcode": "49504"}}},
{"geometry": {"type": "Point", "coordinates": [-85.6792841105, 42.9925000171]}, "type": "Feature", "properties": {"collection_times": [{"days": "Mon-Sat", "time": "3:00pm"}, {"days": "Sun", "time": "Closed"}], "id": "4950400072", "name": "USPS COLLECTION BOX - BLUE BOX", "address": {"city": "GRAND RAPIDS", "state": "MI", "street": "1615 BROADWAY AVE NW", "postcode": "49504"}}},
{"geometry": {"type": "Point", "coordinates": [-85.6764873743, 42.9901127592]}, "type": "Feature", "properties": {"collection_times": [{"days": "Mon-Sat", "time": "3:00pm"}, {"days": "Sun", "time": "Closed"}], "id": "4950400080", "name": "USPS COLLECTION BOX - BLUE BOX", "address": {"city": "GRAND RAPIDS", "state": "MI", "street": "1500 SCRIBNER AVE NW", "postcode": "49504"}}},
{"geometry": {"type": "Point", "coordinates": [-85.709099724, 42.987228032]}, "type": "Feature", "properties": {"collection_times": [{"days": "Mon-Fri", "time": "5:00pm"}, {"days": "Sat", "time": "3:00pm"}, {"days": "Sun", "time": "Closed"}], "id": "4950400087", "name": "USPS COLLECTION BOX - BLUE BOX", "address": {"city": "GRAND RAPIDS", "state": "MI", "street": "1625 WALKER AVE NW", "postcode": "49504"}}},
{"geometry": {"type": "Point", "coordinates": [-85.709099724, 42.987228032]}, "type": "Feature", "properties": {"collection_times": [{"days": "Mon-Fri", "time": "5:00pm"}, {"days": "Sat", "time": "3:00pm"}, {"days": "Sun", "time": "Closed"}], "id": "4950400088", "name": "USPS COLLECTION BOX - BLUE BOX", "address": {"city": "GRAND RAPIDS", "state": "MI", "street": "1625 WALKER AVE NW", "postcode": "49504"}}},
{"geometry": {"type": "Point", "coordinates": [-85.7485288847, 42.9865983536]}, "type": "Feature", "properties": {"collection_times": [{"days": "Mon-Sat", "time": "1:00pm"}, {"days": "Sun", "time": "Closed"}], "id": "4950400095", "name": "USPS COLLECTION BOX - BLUE BOX", "address": {"city": "GRAND RAPIDS", "state": "MI", "street": "3232 LEONARD ST NW", "postcode": "49504"}}},
{"geometry": {"type": "Point", "coordinates": [-85.7185018721, 42.971412457]}, "type": "Feature", "properties": {"collection_times": [{"days": "Mon-Sat", "time": "3:00pm"}, {"days": "Sun", "time": "Closed"}], "id": "4950400099", "name": "USPS COLLECTION BOX - BLUE BOX", "address": {"city": "GRAND RAPIDS", "state": "MI", "street": "2058 LAKE MICHIGAN DR NW", "postcode": "49504"}}},
{"geometry": {"type": "Point", "coordinates": [-85.709099724, 42.987228032]}, "type": "Feature", "properties": {"collection_times": [{"days": "Mon-Fri", "time": "5:00pm"}, {"days": "Sat", "time": "4:00pm"}, {"days": "Sun", "time": "Closed"}], "id": "4950400109", "name": "USPS COLLECTION BOX - PO LOBBY", "address": {"city": "GRAND RAPIDS", "state": "MI", "street": "1625 WALKER AVE NW", "postcode": "49504"}}},
{"geometry": {"type": "Point", "coordinates": [-85.6794636397, 42.9634208362]}, "type": "Feature", "properties": {"collection_times": [{"days": "Mon-Fri", "time": "10:00am"}, {"days": "Sat-Sun", "time": "Closed"}], "id": "4950400112", "name": "USPS COLLECTION BOX - BLUE BOX", "address": {"city": "GRAND RAPIDS", "state": "MI", "street": "401 FULTON ST W", "postcode": "49504"}}},
{"geometry": {"type": "Point", "coordinates": [-85.7667353305, 42.9722500464]}, "type": "Feature", "properties": {"collection_times": [{"days": "Mon-Fri", "time": "1:00pm"}, {"days": "Sat", "time": "3:00pm"}, {"days": "Sun", "time": "Closed"}], "id": "4950400114", "name": "USPS COLLECTION BOX - BLUE BOX", "address": {"city": "GRAND RAPIDS", "state": "MI", "street": "4015 LAKE MICHIGAN DR NW", "postcode": "49504"}}},
{"geometry": {"type": "Point", "coordinates": [-85.7667353305, 42.9722500464]}, "type": "Feature", "properties": {"collection_times": [{"days": "Mon-Fri", "time": "1:00pm"}, {"days": "Sat", "time": "3:00pm"}, {"days": "Sun", "time": "Closed"}], "id": "4950400115", "name": "USPS COLLECTION BOX - BLUE BOX", "address": {"city": "GRAND RAPIDS", "state": "MI", "street": "4015 LAKE MICHIGAN DR NW", "postcode": "49504"}}},
{"geometry": {"type": "Point", "coordinates": [-85.709099724, 42.987228032]}, "type": "Feature", "properties": {"collection_times": [{"days": "Mon-Fri", "time": "5:00pm"}, {"days": "Sat", "time": "3:00pm"}, {"days": "Sun", "time": "Closed"}], "id": "4950400118", "name": "USPS COLLECTION BOX - BLUE BOX", "address": {"city": "GRAND RAPIDS", "state": "MI", "street": "1625 WALKER AVE NW", "postcode": "49504"}}},
{"geometry": {"type": "Point", "coordinates": [-85.7029970169, 42.9785908214]}, "type": "Feature", "properties": {"collection_times": [{"days": "Mon-Fri", "time": "5:00pm"}, {"days": "Sat", "time": "3:00pm"}, {"days": "Sun", "time": "Closed"}], "id": "4950400119", "name": "USPS COLLECTION BOX - BLUE BOX", "address": {"city": "GRAND RAPIDS", "state": "MI", "street": "4030 LAKE MICHIGAN DR NW", "postcode": "49504"}}},
{"geometry": {"type": "Point", "coordinates": [-85.709099724, 42.987228032]}, "type": "Feature", "properties": {"collection_times": [{"days": "Mon-Fri", "time": "5:00pm"}, {"days": "Sat", "time": "3:00pm"}, {"days": "Sun", "time": "Closed"}], "id": "4950400123", "name": "USPS COLLECTION BOX - APC", "address": {"city": "GRAND RAPIDS", "state": "MI", "street": "1625 WALKER AVE NW", "postcode": "49504"}}},
{"geometry": {"type": "Point", "coordinates": [-85.6795571616, 42.9778069193]}, "type": "Feature", "properties": {"collection_times": [{"days": "Mon-Sat", "time": "3:00pm"}, {"days": "Sun", "time": "Closed"}], "id": "4950400125", "name": "USPS COLLECTION BOX - BLUE BOX", "address": {"city": "GRAND RAPIDS", "state": "MI", "street": "801 BROADWAY AVE NW", "postcode": "49504"}}},
{"geometry": {"type": "Point", "coordinates": [-85.5883852899, 42.9864841471]}, "type": "Feature", "properties": {"collection_times": [{"days": "Mon-Fri", "time": "5:00pm"}, {"days": "Sat", "time": "3:00pm"}, {"days": "Sun", "time": "Closed"}], "id": "4950500000", "name": "USPS COLLECTION BOX - BLUE BOX", "address": {"city": "GRAND RAPIDS", "state": "MI", "street": "3260 EAGLE PARK DR NE", "postcode": "49505"}}},
{"geometry": {"type": "Point", "coordinates": [-85.5883852899, 42.9864841471]}, "type": "Feature", "properties": {"collection_times": [{"days": "Mon-Fri", "time": "5:00pm"}, {"days": "Sat", "time": "3:00pm"}, {"days": "Sun", "time": "Closed"}], "id": "4950500001", "name": "USPS COLLECTION BOX - BLUE BOX", "address": {"city": "GRAND RAPIDS", "state": "MI", "street": "3260 EAGLE PARK DR NE", "postcode": "49505"}}},
{"geometry": {"type": "Point", "coordinates": [-85.5872477043, 43.0493626938]}, "type": "Feature", "properties": {"collection_times": [{"days": "Mon-Fri", "time": "11:30am"}, {"days": "Sat", "time": "3:00pm"}, {"days": "Sun", "time": "Closed"}], "id": "4950500005", "name": "USPS COLLECTION BOX - BLUE BOX", "address": {"city": "GRAND RAPIDS", "state": "MI", "street": "3417 DEVONWOOD HLS NE", "postcode": "49505"}}},
{"geometry": {"type": "Point", "coordinates": [-85.6396503703, 43.0152958845]}, "type": "Feature", "properties": {"collection_times": [{"days": "Mon-Sat", "time": "3:00pm"}, {"days": "Sun", "time": "Closed"}], "id": "4950500015", "name": "USPS COLLECTION BOX - BLUE BOX", "address": {"city": "GRAND RAPIDS", "state": "MI", "street": "2920 FULLER AVE NE", "postcode": "49505"}}},
{"geometry": {"type": "Point", "coordinates": [-85.6496071751, 42.9989367268]}, "type": "Feature", "properties": {"collection_times": [{"days": "Mon-Fri", "time": "10:00am"}, {"days": "Sat", "time": "3:00pm"}, {"days": "Sun", "time": "Closed"}], "id": "4950500020", "name": "USPS COLLECTION BOX - BLUE BOX", "address": {"city": "GRAND RAPIDS", "state": "MI", "street": "804 KNAPP ST NE", "postcode": "49505"}}},
{"geometry": {"type": "Point", "coordinates": [-85.6604519684, 42.9991270625]}, "type": "Feature", "properties": {"collection_times": [{"days": "Mon-Fri", "time": "10:00am"}, {"days": "Sat", "time": "3:00pm"}, {"days": "Sun", "time": "Closed"}], "id": "4950500022", "name": "USPS COLLECTION BOX - BLUE BOX", "address": {"city": "GRAND RAPIDS", "state": "MI", "street": "357 KNAPP ST NE", "postcode": "49505"}}},
{"geometry": {"type": "Point", "coordinates": [-85.6704602855, 42.9937767749]}, "type": "Feature", "properties": {"collection_times": [{"days": "Mon-Fri", "time": "10:00am"}, {"days": "Sat", "time": "3:00pm"}, {"days": "Sun", "time": "Closed"}], "id": "4950500031", "name": "USPS COLLECTION BOX - BLUE BOX", "address": {"city": "GRAND RAPIDS", "state": "MI", "street": "1702 MONROE AVE NW", "postcode": "49505"}}},
{"geometry": {"type": "Point", "coordinates": [-85.6707525777, 42.9872536286]}, "type": "Feature", "properties": {"collection_times": [{"days": "Mon-Fri", "time": "3:00pm"}, {"days": "Sat-Sun", "time": "Closed"}], "id": "4950500032", "name": "USPS COLLECTION BOX - BLUE BOX", "address": {"city": "GRAND RAPIDS", "state": "MI", "street": "1345 MONROE AVE NW", "postcode": "49505"}}},
{"geometry": {"type": "Point", "coordinates": [-85.6619115454, 43.0170828224]}, "type": "Feature", "properties": {"collection_times": [{"days": "Mon-Fri", "time": "12:00pm"}, {"days": "Sat", "time": "3:00pm"}, {"days": "Sun", "time": "Closed"}], "id": "4950500036", "name": "USPS COLLECTION BOX - BLUE BOX", "address": {"city": "GRAND RAPIDS", "state": "MI", "street": "3000 MONROE AVE NE", "postcode": "49505"}}},
{"geometry": {"type": "Point", "coordinates": [-85.5800087566, 43.0589726651]}, "type": "Feature", "properties": {"collection_times": [{"days": "Mon-Sat", "time": "3:00pm"}, {"days": "Sun", "time": "Closed"}], "id": "4950500041", "name": "USPS COLLECTION BOX - BLUE BOX", "address": {"city": "GRAND RAPIDS", "state": "MI", "street": "5265 NORTHLAND DR NE", "postcode": "49505"}}},
{"geometry": {"type": "Point", "coordinates": [-85.6247906783, 42.974378631]}, "type": "Feature", "properties": {"collection_times": [{"days": "Mon-Sat", "time": "3:00pm"}, {"days": "Sun", "time": "Closed"}], "id": "4950500047", "name": "USPS COLLECTION BOX - BLUE BOX", "address": {"city": "GRAND RAPIDS", "state": "MI", "street": "1805 OAK INDUSTRIAL DR NE", "postcode": "49505"}}},
{"geometry": {"type": "Point", "coordinates": [-85.6247906783, 42.974378631]}, "type": "Feature", "properties": {"collection_times": [{"days": "Mon-Sat", "time": "3:00pm"}, {"days": "Sun", "time": "Closed"}], "id": "4950500048", "name": "USPS COLLECTION BOX - BLUE BOX", "address": {"city": "GRAND RAPIDS", "state": "MI", "street": "1805 OAK INDUSTRIAL DR NE", "postcode": "49505"}}},
{"geometry": {"type": "Point", "coordinates": [-85.6498298801, 43.0078207624]}, "type": "Feature", "properties": {"collection_times": [{"days": "Mon-Fri", "time": "10:00am"}, {"days": "Sat", "time": "3:00pm"}, {"days": "Sun", "time": "Closed"}], "id": "4950500055", "name": "USPS COLLECTION BOX - BLUE BOX", "address": {"city": "GRAND RAPIDS", "state": "MI", "street": "2444 PLAINFIELD AVE NE", "postcode": "49505"}}},
{"geometry": {"type": "Point", "coordinates": [-85.6356300979, 43.019614568]}, "type": "Feature", "properties": {"collection_times": [{"days": "Mon-Sat", "time": "3:00pm"}, {"days": "Sun", "time": "Closed"}], "id": "4950500056", "name": "USPS COLLECTION BOX - BLUE BOX", "address": {"city": "GRAND RAPIDS", "state": "MI", "street": "3148 PLAINFIELD AVE NE", "postcode": "49505"}}},
{"geometry": {"type": "Point", "coordinates": [-85.6268723755, 43.0318303205]}, "type": "Feature", "properties": {"collection_times": [{"days": "Mon-Fri", "time": "5:00pm"}, {"days": "Sat", "time": "3:00pm"}, {"days": "Sun", "time": "Closed"}], "id": "4950500057", "name": "USPS COLLECTION BOX - BLUE BOX", "address": {"city": "GRAND RAPIDS", "state": "MI", "street": "3757 PLAINFIELD AVE NE", "postcode": "49505"}}},
{"geometry": {"type": "Point", "coordinates": [-85.632865829, 43.0242376503]}, "type": "Feature", "properties": {"collection_times": [{"days": "Mon-Sat", "time": "3:00pm"}, {"days": "Sun", "time": "Closed"}], "id": "4950500058", "name": "USPS COLLECTION BOX - BLUE BOX", "address": {"city": "GRAND RAPIDS", "state": "MI", "street": "3391 PLAINFIELD AVE NE", "postcode": "49505"}}},
{"geometry": {"type": "Point", "coordinates": [-85.6093985855, 43.039707332]}, "type": "Feature", "properties": {"collection_times": [{"days": "Mon-Sat", "time": "3:00pm"}, {"days": "Sun", "time": "Closed"}], "id": "4950500070", "name": "USPS COLLECTION BOX - BLUE BOX", "address": {"city": "GRAND RAPIDS", "state": "MI", "street": "4223 PLAINFIELD AVE NE", "postcode": "49505"}}},
{"geometry": {"type": "Point", "coordinates": [-85.6526027635, 43.0134945858]}, "type": "Feature", "properties": {"collection_times": [{"days": "Mon-Fri", "time": "10:00am"}, {"days": "Sat", "time": "3:00pm"}, {"days": "Sun", "time": "Closed"}], "id": "4950500076", "name": "USPS COLLECTION BOX - BLUE BOX", "address": {"city": "GRAND RAPIDS", "state": "MI", "street": "701 3 MILE RD NE", "postcode": "49505"}}},
{"geometry": {"type": "Point", "coordinates": [-85.6539607602, 43.0247116201]}, "type": "Feature", "properties": {"collection_times": [{"days": "Mon-Fri", "time": "10:00am"}, {"days": "Sat", "time": "3:00pm"}, {"days": "Sun", "time": "Closed"}], "id": "4950500077", "name": "USPS COLLECTION BOX - BLUE BOX", "address": {"city": "GRAND RAPIDS", "state": "MI", "street": "3345 COIT AVE NE", "postcode": "49505"}}},
{"geometry": {"type": "Point", "coordinates": [-85.6598273537, 43.0089338056]}, "type": "Feature", "properties": {"collection_times": [{"days": "Mon-Fri", "time": "10:00am"}, {"days": "Sat", "time": "3:00pm"}, {"days": "Sun", "time": "Closed"}], "id": "4950500078", "name": "USPS COLLECTION BOX - BLUE BOX", "address": {"city": "GRAND RAPIDS", "state": "MI", "street": "2493 COIT AVE NE", "postcode": "49505"}}},
{"geometry": {"type": "Point", "coordinates": [-85.6646697737, 42.9889559078]}, "type": "Feature", "properties": {"collection_times": [{"days": "Mon-Sat", "time": "3:00pm"}, {"days": "Sun", "time": "Closed"}], "id": "4950500079", "name": "USPS COLLECTION BOX - BLUE BOX", "address": {"city": "GRAND RAPIDS", "state": "MI", "street": "1425 COIT AVE NE", "postcode": "49505"}}},
{"geometry": {"type": "Point", "coordinates": [-85.6646739497, 43.0031381869]}, "type": "Feature", "properties": {"collection_times": [{"days": "Mon-Fri", "time": "10:00am"}, {"days": "Sat", "time": "3:00pm"}, {"days": "Sun", "time": "Closed"}], "id": "4950500084", "name": "USPS COLLECTION BOX - BLUE BOX", "address": {"city": "GRAND RAPIDS", "state": "MI", "street": "2201 COIT AVE NE", "postcode": "49505"}}},
{"geometry": {"type": "Point", "coordinates": [-85.625770345, 43.013406363]}, "type": "Feature", "properties": {"collection_times": [{"days": "Mon-Fri", "time": "5:00pm"}, {"days": "Sat", "time": "3:00pm"}, {"days": "Sun", "time": "Closed"}], "id": "4950500091", "name": "USPS COLLECTION BOX - BLUE BOX", "address": {"city": "GRAND RAPIDS", "state": "MI", "street": "1765 3 MILE RD NE", "postcode": "49505"}}},
{"geometry": {"type": "Point", "coordinates": [-85.6411762787, 42.9958535283]}, "type": "Feature", "properties": {"collection_times": [{"days": "Mon-Sat", "time": "1:00pm"}, {"days": "Sun", "time": "Closed"}], "id": "4950500094", "name": "USPS COLLECTION BOX - BLUE BOX", "address": {"city": "GRAND RAPIDS", "state": "MI", "street": "2650 5 MILE RD NE", "postcode": "49505"}}},
{"geometry": {"type": "Point", "coordinates": [-85.6396503703, 43.0152958845]}, "type": "Feature", "properties": {"collection_times": [{"days": "Mon-Sat", "time": "3:00pm"}, {"days": "Sun", "time": "Closed"}], "id": "4950500101", "name": "USPS COLLECTION BOX - BLUE BOX", "address": {"city": "GRAND RAPIDS", "state": "MI", "street": "2920 FULLER AVE NE", "postcode": "49505"}}},
{"geometry": {"type": "Point", "coordinates": [-85.6538095975, 43.0025214928]}, "type": "Feature", "properties": {"collection_times": [{"days": "Mon-Sat", "time": "3:00pm"}, {"days": "Sun", "time": "Closed"}], "id": "4950500104", "name": "USPS COLLECTION BOX - BLUE BOX", "address": {"city": "GRAND RAPIDS", "state": "MI", "street": "2178 PLAINFIELD AVE NE", "postcode": "49505"}}},
{"geometry": {"type": "Point", "coordinates": [-85.5900885969, 42.9932872965]}, "type": "Feature", "properties": {"collection_times": [{"days": "Mon-Fri", "time": "3:00pm"}, {"days": "Sat-Sun", "time": "Closed"}], "id": "4950500107", "name": "USPS COLLECTION BOX - BLUE BOX", "address": {"city": "GRAND RAPIDS", "state": "MI", "street": "1700 E BELTLINE AVE NE", "postcode": "49505"}}},
{"geometry": {"type": "Point", "coordinates": [-85.625770345, 43.013406363]}, "type": "Feature", "properties": {"collection_times": [{"days": "Mon-Fri", "time": "5:00pm"}, {"days": "Sat", "time": "3:00pm"}, {"days": "Sun", "time": "Closed"}], "id": "4950500112", "name": "USPS COLLECTION BOX - PO LOBBY", "address": {"city": "GRAND RAPIDS", "state": "MI", "street": "1765 3 MILE RD NE", "postcode": "49505"}}},
{"geometry": {"type": "Point", "coordinates": [-85.625770345, 43.013406363]}, "type": "Feature", "properties": {"collection_times": [{"days": "Mon-Fri", "time": "5:00pm"}, {"days": "Sat", "time": "3:00pm"}, {"days": "Sun", "time": "Closed"}], "id": "4950500118", "name": "USPS COLLECTION BOX - APC", "address": {"city": "GRAND RAPIDS", "state": "MI", "street": "1765 3 MILE RD NE", "postcode": "49505"}}},
{"geometry": {"type": "Point", "coordinates": [-85.6394103346, 42.984496977]}, "type": "Feature", "properties": {"collection_times": [{"days": "Mon-Sat", "time": "3:00pm"}, {"days": "Sun", "time": "Closed"}], "id": "4950500119", "name": "USPS COLLECTION BOX - BLUE BOX", "address": {"city": "GRAND RAPIDS", "state": "MI", "street": "1225 LEONARD ST NE", "postcode": "49505"}}},
{"geometry": {"type": "Point", "coordinates": [-85.611667391, 42.9128129616]}, "type": "Feature", "properties": {"collection_times": [{"days": "Mon-Sat", "time": "3:00pm"}, {"days": "Sun", "time": "Closed"}], "id": "4950600005", "name": "USPS COLLECTION BOX - BLUE BOX", "address": {"city": "GRAND RAPIDS", "state": "MI", "street": "2781 BIRCHCREST DR SE", "postcode": "49506"}}},
{"geometry": {"type": "Point", "coordinates": [-85.6184631973, 42.9342994358]}, "type": "Feature", "properties": {"collection_times": [{"days": "Mon-Sat", "time": "1:00pm"}, {"days": "Sun", "time": "Closed"}], "id": "4950600008", "name": "USPS COLLECTION BOX - BLUE BOX", "address": {"city": "GRAND RAPIDS", "state": "MI", "street": "2026 BOSTON ST SE", "postcode": "49506"}}},
{"geometry": {"type": "Point", "coordinates": [-85.6094062608, 42.9303846033]}, "type": "Feature", "properties": {"collection_times": [{"days": "Mon-Sat", "time": "3:00pm"}, {"days": "Sun", "time": "Closed"}], "id": "4950600009", "name": "USPS COLLECTION BOX - BLUE BOX", "address": {"city": "GRAND RAPIDS", "state": "MI", "street": "1818 BRETON RD SE", "postcode": "49506"}}},
{"geometry": {"type": "Point", "coordinates": [-85.6093367306, 42.9301398377]}, "type": "Feature", "properties": {"collection_times": [{"days": "Mon-Sat", "time": "3:00pm"}, {"days": "Sun", "time": "Closed"}], "id": "4950600010", "name": "USPS COLLECTION BOX - BLUE BOX", "address": {"city": "GRAND RAPIDS", "state": "MI", "street": "1818 BRETON RD SE", "postcode": "49506"}}},
{"geometry": {"type": "Point", "coordinates": [-85.5848420203, 42.9358347274]}, "type": "Feature", "properties": {"collection_times": [{"days": "Mon-Sat", "time": "3:00pm"}, {"days": "Sun", "time": "Closed"}], "id": "4950600023", "name": "USPS COLLECTION BOX - BLUE BOX", "address": {"city": "GRAND RAPIDS", "state": "MI", "street": "1500 E BELTLINE AVE SE", "postcode": "49506"}}},
{"geometry": {"type": "Point", "coordinates": [-85.6339551235, 42.9479137746]}, "type": "Feature", "properties": {"collection_times": [{"days": "Mon-Sat", "time": "3:00pm"}, {"days": "Sun", "time": "Closed"}], "id": "4950600029", "name": "USPS COLLECTION BOX - BLUE BOX", "address": {"city": "GRAND RAPIDS", "state": "MI", "street": "1425 PONTIAC RD SE", "postcode": "49506"}}},
{"geometry": {"type": "Point", "coordinates": [-85.6216270693, 42.9305936323]}, "type": "Feature", "properties": {"collection_times": [{"days": "Mon-Sat", "time": "1:00pm"}, {"days": "Sun", "time": "Closed"}], "id": "4950600032", "name": "USPS COLLECTION BOX - BLUE BOX", "address": {"city": "GRAND RAPIDS", "state": "MI", "street": "1800 WOODWARD AVE SE", "postcode": "49506"}}},
{"geometry": {"type": "Point", "coordinates": [-85.6337280962, 42.9567694989]}, "type": "Feature", "properties": {"collection_times": [{"days": "Mon-Fri", "time": "5:00pm"}, {"days": "Sat", "time": "3:00pm"}, {"days": "Sun", "time": "Closed"}], "id": "4950600035", "name": "USPS COLLECTION BOX - BLUE BOX", "address": {"city": "GRAND RAPIDS", "state": "MI", "street": "1451 LAKE DR SE", "postcode": "49506"}}},
{"geometry": {"type": "Point", "coordinates": [-85.6331553182, 42.9564340941]}, "type": "Feature", "properties": {"collection_times": [{"days": "Mon-Fri", "time": "5:00pm"}, {"days": "Sat", "time": "2:00pm"}, {"days": "Sun", "time": "Closed"}], "id": "4950600036", "name": "USPS COLLECTION BOX - PO LOBBY", "address": {"city": "GRAND RAPIDS", "state": "MI", "street": "1451 LAKE DR SE", "postcode": "49506"}}},
{"geometry": {"type": "Point", "coordinates": [-85.6116454448, 42.9486797686]}, "type": "Feature", "properties": {"collection_times": [{"days": "Mon-Sat", "time": "3:00pm"}, {"days": "Sun", "time": "Closed"}], "id": "4950600041", "name": "USPS COLLECTION BOX - BLUE BOX", "address": {"city": "GRAND RAPIDS", "state": "MI", "street": "746 LAKESIDE DR SE", "postcode": "49506"}}},
{"geometry": {"type": "Point", "coordinates": [-85.6236494229, 42.9549773648]}, "type": "Feature", "properties": {"collection_times": [{"days": "Mon-Fri", "time": "5:00pm"}, {"days": "Sat", "time": "3:00pm"}, {"days": "Sun", "time": "Closed"}], "id": "4950600048", "name": "USPS COLLECTION BOX - BLUE BOX", "address": {"city": "GRAND RAPIDS", "state": "MI", "street": "1840 WEALTHY ST SE", "postcode": "49506"}}},
{"geometry": {"type": "Point", "coordinates": [-85.620818734, 42.953288628]}, "type": "Feature", "properties": {"collection_times": [{"days": "Mon-Fri", "time": "5:00pm"}, {"days": "Sat", "time": "3:00pm"}, {"days": "Sun", "time": "Closed"}], "id": "4950600049", "name": "USPS COLLECTION BOX - BLUE BOX", "address": {"city": "GRAND RAPIDS", "state": "MI", "street": "1900 WEALTHY ST SE", "postcode": "49506"}}},
{"geometry": {"type": "Point", "coordinates": [-85.6146711447, 42.9506953348]}, "type": "Feature", "properties": {"collection_times": [{"days": "Mon-Fri", "time": "5:00pm"}, {"days": "Sat", "time": "3:00pm"}, {"days": "Sun", "time": "Closed"}], "id": "4950600052", "name": "USPS COLLECTION BOX - BLUE BOX", "address": {"city": "GRAND RAPIDS", "state": "MI", "street": "2181 WEALTHY ST SE", "postcode": "49506"}}},
{"geometry": {"type": "Point", "coordinates": [-85.6338121524, 42.937981313]}, "type": "Feature", "properties": {"collection_times": [{"days": "Mon-Fri", "time": "10:45am"}, {"days": "Sat", "time": "3:00pm"}, {"days": "Sun", "time": "Closed"}], "id": "4950700000", "name": "USPS COLLECTION BOX - BLUE BOX", "address": {"city": "GRAND RAPIDS", "state": "MI", "street": "1420 ADAMS ST SE", "postcode": "49507"}}},
{"geometry": {"type": "Point", "coordinates": [-85.642703136, 42.9199639665]}, "type": "Feature", "properties": {"collection_times": [{"days": "Mon-Fri", "time": "11:00am"}, {"days": "Sat", "time": "3:00pm"}, {"days": "Sun", "time": "Closed"}], "id": "4950700002", "name": "USPS COLLECTION BOX - BLUE BOX", "address": {"city": "GRAND RAPIDS", "state": "MI", "street": "1000 ALGER ST SE", "postcode": "49507"}}},
{"geometry": {"type": "Point", "coordinates": [-85.6468100674, 42.9200134168]}, "type": "Feature", "properties": {"collection_times": [{"days": "Mon-Sat", "time": "3:00pm"}, {"days": "Sun", "time": "Closed"}], "id": "4950700003", "name": "USPS COLLECTION BOX - BLUE BOX", "address": {"city": "GRAND RAPIDS", "state": "MI", "street": "820 ALGER ST SE", "postcode": "49507"}}},
{"geometry": {"type": "Point", "coordinates": [-85.6468100674, 42.9200134168]}, "type": "Feature", "properties": {"collection_times": [{"days": "Mon-Sat", "time": "3:00pm"}, {"days": "Sun", "time": "Closed"}], "id": "4950700004", "name": "USPS COLLECTION BOX - BLUE BOX", "address": {"city": "GRAND RAPIDS", "state": "MI", "street": "820 ALGER ST SE", "postcode": "49507"}}},
{"geometry": {"type": "Point", "coordinates": [-85.6437327034, 42.9148579005]}, "type": "Feature", "properties": {"collection_times": [{"days": "Mon-Fri", "time": "1:00pm"}, {"days": "Sat", "time": "3:00pm"}, {"days": "Sun", "time": "Closed"}], "id": "4950700007", "name": "USPS COLLECTION BOX - BLUE BOX", "address": {"city": "GRAND RAPIDS", "state": "MI", "street": "947 WALSH ST SE", "postcode": "49507"}}},
{"geometry": {"type": "Point", "coordinates": [-85.639278302, 42.9346311554]}, "type": "Feature", "properties": {"collection_times": [{"days": "Mon-Sat", "time": "3:00pm"}, {"days": "Sun", "time": "Closed"}], "id": "4950700008", "name": "USPS COLLECTION BOX - BLUE BOX", "address": {"city": "GRAND RAPIDS", "state": "MI", "street": "1601 KALAMAZOO AVE SE", "postcode": "49507"}}},
{"geometry": {"type": "Point", "coordinates": [-85.6720660741, 42.9354498161]}, "type": "Feature", "properties": {"collection_times": [{"days": "Mon-Fri", "time": "1:00pm"}, {"days": "Sat", "time": "3:00pm"}, {"days": "Sun", "time": "Closed"}], "id": "4950700011", "name": "USPS COLLECTION BOX - BLUE BOX", "address": {"city": "GRAND RAPIDS", "state": "MI", "street": "1501 BUCHANAN AVE SW", "postcode": "49507"}}},
{"geometry": {"type": "Point", "coordinates": [-85.6378990751, 42.9217105759]}, "type": "Feature", "properties": {"collection_times": [{"days": "Mon-Fri", "time": "11:00am"}, {"days": "Sat", "time": "3:00pm"}, {"days": "Sun", "time": "Closed"}], "id": "4950700023", "name": "USPS COLLECTION BOX - BLUE BOX", "address": {"city": "GRAND RAPIDS", "state": "MI", "street": "1220 EDNA ST SE", "postcode": "49507"}}},
{"geometry": {"type": "Point", "coordinates": [-85.6348638432, 42.9285034128]}, "type": "Feature", "properties": {"collection_times": [{"days": "Mon-Fri", "time": "10:45am"}, {"days": "Sat", "time": "3:00pm"}, {"days": "Sun", "time": "Closed"}], "id": "4950700028", "name": "USPS COLLECTION BOX - BLUE BOX", "address": {"city": "GRAND RAPIDS", "state": "MI", "street": "1911 KALAMAZOO AVE SE", "postcode": "49507"}}},
{"geometry": {"type": "Point", "coordinates": [-85.6572084039, 42.9155877254]}, "type": "Feature", "properties": {"collection_times": [{"days": "Mon-Fri", "time": "11:00am"}, {"days": "Sat", "time": "3:00pm"}, {"days": "Sun", "time": "Closed"}], "id": "4950700029", "name": "USPS COLLECTION BOX - BLUE BOX", "address": {"city": "GRAND RAPIDS", "state": "MI", "street": "2639 MADISON AVE SE", "postcode": "49507"}}},
{"geometry": {"type": "Point", "coordinates": [-85.6480174495, 42.9266867862]}, "type": "Feature", "properties": {"collection_times": [{"days": "Mon-Fri", "time": "5:00pm"}, {"days": "Sat", "time": "12:30pm"}, {"days": "Sun", "time": "Closed"}], "id": "4950700030", "name": "USPS COLLECTION BOX - PO LOBBY", "address": {"city": "GRAND RAPIDS", "state": "MI", "street": "2017 EASTERN AVE SE", "postcode": "49507"}}},
{"geometry": {"type": "Point", "coordinates": [-85.6588940764, 42.940412727]}, "type": "Feature", "properties": {"collection_times": [{"days": "Mon-Sat", "time": "3:00pm"}, {"days": "Sun", "time": "Closed"}], "id": "4950700040", "name": "USPS COLLECTION BOX - BLUE BOX", "address": {"city": "GRAND RAPIDS", "state": "MI", "street": "1226 MADISON AVE SE", "postcode": "49507"}}},
{"geometry": {"type": "Point", "coordinates": [-85.6480964322, 42.9267708717]}, "type": "Feature", "properties": {"collection_times": [{"days": "Mon-Fri", "time": "5:00pm"}, {"days": "Sat", "time": "3:00pm"}, {"days": "Sun", "time": "Closed"}], "id": "4950700041", "name": "USPS COLLECTION BOX - BLUE BOX", "address": {"city": "GRAND RAPIDS", "state": "MI", "street": "2017 EASTERN AVE SE", "postcode": "49507"}}},
{"geometry": {"type": "Point", "coordinates": [-85.6065125446, 42.8829426134]}, "type": "Feature", "properties": {"collection_times": [{"days": "Mon-Sat", "time": "3:00pm"}, {"days": "Sun", "time": "Closed"}], "id": "4950800007", "name": "USPS COLLECTION BOX - BLUE BOX", "address": {"city": "GRAND RAPIDS", "state": "MI", "street": "4433 BRETON RD SE", "postcode": "49508"}}},
{"geometry": {"type": "Point", "coordinates": [-85.6249322481, 42.8527831562]}, "type": "Feature", "properties": {"collection_times": [{"days": "Mon-Sat", "time": "3:00pm"}, {"days": "Sun", "time": "Closed"}], "id": "4950800020", "name": "USPS COLLECTION BOX - BLUE BOX", "address": {"city": "GRAND RAPIDS", "state": "MI", "street": "6127 KALAMAZOO AVE SE", "postcode": "49508"}}},
{"geometry": {"type": "Point", "coordinates": [-85.6582289693, 42.824188268]}, "type": "Feature", "properties": {"collection_times": [{"days": "Mon-Sat", "time": "12:00pm"}, {"days": "Sun", "time": "Closed"}], "id": "4950800023", "name": "USPS COLLECTION BOX - BLUE BOX", "address": {"city": "GRAND RAPIDS", "state": "MI", "street": "7615 QUAIL RUN WEST SE", "postcode": "49508"}}},
{"geometry": {"type": "Point", "coordinates": [-85.6314128617, 42.9126211036]}, "type": "Feature", "properties": {"collection_times": [{"days": "Mon-Fri", "time": "5:00pm"}, {"days": "Sat", "time": "3:00pm"}, {"days": "Sun", "time": "Closed"}], "id": "4950800030", "name": "USPS COLLECTION BOX - BLUE BOX", "address": {"city": "GRAND RAPIDS", "state": "MI", "street": "1540 28TH ST SE", "postcode": "49508"}}},
{"geometry": {"type": "Point", "coordinates": [-85.6169360214, 42.9126850049]}, "type": "Feature", "properties": {"collection_times": [{"days": "Mon-Sat", "time": "3:00pm"}, {"days": "Sun", "time": "Closed"}], "id": "4950800031", "name": "USPS COLLECTION BOX - BLUE BOX", "address": {"city": "GRAND RAPIDS", "state": "MI", "street": "2055 28TH ST SE", "postcode": "49508"}}},
{"geometry": {"type": "Point", "coordinates": [-85.643611734, 42.8511870623]}, "type": "Feature", "properties": {"collection_times": [{"days": "Mon-Sat", "time": "1:00pm"}, {"days": "Sun", "time": "Closed"}], "id": "4950800040", "name": "USPS COLLECTION BOX - BLUE BOX", "address": {"city": "GRAND RAPIDS", "state": "MI", "street": "865 WOODFIELD EAST DR SE", "postcode": "49508"}}},
{"geometry": {"type": "Point", "coordinates": [-85.6084725138, 42.9095497437]}, "type": "Feature", "properties": {"collection_times": [{"days": "Mon-Sat", "time": "3:00pm"}, {"days": "Sun", "time": "Closed"}], "id": "4950800041", "name": "USPS COLLECTION BOX - BLUE BOX", "address": {"city": "GRAND RAPIDS", "state": "MI", "street": "2370 29TH ST SE", "postcode": "49508"}}},
{"geometry": {"type": "Point", "coordinates": [-85.6268676897, 42.8865540213]}, "type": "Feature", "properties": {"collection_times": [{"days": "Mon-Sat", "time": "3:00pm"}, {"days": "Sun", "time": "Closed"}], "id": "4950800046", "name": "USPS COLLECTION BOX - BLUE BOX", "address": {"city": "GRAND RAPIDS", "state": "MI", "street": "1550 LANGLEY ST SE", "postcode": "49508"}}},
{"geometry": {"type": "Point", "coordinates": [-85.6450293721, 42.8676183572]}, "type": "Feature", "properties": {"collection_times": [{"days": "Mon-Sat", "time": "1:00pm"}, {"days": "Sun", "time": "Closed"}], "id": "4950800052", "name": "USPS COLLECTION BOX - BLUE BOX", "address": {"city": "GRAND RAPIDS", "state": "MI", "street": "5282 EASTERN AVE SE", "postcode": "49508"}}},
{"geometry": {"type": "Point", "coordinates": [-85.6066342726, 42.885498897]}, "type": "Feature", "properties": {"collection_times": [{"days": "Mon-Sat", "time": "3:00pm"}, {"days": "Sun", "time": "Closed"}], "id": "4950800053", "name": "USPS COLLECTION BOX - BLUE BOX", "address": {"city": "GRAND RAPIDS", "state": "MI", "street": "4325 BRETON RD SE", "postcode": "49508"}}},
{"geometry": {"type": "Point", "coordinates": [-85.6011377164, 42.8763865667]}, "type": "Feature", "properties": {"collection_times": [{"days": "Mon-Sat", "time": "3:00pm"}, {"days": "Sun", "time": "Closed"}], "id": "4950800055", "name": "USPS COLLECTION BOX - BLUE BOX", "address": {"city": "GRAND RAPIDS", "state": "MI", "street": "4900 BRETON RD SE", "postcode": "49508"}}},
{"geometry": {"type": "Point", "coordinates": [-85.7051933433, 42.9119781493]}, "type": "Feature", "properties": {"collection_times": [{"days": "Mon-Fri", "time": "1:00pm"}, {"days": "Sat", "time": "3:00pm"}, {"days": "Sun", "time": "Closed"}], "id": "4950900005", "name": "USPS COLLECTION BOX - BLUE BOX", "address": {"city": "GRAND RAPIDS", "state": "MI", "street": "2900 BURLINGAME AVE SW", "postcode": "49509"}}},
{"geometry": {"type": "Point", "coordinates": [-85.6933700011, 42.8993893496]}, "type": "Feature", "properties": {"collection_times": [{"days": "Mon-Fri", "time": "1:00pm"}, {"days": "Sat", "time": "3:00pm"}, {"days": "Sun", "time": "Closed"}], "id": "4950900008", "name": "USPS COLLECTION BOX - BLUE BOX", "address": {"city": "GRAND RAPIDS", "state": "MI", "street": "2400 WOODLAKE RD SW", "postcode": "49509"}}},
{"geometry": {"type": "Point", "coordinates": [-85.6836740348, 42.8642239782]}, "type": "Feature", "properties": {"collection_times": [{"days": "Mon-Fri", "time": "4:00pm"}, {"days": "Sat", "time": "3:00pm"}, {"days": "Sun", "time": "Closed"}], "id": "4950900021", "name": "USPS COLLECTION BOX - BLUE BOX", "address": {"city": "GRAND RAPIDS", "state": "MI", "street": "5500 CLYDE PARK AVE SW", "postcode": "49509"}}},
{"geometry": {"type": "Point", "coordinates": [-85.5975080817, 42.8837624426]}, "type": "Feature", "properties": {"collection_times": [{"days": "Mon-Sat", "time": "3:00pm"}, {"days": "Sun", "time": "Closed"}], "id": "4950900030", "name": "USPS COLLECTION BOX - BLUE BOX", "address": {"city": "GRAND RAPIDS", "state": "MI", "street": "2777 44TH ST SW", "postcode": "49509"}}},
{"geometry": {"type": "Point", "coordinates": [-85.6933700011, 42.8993893496]}, "type": "Feature", "properties": {"collection_times": [{"days": "Mon-Fri", "time": "1:00pm"}, {"days": "Sat", "time": "3:00pm"}, {"days": "Sun", "time": "Closed"}], "id": "4950900032", "name": "USPS COLLECTION BOX - BLUE BOX", "address": {"city": "GRAND RAPIDS", "state": "MI", "street": "4528 HALIFAX AVE SW", "postcode": "49509"}}},
{"geometry": {"type": "Point", "coordinates": [-85.6933700011, 42.8993893496]}, "type": "Feature", "properties": {"collection_times": [{"days": "Mon-Sat", "time": "3:00pm"}, {"days": "Sun", "time": "Closed"}], "id": "4950900035", "name": "USPS COLLECTION BOX - BLUE BOX", "address": {"city": "GRAND RAPIDS", "state": "MI", "street": "2301 LEE ST SW", "postcode": "49509"}}},
{"geometry": {"type": "Point", "coordinates": [-89.2596077439, 46.7626758824]}, "type": "Feature", "properties": {"collection_times": [{"days": "Mon-Fri", "time": "1:00pm"}, {"days": "Sat", "time": "3:00pm"}, {"days": "Sun", "time": "Closed"}], "id": "4950900036", "name": "USPS COLLECTION BOX - BLUE BOX", "address": {"city": "GRAND RAPIDS", "state": "MI", "street": "1870 PORTER ST SW", "postcode": "49509"}}},
{"geometry": {"type": "Point", "coordinates": [-85.6954590903, 42.9107473843]}, "type": "Feature", "properties": {"collection_times": [{"days": "Mon-Fri", "time": "5:00pm"}, {"days": "Sat", "time": "3:00pm"}, {"days": "Sun", "time": "Closed"}], "id": "4950900039", "name": "USPS COLLECTION BOX - BLUE BOX", "address": {"city": "GRAND RAPIDS", "state": "MI", "street": "2929 MICHAEL AVE SW", "postcode": "49509"}}},
{"geometry": {"type": "Point", "coordinates": [-85.6953627927, 42.9122111693]}, "type": "Feature", "properties": {"collection_times": [{"days": "Mon-Fri", "time": "5:00pm"}, {"days": "Sat", "time": "3:00pm"}, {"days": "Sun", "time": "Closed"}], "id": "4950900047", "name": "USPS COLLECTION BOX - BLUE BOX", "address": {"city": "GRAND RAPIDS", "state": "MI", "street": "2850 MICHAEL AVE SW", "postcode": "49509"}}},
{"geometry": {"type": "Point", "coordinates": [-85.6953627927, 42.9122111693]}, "type": "Feature", "properties": {"collection_times": [{"days": "Mon-Fri", "time": "5:00pm"}, {"days": "Sat", "time": "3:00pm"}, {"days": "Sun", "time": "Closed"}], "id": "4950900048", "name": "USPS COLLECTION BOX - BLUE BOX", "address": {"city": "GRAND RAPIDS", "state": "MI", "street": "2850 MICHAEL AVE SW", "postcode": "49509"}}},
{"geometry": {"type": "Point", "coordinates": [-85.6953627927, 42.9122111693]}, "type": "Feature", "properties": {"collection_times": [{"days": "Mon-Fri", "time": "5:00pm"}, {"days": "Sat", "time": "3:00pm"}, {"days": "Sun", "time": "Closed"}], "id": "4950900049", "name": "USPS COLLECTION BOX - BLUE BOX", "address": {"city": "GRAND RAPIDS", "state": "MI", "street": "2850 MICHAEL AVE SW", "postcode": "49509"}}},
{"geometry": {"type": "Point", "coordinates": [-85.6933700011, 42.8993893496]}, "type": "Feature", "properties": {"collection_times": [{"days": "Mon-Sat", "time": "3:00pm"}, {"days": "Sun", "time": "Closed"}], "id": "4950900052", "name": "USPS COLLECTION BOX - BLUE BOX", "address": {"city": "GRAND RAPIDS", "state": "MI", "street": "1849 R W BERENDS DR SW", "postcode": "49509"}}},
{"geometry": {"type": "Point", "coordinates": [-85.6954590903, 42.9107473843]}, "type": "Feature", "properties": {"collection_times": [{"days": "Mon-Fri", "time": "5:00pm"}, {"days": "Sat", "time": "3:00pm"}, {"days": "Sun", "time": "Closed"}], "id": "4950900065", "name": "USPS COLLECTION BOX - BLUE BOX", "address": {"city": "GRAND RAPIDS", "state": "MI", "street": "2929 MICHAEL AVE SW", "postcode": "49509"}}},
{"geometry": {"type": "Point", "coordinates": [-85.6933700011, 42.8993893496]}, "type": "Feature", "properties": {"collection_times": [{"days": "Mon-Sat", "time": "3:00pm"}, {"days": "Sun", "time": "Closed"}], "id": "4950900069", "name": "USPS COLLECTION BOX - BLUE BOX", "address": {"city": "GRAND RAPIDS", "state": "MI", "street": "4433 BYRON CENTER AVE SW", "postcode": "49509"}}},
{"geometry": {"type": "Point", "coordinates": [-85.6975576791, 42.9318782432]}, "type": "Feature", "properties": {"collection_times": [{"days": "Mon-Sat", "time": "3:00pm"}, {"days": "Sun", "time": "Closed"}], "id": "4950900075", "name": "USPS COLLECTION BOX - BLUE BOX", "address": {"city": "GRAND RAPIDS", "state": "MI", "street": "2301 LEE ST SW", "postcode": "49509"}}},
{"geometry": {"type": "Point", "coordinates": [-85.6933700011, 42.8993893496]}, "type": "Feature", "properties": {"collection_times": [{"days": "Mon-Fri", "time": "1:00pm"}, {"days": "Sat", "time": "3:00pm"}, {"days": "Sun", "time": "Closed"}], "id": "4950900079", "name": "USPS COLLECTION BOX - BLUE BOX", "address": {"city": "GRAND RAPIDS", "state": "MI", "street": "3100 WATERCHASE WAY SW", "postcode": "49509"}}},
{"geometry": {"type": "Point", "coordinates": [-85.6943910881, 42.9134607337]}, "type": "Feature", "properties": {"collection_times": [{"days": "Mon-Fri", "time": "5:00pm"}, {"days": "Sat-Sun", "time": "Closed"}], "id": "4950900080", "name": "USPS COLLECTION BOX - BLUE BOX", "address": {"city": "GRAND RAPIDS", "state": "MI", "street": "1155 28TH ST SW", "postcode": "49509"}}},
{"geometry": {"type": "Point", "coordinates": [-85.7038599895, 42.8988075214]}, "type": "Feature", "properties": {"collection_times": [{"days": "Mon-Sat", "time": "3:00pm"}, {"days": "Sun", "time": "Closed"}], "id": "4950900082", "name": "USPS COLLECTION BOX - BLUE BOX", "address": {"city": "GRAND RAPIDS", "state": "MI", "street": "1550 36TH ST SW", "postcode": "49509"}}},
{"geometry": {"type": "Point", "coordinates": [-85.691554038, 42.913419907]}, "type": "Feature", "properties": {"collection_times": [{"days": "Mon-Fri", "time": "6:00pm"}, {"days": "Sat", "time": "12:30pm"}, {"days": "Sun", "time": "Closed"}], "id": "4950900083", "name": "USPS COLLECTION BOX - PO LOBBY", "address": {"city": "GRAND RAPIDS", "state": "MI", "street": "1025 28TH ST SW", "postcode": "49509"}}},
{"geometry": {"type": "Point", "coordinates": [-85.5635759334, 42.8810587307]}, "type": "Feature", "properties": {"collection_times": [{"days": "Mon-Sat", "time": "10:00am"}, {"days": "Sun", "time": "Closed"}], "id": "4951200003", "name": "USPS COLLECTION BOX - BLUE BOX", "address": {"city": "GRAND RAPIDS", "state": "MI", "street": "4595 BROADMOOR AVE SE", "postcode": "49512"}}},
{"geometry": {"type": "Point", "coordinates": [-85.5434934159, 42.8638437053]}, "type": "Feature", "properties": {"collection_times": [{"days": "Mon-Fri", "time": "3:00pm"}, {"days": "Sat-Sun", "time": "Closed"}], "id": "4951200008", "name": "USPS COLLECTION BOX - BLUE BOX", "address": {"city": "GRAND RAPIDS", "state": "MI", "street": "4968 CORPORATE EXCHANGE BLVD SE", "postcode": "49512"}}},
{"geometry": {"type": "Point", "coordinates": [-85.5434934159, 42.8638437053]}, "type": "Feature", "properties": {"collection_times": [{"days": "Mon-Fri", "time": "3:00pm"}, {"days": "Sat-Sun", "time": "Closed"}], "id": "4951200009", "name": "USPS COLLECTION BOX - BLUE BOX", "address": {"city": "GRAND RAPIDS", "state": "MI", "street": "4968 CORPORATE EXCHANGE BLVD SE", "postcode": "49512"}}},
{"geometry": {"type": "Point", "coordinates": [-85.5611672013, 42.901903961]}, "type": "Feature", "properties": {"collection_times": [{"days": "Mon-Fri", "time": "1:00pm"}, {"days": "Sat", "time": "3:00pm"}, {"days": "Sun", "time": "Closed"}], "id": "4951200010", "name": "USPS COLLECTION BOX - BLUE BOX", "address": {"city": "GRAND RAPIDS", "state": "MI", "street": "4243 FOREST CREEK CT SE", "postcode": "49512"}}},
{"geometry": {"type": "Point", "coordinates": [-85.5633039219, 42.8834515241]}, "type": "Feature", "properties": {"collection_times": [{"days": "Mon-Fri", "time": "5:00pm"}, {"days": "Sat", "time": "3:00pm"}, {"days": "Sun", "time": "Closed"}], "id": "4951200011", "name": "USPS COLLECTION BOX - BLUE BOX", "address": {"city": "GRAND RAPIDS", "state": "MI", "street": "4180 44TH ST SE", "postcode": "49512"}}},
{"geometry": {"type": "Point", "coordinates": [-85.5501371669, 42.8836771905]}, "type": "Feature", "properties": {"collection_times": [{"days": "Mon-Fri", "time": "2:15pm"}, {"days": "Sat-Sun", "time": "Closed"}], "id": "4951200013", "name": "USPS COLLECTION BOX - BLUE BOX", "address": {"city": "GRAND RAPIDS", "state": "MI", "street": "4665 44TH ST SE", "postcode": "49512"}}},
{"geometry": {"type": "Point", "coordinates": [-85.5987443374, 42.8843419377]}, "type": "Feature", "properties": {"collection_times": [{"days": "Mon-Fri", "time": "10:15am"}, {"days": "Sat", "time": "3:00pm"}, {"days": "Sun", "time": "Closed"}], "id": "4951200019", "name": "USPS COLLECTION BOX - BLUE BOX", "address": {"city": "GRAND RAPIDS", "state": "MI", "street": "2650 PHEASANT RUN DR SE", "postcode": "49512"}}},
{"geometry": {"type": "Point", "coordinates": [-85.5335486995, 42.9129366655]}, "type": "Feature", "properties": {"collection_times": [{"days": "Mon-Fri", "time": "5:00pm"}, {"days": "Sat", "time": "3:00pm"}, {"days": "Sun", "time": "Closed"}], "id": "4951200026", "name": "USPS COLLECTION BOX - BLUE BOX", "address": {"city": "GRAND RAPIDS", "state": "MI", "street": "5531 28TH ST SE", "postcode": "49512"}}},
{"geometry": {"type": "Point", "coordinates": [-85.5901168533, 42.9034064491]}, "type": "Feature", "properties": {"collection_times": [{"days": "Mon-Fri", "time": "1:00pm"}, {"days": "Sat", "time": "3:00pm"}, {"days": "Sun", "time": "Closed"}], "id": "4951200027", "name": "USPS COLLECTION BOX - BLUE BOX", "address": {"city": "GRAND RAPIDS", "state": "MI", "street": "3151 WINGATE DR SE", "postcode": "49512"}}},
{"geometry": {"type": "Point", "coordinates": [-85.5670018737, 42.9040032916]}, "type": "Feature", "properties": {"collection_times": [{"days": "Mon-Fri", "time": "1:00pm"}, {"days": "Sat", "time": "3:00pm"}, {"days": "Sun", "time": "Closed"}], "id": "4951200028", "name": "USPS COLLECTION BOX - BLUE BOX", "address": {"city": "GRAND RAPIDS", "state": "MI", "street": "4005 WOODLAND CREEK DR SE", "postcode": "49512"}}},
{"geometry": {"type": "Point", "coordinates": [-85.5890746728, 42.9125645318]}, "type": "Feature", "properties": {"collection_times": [{"days": "Mon-Sat", "time": "3:00pm"}, {"days": "Sun", "time": "Closed"}], "id": "4951200029", "name": "USPS COLLECTION BOX - BLUE BOX", "address": {"city": "GRAND RAPIDS", "state": "MI", "street": "3195 28TH ST SE", "postcode": "49512"}}},
{"geometry": {"type": "Point", "coordinates": [-85.5407306732, 42.8666637459]}, "type": "Feature", "properties": {"collection_times": [{"days": "Mon-Fri", "time": "3:00pm"}, {"days": "Sat-Sun", "time": "Closed"}], "id": "4951200041", "name": "USPS COLLECTION BOX - BLUE BOX", "address": {"city": "GRAND RAPIDS", "state": "MI", "street": "5300 CORPORATE GROVE DR SE", "postcode": "49512"}}},
{"geometry": {"type": "Point", "coordinates": [-85.5729747888, 42.8834122217]}, "type": "Feature", "properties": {"collection_times": [{"days": "Mon-Fri", "time": "2:15pm"}, {"days": "Sat", "time": "3:00pm"}, {"days": "Sun", "time": "Closed"}], "id": "4951200042", "name": "USPS COLLECTION BOX - BLUE BOX", "address": {"city": "GRAND RAPIDS", "state": "MI", "street": "3680 44TH ST SE", "postcode": "49512"}}},
{"geometry": {"type": "Point", "coordinates": [-85.5633039219, 42.8834515241]}, "type": "Feature", "properties": {"collection_times": [{"days": "Mon-Fri", "time": "5:00pm"}, {"days": "Sat", "time": "3:00pm"}, {"days": "Sun", "time": "Closed"}], "id": "4951200057", "name": "USPS COLLECTION BOX - BLUE BOX", "address": {"city": "GRAND RAPIDS", "state": "MI", "street": "4180 44TH ST SE", "postcode": "49512"}}},
{"geometry": {"type": "Point", "coordinates": [-85.5469081774, 42.8779475701]}, "type": "Feature", "properties": {"collection_times": [{"days": "Mon-Sat", "time": "3:00pm"}, {"days": "Sun", "time": "Closed"}], "id": "4951200071", "name": "USPS COLLECTION BOX - BLUE BOX", "address": {"city": "GRAND RAPIDS", "state": "MI", "street": "4633 PATTERSON AVE SE", "postcode": "49512"}}},
{"geometry": {"type": "Point", "coordinates": [-85.56729089, 42.872172333]}, "type": "Feature", "properties": {"collection_times": [{"days": "Mon-Fri", "time": "5:00pm"}, {"days": "Sat", "time": "3:00pm"}, {"days": "Sun", "time": "Closed"}], "id": "4951200075", "name": "USPS COLLECTION BOX - BLUE BOX", "address": {"city": "GRAND RAPIDS", "state": "MI", "street": "3970 S GREENBROOKE DR SE", "postcode": "49512"}}},
{"geometry": {"type": "Point", "coordinates": [-85.56729089, 42.872172333]}, "type": "Feature", "properties": {"collection_times": [{"days": "Mon-Fri", "time": "5:00pm"}, {"days": "Sat", "time": "3:00pm"}, {"days": "Sun", "time": "Closed"}], "id": "4951200076", "name": "USPS COLLECTION BOX - BLUE BOX", "address": {"city": "GRAND RAPIDS", "state": "MI", "street": "3970 S GREENBROOKE DR SE", "postcode": "49512"}}},
{"geometry": {"type": "Point", "coordinates": [-85.56729089, 42.872172333]}, "type": "Feature", "properties": {"collection_times": [{"days": "Mon-Fri", "time": "4:00pm"}, {"days": "Sat", "time": "12:30pm"}, {"days": "Sun", "time": "Closed"}], "id": "4951200080", "name": "USPS COLLECTION BOX - PO LOBBY", "address": {"city": "GRAND RAPIDS", "state": "MI", "street": "3970 S GREENBROOKE DR SE", "postcode": "49512"}}},
{"geometry": {"type": "Point", "coordinates": [-85.5318839677, 42.9072753617]}, "type": "Feature", "properties": {"collection_times": [{"days": "Mon-Sat", "time": "3:00pm"}, {"days": "Sun", "time": "Closed"}], "id": "4951200082", "name": "USPS COLLECTION BOX - BLUE BOX", "address": {"city": "GRAND RAPIDS", "state": "MI", "street": "5496 GLENWOOD HILLS PKWY SE", "postcode": "49512"}}},
{"geometry": {"type": "Point", "coordinates": [-85.7229389208, 42.857586967]}, "type": "Feature", "properties": {"collection_times": [{"days": "Mon-Sat", "time": "3:00pm"}, {"days": "Sun", "time": "Closed"}], "id": "4951900001", "name": "USPS COLLECTION BOX - BLUE BOX", "address": {"city": "GRAND RAPIDS", "state": "MI", "street": "5900 BYRON CENTER AVE SW", "postcode": "49519"}}},
{"geometry": {"type": "Point", "coordinates": [-85.7185875142, 42.8991165588]}, "type": "Feature", "properties": {"collection_times": [{"days": "Mon-Sat", "time": "3:00pm"}, {"days": "Sun", "time": "Closed"}], "id": "4951900002", "name": "USPS COLLECTION BOX - BLUE BOX", "address": {"city": "GRAND RAPIDS", "state": "MI", "street": "2093 HEALTH DR SW", "postcode": "49519"}}},
{"geometry": {"type": "Point", "coordinates": [-85.7229389208, 42.857586967]}, "type": "Feature", "properties": {"collection_times": [{"days": "Mon-Sat", "time": "3:00pm"}, {"days": "Sun", "time": "Closed"}], "id": "4951900003", "name": "USPS COLLECTION BOX - BLUE BOX", "address": {"city": "GRAND RAPIDS", "state": "MI", "street": "5900 BYRON CENTER AVE SW", "postcode": "49519"}}},
{"geometry": {"type": "Point", "coordinates": [-85.7185875142, 42.8991165588]}, "type": "Feature", "properties": {"collection_times": [{"days": "Mon-Sat", "time": "3:00pm"}, {"days": "Sun", "time": "Closed"}], "id": "4951900004", "name": "USPS COLLECTION BOX - BLUE BOX", "address": {"city": "GRAND RAPIDS", "state": "MI", "street": "2093 HEALTH DR SW", "postcode": "49519"}}},
{"geometry": {"type": "Point", "coordinates": [-85.5896804032, 43.0409841501]}, "type": "Feature", "properties": {"collection_times": [{"days": "Mon-Sat", "time": "3:00pm"}, {"days": "Sun", "time": "Closed"}], "id": "4952500000", "name": "USPS COLLECTION BOX - BLUE BOX", "address": {"city": "GRAND RAPIDS", "state": "MI", "street": "4250 E BELTLINE AVE NE", "postcode": "49525"}}},
{"geometry": {"type": "Point", "coordinates": [-85.7780087847, 43.0161185876]}, "type": "Feature", "properties": {"collection_times": [{"days": "Mon-Fri", "time": "5:00pm"}, {"days": "Sat", "time": "3:00pm"}, {"days": "Sun", "time": "Closed"}], "id": "4954400000", "name": "USPS COLLECTION BOX - BLUE BOX", "address": {"city": "GRAND RAPIDS", "state": "MI", "street": "2800 WILSON DR NW", "postcode": "49544"}}},
{"geometry": {"type": "Point", "coordinates": [-85.5429892104, 42.9166657134]}, "type": "Feature", "properties": {"collection_times": [{"days": "Mon-Sat", "time": "3:00pm"}, {"days": "Sun", "time": "Closed"}], "id": "4954600001", "name": "USPS COLLECTION BOX - BLUE BOX", "address": {"city": "GRAND RAPIDS", "state": "MI", "street": "2620 HORIZON DR SE", "postcode": "49546"}}},
{"geometry": {"type": "Point", "coordinates": [-85.5788341128, 42.9196834246]}, "type": "Feature", "properties": {"collection_times": [{"days": "Mon-Fri", "time": "5:00pm"}, {"days": "Sat", "time": "3:00pm"}, {"days": "Sun", "time": "Closed"}], "id": "4954600008", "name": "USPS COLLECTION BOX - BLUE BOX", "address": {"city": "GRAND RAPIDS", "state": "MI", "street": "3600 CAMELOT DR SE", "postcode": "49546"}}},
{"geometry": {"type": "Point", "coordinates": [-85.5714802593, 42.9488292668]}, "type": "Feature", "properties": {"collection_times": [{"days": "Mon-Fri", "time": "5:00pm"}, {"days": "Sat", "time": "3:00pm"}, {"days": "Sun", "time": "Closed"}], "id": "4954600010", "name": "USPS COLLECTION BOX - BLUE BOX", "address": {"city": "GRAND RAPIDS", "state": "MI", "street": "699 CASCADE WEST PKWY SE", "postcode": "49546"}}},
{"geometry": {"type": "Point", "coordinates": [-85.5714802593, 42.9488292668]}, "type": "Feature", "properties": {"collection_times": [{"days": "Mon-Fri", "time": "5:00pm"}, {"days": "Sat", "time": "3:00pm"}, {"days": "Sun", "time": "Closed"}], "id": "4954600011", "name": "USPS COLLECTION BOX - BLUE BOX", "address": {"city": "GRAND RAPIDS", "state": "MI", "street": "699 CASCADE WEST PKWY SE", "postcode": "49546"}}},
{"geometry": {"type": "Point", "coordinates": [-85.5639571014, 42.9466783749]}, "type": "Feature", "properties": {"collection_times": [{"days": "Mon-Fri", "time": "5:00pm"}, {"days": "Sat", "time": "3:00pm"}, {"days": "Sun", "time": "Closed"}], "id": "4954600014", "name": "USPS COLLECTION BOX - BLUE BOX", "address": {"city": "GRAND RAPIDS", "state": "MI", "street": "889 KENMOOR AVE SE", "postcode": "49546"}}},
{"geometry": {"type": "Point", "coordinates": [-85.5639571014, 42.9466783749]}, "type": "Feature", "properties": {"collection_times": [{"days": "Mon-Fri", "time": "5:00pm"}, {"days": "Sat", "time": "3:00pm"}, {"days": "Sun", "time": "Closed"}], "id": "4954600015", "name": "USPS COLLECTION BOX - BLUE BOX", "address": {"city": "GRAND RAPIDS", "state": "MI", "street": "889 KENMOOR AVE SE", "postcode": "49546"}}},
{"geometry": {"type": "Point", "coordinates": [-85.5595668554, 42.9459426805]}, "type": "Feature", "properties": {"collection_times": [{"days": "Mon-Fri", "time": "5:00pm"}, {"days": "Sat", "time": "3:00pm"}, {"days": "Sun", "time": "Closed"}], "id": "4954600016", "name": "USPS COLLECTION BOX - BLUE BOX", "address": {"city": "GRAND RAPIDS", "state": "MI", "street": "970 PARCHMENT DR SE", "postcode": "49546"}}},
{"geometry": {"type": "Point", "coordinates": [-85.5595668554, 42.9459426805]}, "type": "Feature", "properties": {"collection_times": [{"days": "Mon-Fri", "time": "5:00pm"}, {"days": "Sat", "time": "3:00pm"}, {"days": "Sun", "time": "Closed"}], "id": "4954600017", "name": "USPS COLLECTION BOX - BLUE BOX", "address": {"city": "GRAND RAPIDS", "state": "MI", "street": "970 PARCHMENT DR SE", "postcode": "49546"}}},
{"geometry": {"type": "Point", "coordinates": [-85.5229938945, 42.9111022789]}, "type": "Feature", "properties": {"collection_times": [{"days": "Mon-Fri", "time": "5:00pm"}, {"days": "Sat", "time": "3:00pm"}, {"days": "Sun", "time": "Closed"}], "id": "4954600028", "name": "USPS COLLECTION BOX - BLUE BOX", "address": {"city": "GRAND RAPIDS", "state": "MI", "street": "2900 CHARLEVOIX DR SE", "postcode": "49546"}}},
{"geometry": {"type": "Point", "coordinates": [-85.5229938945, 42.9111022789]}, "type": "Feature", "properties": {"collection_times": [{"days": "Mon-Fri", "time": "5:00pm"}, {"days": "Sat", "time": "3:00pm"}, {"days": "Sun", "time": "Closed"}], "id": "4954600031", "name": "USPS COLLECTION BOX - BLUE BOX", "address": {"city": "GRAND RAPIDS", "state": "MI", "street": "2900 CHARLEVOIX DR SE", "postcode": "49546"}}},
{"geometry": {"type": "Point", "coordinates": [-85.5837172799, 42.9149931309]}, "type": "Feature", "properties": {"collection_times": [{"days": "Mon-Sat", "time": "3:00pm"}, {"days": "Sun", "time": "Closed"}], "id": "4954600036", "name": "USPS COLLECTION BOX - BLUE BOX", "address": {"city": "GRAND RAPIDS", "state": "MI", "street": "2627 E BELTLINE AVE SE", "postcode": "49546"}}},
{"geometry": {"type": "Point", "coordinates": [-85.5705574638, 42.945238827]}, "type": "Feature", "properties": {"collection_times": [{"days": "Mon-Sat", "time": "3:00pm"}, {"days": "Sun", "time": "Closed"}], "id": "4954600037", "name": "USPS COLLECTION BOX - BLUE BOX", "address": {"city": "GRAND RAPIDS", "state": "MI", "street": "1000 EAST PARIS AVE SE", "postcode": "49546"}}},
{"geometry": {"type": "Point", "coordinates": [-85.5487627343, 42.9156245457]}, "type": "Feature", "properties": {"collection_times": [{"days": "Mon-Sat", "time": "3:00pm"}, {"days": "Sun", "time": "Closed"}], "id": "4954600045", "name": "USPS COLLECTION BOX - BLUE BOX", "address": {"city": "GRAND RAPIDS", "state": "MI", "street": "4815 STARR ST SE", "postcode": "49546"}}},
{"geometry": {"type": "Point", "coordinates": [-85.5084249639, 42.91316619]}, "type": "Feature", "properties": {"collection_times": [{"days": "Mon-Sat", "time": "3:00pm"}, {"days": "Sun", "time": "Closed"}], "id": "4954600056", "name": "USPS COLLECTION BOX - BLUE BOX", "address": {"city": "GRAND RAPIDS", "state": "MI", "street": "6485 28TH ST SE", "postcode": "49546"}}},
{"geometry": {"type": "Point", "coordinates": [-85.5703170036, 42.9178775615]}, "type": "Feature", "properties": {"collection_times": [{"days": "Mon-Fri", "time": "5:00pm"}, {"days": "Sat", "time": "3:00pm"}, {"days": "Sun", "time": "Closed"}], "id": "4954600065", "name": "USPS COLLECTION BOX - BLUE BOX", "address": {"city": "GRAND RAPIDS", "state": "MI", "street": "3950 PENINSULAR DR SE", "postcode": "49546"}}},
{"geometry": {"type": "Point", "coordinates": [-85.5366744636, 42.9281218849]}, "type": "Feature", "properties": {"collection_times": [{"days": "Mon-Fri", "time": "1:00pm"}, {"days": "Sat", "time": "3:00pm"}, {"days": "Sun", "time": "Closed"}], "id": "4954600068", "name": "USPS COLLECTION BOX - BLUE BOX", "address": {"city": "GRAND RAPIDS", "state": "MI", "street": "2333 N QUAIL CREST CT SE", "postcode": "49546"}}},
{"geometry": {"type": "Point", "coordinates": [-85.5002759565, 42.914587658]}, "type": "Feature", "properties": {"collection_times": [{"days": "Mon-Sat", "time": "3:00pm"}, {"days": "Sun", "time": "Closed"}], "id": "4954600071", "name": "USPS COLLECTION BOX - BLUE BOX", "address": {"city": "GRAND RAPIDS", "state": "MI", "street": "6797 CASCADE RD SE", "postcode": "49546"}}},
{"geometry": {"type": "Point", "coordinates": [-85.5002759565, 42.914587658]}, "type": "Feature", "properties": {"collection_times": [{"days": "Mon-Sat", "time": "3:00pm"}, {"days": "Sun", "time": "Closed"}], "id": "4954600072", "name": "USPS COLLECTION BOX - BLUE BOX", "address": {"city": "GRAND RAPIDS", "state": "MI", "street": "6797 CASCADE RD SE", "postcode": "49546"}}},
{"geometry": {"type": "Point", "coordinates": [-85.5084249639, 42.91316619]}, "type": "Feature", "properties": {"collection_times": [{"days": "Mon-Sat", "time": "3:00pm"}, {"days": "Sun", "time": "Closed"}], "id": "4954600075", "name": "USPS COLLECTION BOX - BLUE BOX", "address": {"city": "GRAND RAPIDS", "state": "MI", "street": "6485 28TH ST SE", "postcode": "49546"}}},
{"geometry": {"type": "Point", "coordinates": [-85.5779978194, 42.9257780574]}, "type": "Feature", "properties": {"collection_times": [{"days": "Mon-Sat", "time": "10:00am"}, {"days": "Sun", "time": "Closed"}], "id": "4954600081", "name": "USPS COLLECTION BOX - BLUE BOX", "address": {"city": "GRAND RAPIDS", "state": "MI", "street": "2041 RIDGECREST RD SE", "postcode": "49546"}}},
{"geometry": {"type": "Point", "coordinates": [-85.5888124568, 42.926985727]}, "type": "Feature", "properties": {"collection_times": [{"days": "Mon-Sat", "time": "3:00pm"}, {"days": "Sun", "time": "Closed"}], "id": "4954600089", "name": "USPS COLLECTION BOX - BLUE BOX", "address": {"city": "GRAND RAPIDS", "state": "MI", "street": "3201 BURTON ST SE", "postcode": "49546"}}},
{"geometry": {"type": "Point", "coordinates": [-85.5418494695, 42.9429593824]}, "type": "Feature", "properties": {"collection_times": [{"days": "Mon-Sat", "time": "3:00pm"}, {"days": "Sun", "time": "Closed"}], "id": "4954600097", "name": "USPS COLLECTION BOX - BLUE BOX", "address": {"city": "GRAND RAPIDS", "state": "MI", "street": "5136 CASCADE RD SE", "postcode": "49546"}}},
{"geometry": {"type": "Point", "coordinates": [-85.5659186298, 42.9514819319]}, "type": "Feature", "properties": {"collection_times": [{"days": "Mon-Fri", "time": "5:00pm"}, {"days": "Sat", "time": "3:00pm"}, {"days": "Sun", "time": "Closed"}], "id": "4954600099", "name": "USPS COLLECTION BOX - BLUE BOX", "address": {"city": "GRAND RAPIDS", "state": "MI", "street": "649 KENMOOR AVE SE", "postcode": "49546"}}},
{"geometry": {"type": "Point", "coordinates": [-85.5703170036, 42.9178775615]}, "type": "Feature", "properties": {"collection_times": [{"days": "Mon-Fri", "time": "5:00pm"}, {"days": "Sat", "time": "3:00pm"}, {"days": "Sun", "time": "Closed"}], "id": "4954600105", "name": "USPS COLLECTION BOX - BLUE BOX", "address": {"city": "GRAND RAPIDS", "state": "MI", "street": "3950 PENINSULAR DR SE", "postcode": "49546"}}},
{"geometry": {"type": "Point", "coordinates": [-85.5715498218, 42.9158196705]}, "type": "Feature", "properties": {"collection_times": [{"days": "Mon-Fri", "time": "5:00pm"}, {"days": "Sat", "time": "3:00pm"}, {"days": "Sun", "time": "Closed"}], "id": "4954600106", "name": "USPS COLLECTION BOX - BLUE BOX", "address": {"city": "GRAND RAPIDS", "state": "MI", "street": "3855 SPARKS DR SE", "postcode": "49546"}}},
{"geometry": {"type": "Point", "coordinates": [-85.6708903775, 42.9104961786]}, "type": "Feature", "properties": {"collection_times": [{"days": "Mon-Fri", "time": "1:00pm"}, {"days": "Sat", "time": "3:00pm"}, {"days": "Sun", "time": "Closed"}], "id": "4954800002", "name": "USPS COLLECTION BOX - BLUE BOX", "address": {"city": "GRAND RAPIDS", "state": "MI", "street": "2935 BUCHANAN AVE SW", "postcode": "49548"}}},
{"geometry": {"type": "Point", "coordinates": [-85.665016204, 42.8850512101]}, "type": "Feature", "properties": {"collection_times": [{"days": "Mon-Fri", "time": "1:00pm"}, {"days": "Sat", "time": "3:00pm"}, {"days": "Sun", "time": "Closed"}], "id": "4954800005", "name": "USPS COLLECTION BOX - BLUE BOX", "address": {"city": "GRAND RAPIDS", "state": "MI", "street": "5 MURRAY ST SW", "postcode": "49548"}}},
{"geometry": {"type": "Point", "coordinates": [-85.6716033687, 42.9162688659]}, "type": "Feature", "properties": {"collection_times": [{"days": "Mon-Fri", "time": "1:00pm"}, {"days": "Sat", "time": "3:00pm"}, {"days": "Sun", "time": "Closed"}], "id": "4954800006", "name": "USPS COLLECTION BOX - BLUE BOX", "address": {"city": "GRAND RAPIDS", "state": "MI", "street": "220 MART ST SW", "postcode": "49548"}}},
{"geometry": {"type": "Point", "coordinates": [-85.6716033687, 42.9162688659]}, "type": "Feature", "properties": {"collection_times": [{"days": "Mon-Fri", "time": "1:00pm"}, {"days": "Sat", "time": "3:00pm"}, {"days": "Sun", "time": "Closed"}], "id": "4954800007", "name": "USPS COLLECTION BOX - BLUE BOX", "address": {"city": "GRAND RAPIDS", "state": "MI", "street": "220 MART ST SW", "postcode": "49548"}}},
{"geometry": {"type": "Point", "coordinates": [-85.665016204, 42.8850512101]}, "type": "Feature", "properties": {"collection_times": [{"days": "Mon-Fri", "time": "1:00pm"}, {"days": "Sat", "time": "3:00pm"}, {"days": "Sun", "time": "Closed"}], "id": "4954800009", "name": "USPS COLLECTION BOX - BLUE BOX", "address": {"city": "GRAND RAPIDS", "state": "MI", "street": "5 MURRAY ST SW", "postcode": "49548"}}},
{"geometry": {"type": "Point", "coordinates": [-85.6639647502, 42.8649318857]}, "type": "Feature", "properties": {"collection_times": [{"days": "Mon-Sat", "time": "1:00pm"}, {"days": "Sun", "time": "Closed"}], "id": "4954800014", "name": "USPS COLLECTION BOX - BLUE BOX", "address": {"city": "GRAND RAPIDS", "state": "MI", "street": "5450 DIVISION AVE S", "postcode": "49548"}}},
{"geometry": {"type": "Point", "coordinates": [-85.6637845645, 42.8467331903]}, "type": "Feature", "properties": {"collection_times": [{"days": "Mon-Fri", "time": "1:00pm"}, {"days": "Sat", "time": "3:00pm"}, {"days": "Sun", "time": "Closed"}], "id": "4954800019", "name": "USPS COLLECTION BOX - BLUE BOX", "address": {"city": "GRAND RAPIDS", "state": "MI", "street": "6471 DIVISION AVE S", "postcode": "49548"}}},
{"geometry": {"type": "Point", "coordinates": [-85.6560227971, 42.9033784955]}, "type": "Feature", "properties": {"collection_times": [{"days": "Mon-Sat", "time": "3:00pm"}, {"days": "Sun", "time": "Closed"}], "id": "4954800023", "name": "USPS COLLECTION BOX - BLUE BOX", "address": {"city": "GRAND RAPIDS", "state": "MI", "street": "3400 ROGER B CHAFFEE MEM DR SE", "postcode": "49548"}}},
{"geometry": {"type": "Point", "coordinates": [-85.6543674233, 42.9017304692]}, "type": "Feature", "properties": {"collection_times": [{"days": "Mon-Sat", "time": "3:00pm"}, {"days": "Sun", "time": "Closed"}], "id": "4954800025", "name": "USPS COLLECTION BOX - BLUE BOX", "address": {"city": "GRAND RAPIDS", "state": "MI", "street": "3457 ROGER B CHAFFEE MEM DR SE", "postcode": "49548"}}},
{"geometry": {"type": "Point", "coordinates": [-85.6533827918, 42.8948871034]}, "type": "Feature", "properties": {"collection_times": [{"days": "Mon-Sat", "time": "3:00pm"}, {"days": "Sun", "time": "Closed"}], "id": "4954800026", "name": "USPS COLLECTION BOX - BLUE BOX", "address": {"city": "GRAND RAPIDS", "state": "MI", "street": "3803 ROGER B CHAFFEE MEM DR SE", "postcode": "49548"}}},
{"geometry": {"type": "Point", "coordinates": [-85.6527192167, 42.8947661542]}, "type": "Feature", "properties": {"collection_times": [{"days": "Mon-Sat", "time": "3:00pm"}, {"days": "Sun", "time": "Closed"}], "id": "4954800028", "name": "USPS COLLECTION BOX - BLUE BOX", "address": {"city": "GRAND RAPIDS", "state": "MI", "street": "3810 ROGER B CHAFFEE MEM DR SE", "postcode": "49548"}}},
{"geometry": {"type": "Point", "coordinates": [-85.6621840586, 42.8497821913]}, "type": "Feature", "properties": {"collection_times": [{"days": "Mon-Fri", "time": "1:00pm"}, {"days": "Sat", "time": "3:00pm"}, {"days": "Sun", "time": "Closed"}], "id": "4954800037", "name": "USPS COLLECTION BOX - BLUE BOX", "address": {"city": "GRAND RAPIDS", "state": "MI", "street": "63 PIEDMONT DR SE", "postcode": "49548"}}},
{"geometry": {"type": "Point", "coordinates": [-85.6617543667, 42.8406563648]}, "type": "Feature", "properties": {"collection_times": [{"days": "Mon-Fri", "time": "1:00pm"}, {"days": "Sat-Sun", "time": "Closed"}], "id": "4954800039", "name": "USPS COLLECTION BOX - BLUE BOX", "address": {"city": "GRAND RAPIDS", "state": "MI", "street": "80 68TH ST SE", "postcode": "49548"}}},
{"geometry": {"type": "Point", "coordinates": [-85.656296304, 42.8766289791]}, "type": "Feature", "properties": {"collection_times": [{"days": "Mon-Fri", "time": "1:00pm"}, {"days": "Sat", "time": "3:00pm"}, {"days": "Sun", "time": "Closed"}], "id": "4954800040", "name": "USPS COLLECTION BOX - BLUE BOX", "address": {"city": "GRAND RAPIDS", "state": "MI", "street": "400 48TH ST SE", "postcode": "49548"}}},
{"geometry": {"type": "Point", "coordinates": [-85.624039557, 42.88360864]}, "type": "Feature", "properties": {"collection_times": [{"days": "Mon-Fri", "time": "5:00pm"}, {"days": "Sat", "time": "4:00pm"}, {"days": "Sun", "time": "Closed"}], "id": "4954800042", "name": "USPS COLLECTION BOX - PO LOBBY", "address": {"city": "GRAND RAPIDS", "state": "MI", "street": "1680 44TH ST SE", "postcode": "49548"}}},
{"geometry": {"type": "Point", "coordinates": [-85.624039557, 42.88360864]}, "type": "Feature", "properties": {"collection_times": [{"days": "Mon-Fri", "time": "5:00pm"}, {"days": "Sat", "time": "3:00pm"}, {"days": "Sun", "time": "Closed"}], "id": "4954800044", "name": "USPS COLLECTION BOX - BLUE BOX", "address": {"city": "GRAND RAPIDS", "state": "MI", "street": "1680 44TH ST SE", "postcode": "49548"}}},
{"geometry": {"type": "Point", "coordinates": [-85.6537028302, 42.8613044448]}, "type": "Feature", "properties": {"collection_times": [{"days": "Mon-Fri", "time": "1:00pm"}, {"days": "Sat", "time": "3:00pm"}, {"days": "Sun", "time": "Closed"}], "id": "4954800047", "name": "USPS COLLECTION BOX - BLUE BOX", "address": {"city": "GRAND RAPIDS", "state": "MI", "street": "444 BELLEWOOD DR SE", "postcode": "49548"}}},
{"geometry": {"type": "Point", "coordinates": [-85.624039557, 42.88360864]}, "type": "Feature", "properties": {"collection_times": [{"days": "Mon-Fri", "time": "5:00pm"}, {"days": "Sat", "time": "3:00pm"}, {"days": "Sun", "time": "Closed"}], "id": "4954800048", "name": "USPS COLLECTION BOX - APC", "address": {"city": "GRAND RAPIDS", "state": "MI", "street": "1680 44TH ST SE", "postcode": "49548"}}},
{"geometry": {"type": "Point", "coordinates": [-85.6636277719, 42.8423681927]}, "type": "Feature", "properties": {"collection_times": [{"days": "Mon-Fri", "time": "1:00pm"}, {"days": "Sat", "time": "3:00pm"}, {"days": "Sun", "time": "Closed"}], "id": "4954800049", "name": "USPS COLLECTION BOX - BLUE BOX", "address": {"city": "GRAND RAPIDS", "state": "MI", "street": "6700 DIVISION AVE S", "postcode": "49548"}}},
{"geometry": {"type": "Point", "coordinates": [-85.5361131494, 42.8837132148]}, "type": "Feature", "properties": {"collection_times": [{"days": "Mon-Fri", "time": "5:00pm"}, {"days": "Sat", "time": "3:00pm"}, {"days": "Sun", "time": "Closed"}], "id": "4958800015", "name": "USPS COLLECTION BOX - BLUE BOX", "address": {"city": "GRAND RAPIDS", "state": "MI", "street": "5500 44TH ST SE", "postcode": "49588"}}}
]}
