{"type": "FeatureCollection", "features": [
{"geometry": {"type": "Point", "coordinates": [-85.4065813202, 44.2805376159]}, "type": "Feature", "properties": {"collection_times": [{"days": "Mon-Sat", "time": "12:00pm"}, {"days": "Sun", "time": "Closed"}], "id": "4960100001", "name": "USPS COLLECTION BOX - BLUE BOX", "address": {"city": "CADILLAC", "state": "MI", "street": "2200 N MITCHELL ST", "postcode": "49601"}}},
{"geometry": {"type": "Point", "coordinates": [-85.4055706049, 44.2618019831]}, "type": "Feature", "properties": {"collection_times": [{"days": "Mon-Sat", "time": "10:00am"}, {"days": "Sun", "time": "Closed"}], "id": "4960100005", "name": "USPS COLLECTION BOX - BLUE BOX", "address": {"city": "CADILLAC", "state": "MI", "street": "1021 N MITCHELL ST", "postcode": "49601"}}},
{"geometry": {"type": "Point", "coordinates": [-85.399126765, 44.2502099752]}, "type": "Feature", "properties": {"collection_times": [{"days": "Mon-Sat", "time": "3:00pm"}, {"days": "Sun", "time": "Closed"}], "id": "4960100008", "name": "USPS COLLECTION BOX - BLUE BOX", "address": {"city": "CADILLAC", "state": "MI", "street": "123 S MITCHELL ST", "postcode": "49601"}}},
{"geometry": {"type": "Point", "coordinates": [-85.4630156475, 44.2555739298]}, "type": "Feature", "properties": {"collection_times": [{"days": "Mon-Sat", "time": "12:30pm"}, {"days": "Sun", "time": "Closed"}], "id": "4960100009", "name": "USPS COLLECTION BOX - BLUE BOX", "address": {"city": "CADILLAC", "state": "MI", "street": "6184 E M 115", "postcode": "49601"}}},
{"geometry": {"type": "Point", "coordinates": [-85.4062386399, 44.2653652301]}, "type": "Feature", "properties": {"collection_times": [{"days": "Mon-Sat", "time": "1:00pm"}, {"days": "Sun", "time": "Closed"}], "id": "4960100010", "name": "USPS COLLECTION BOX - BLUE BOX", "address": {"city": "CADILLAC", "state": "MI", "street": "1219 N MITCHELL ST", "postcode": "49601"}}},
{"geometry": {"type": "Point", "coordinates": [-85.4064593681, 44.2716873196]}, "type": "Feature", "properties": {"collection_times": [{"days": "Mon-Sat", "time": "11:00am"}, {"days": "Sun", "time": "Closed"}], "id": "4960100024", "name": "USPS COLLECTION BOX - BLUE BOX", "address": {"city": "CADILLAC", "state": "MI", "street": "1450 N MITCHELL ST", "postcode": "49601"}}},
{"geometry": {"type": "Point", "coordinates": [-85.437558146, 44.2501647754]}, "type": "Feature", "properties": {"collection_times": [{"days": "Mon-Sat", "time": "9:30am"}, {"days": "Sun", "time": "Closed"}], "id": "4960100025", "name": "USPS COLLECTION BOX - BLUE BOX", "address": {"city": "CADILLAC", "state": "MI", "street": "2201 COUNTRY ACRES ST", "postcode": "49601"}}},
{"geometry": {"type": "Point", "coordinates": [-85.399102861, 44.250507371]}, "type": "Feature", "properties": {"collection_times": [{"days": "Mon-Fri", "time": "4:30pm"}, {"days": "Sat", "time": "4:00pm"}, {"days": "Sun", "time": "Closed"}], "id": "4960100044", "name": "USPS COLLECTION BOX - BLUE BOX", "address": {"city": "CADILLAC", "state": "MI", "street": "118 E HARRIS ST", "postcode": "49601"}}},
{"geometry": {"type": "Point", "coordinates": [-85.399102861, 44.250507371]}, "type": "Feature", "properties": {"collection_times": [{"days": "Mon-Fri", "time": "4:55pm"}, {"days": "Sat", "time": "4:00pm"}, {"days": "Sun", "time": "Closed"}], "id": "4960100046", "name": "USPS COLLECTION BOX - PO LOBBY", "address": {"city": "CADILLAC", "state": "MI", "street": "118 E HARRIS ST", "postcode": "49601"}}},
{"geometry": {"type": "Point", "coordinates": [-85.4042903493, 44.2365770785]}, "type": "Feature", "properties": {"collection_times": [{"days": "Mon-Sat", "time": "10:30am"}, {"days": "Sun", "time": "Closed"}], "id": "4960100047", "name": "USPS COLLECTION BOX - BLUE BOX", "address": {"city": "CADILLAC", "state": "MI", "street": "630 PHEASANT BLVD", "postcode": "49601"}}},
{"geometry": {"type": "Point", "coordinates": [-85.4081467653, 44.2814626174]}, "type": "Feature", "properties": {"collection_times": [{"days": "Mon-Sat", "time": "1:00pm"}, {"days": "Sun", "time": "Closed"}], "id": "4960100049", "name": "USPS COLLECTION BOX - BLUE BOX", "address": {"city": "CADILLAC", "state": "MI", "street": "8605 E 34 RD", "postcode": "49601"}}},
{"geometry": {"type": "Point", "coordinates": [-85.4019840838, 44.2815050045]}, "type": "Feature", "properties": {"collection_times": [{"days": "Mon-Sat", "time": "12:30pm"}, {"days": "Sun", "time": "Closed"}], "id": "4960100050", "name": "USPS COLLECTION BOX - BLUE BOX", "address": {"city": "CADILLAC", "state": "MI", "street": "8917 E 34 RD", "postcode": "49601"}}},
{"geometry": {"type": "Point", "coordinates": [-85.4038124266, 44.2521839627]}, "type": "Feature", "properties": {"collection_times": [{"days": "Mon-Fri", "time": "1:00pm"}, {"days": "Sat", "time": "12:30pm"}, {"days": "Sun", "time": "Closed"}], "id": "4960100052", "name": "USPS COLLECTION BOX - BLUE BOX", "address": {"city": "CADILLAC", "state": "MI", "street": "401 N LAKE ST", "postcode": "49601"}}},
{"geometry": {"type": "Point", "coordinates": [-85.505668929, 44.764107365]}, "type": "Feature", "properties": {"collection_times": [{"days": "Mon-Fri", "time": "4:45pm"}, {"days": "Sat", "time": "11:00am"}, {"days": "Sun", "time": "Closed"}], "id": "4961000002", "name": "USPS COLLECTION BOX - BLUE BOX", "address": {"city": "ACME", "state": "MI", "street": "3585 BUNKER HILL RD", "postcode": "49610"}}},
{"geometry": {"type": "Point", "coordinates": [-85.505668929, 44.764107365]}, "type": "Feature", "properties": {"collection_times": [{"days": "Mon-Fri", "time": "4:45pm"}, {"days": "Sat", "time": "11:00am"}, {"days": "Sun", "time": "Closed"}], "id": "4961000004", "name": "USPS COLLECTION BOX - PO LOBBY", "address": {"city": "ACME", "state": "MI", "street": "3585 BUNKER HILL RD", "postcode": "49610"}}},
{"geometry": {"type": "Point", "coordinates": [-84.971592303, 44.975139651]}, "type": "Feature", "properties": {"collection_times": [{"days": "Mon-Fri", "time": "2:30pm"}, {"days": "Sat", "time": "10:30am"}, {"days": "Sun", "time": "Closed"}], "id": "4961100001", "name": "USPS COLLECTION BOX - BLUE BOX", "address": {"city": "ALBA", "state": "MI", "street": "3995 2ND ST", "postcode": "49611"}}},
{"geometry": {"type": "Point", "coordinates": [-84.971592303, 44.975139651]}, "type": "Feature", "properties": {"collection_times": [{"days": "Mon-Fri", "time": "2:30pm"}, {"days": "Sat", "time": "10:30am"}, {"days": "Sun", "time": "Closed"}], "id": "4961100002", "name": "USPS COLLECTION BOX - PO LOBBY", "address": {"city": "ALBA", "state": "MI", "street": "3995 2ND ST", "postcode": "49611"}}},
{"geometry": {"type": "Point", "coordinates": [-85.275020369, 44.88123214]}, "type": "Feature", "properties": {"collection_times": [{"days": "Mon-Fri", "time": "4:10pm"}, {"days": "Sat", "time": "11:00am"}, {"days": "Sun", "time": "Closed"}], "id": "4961200001", "name": "USPS COLLECTION BOX - BLUE BOX", "address": {"city": "ALDEN", "state": "MI", "street": "9095 HELENA RD", "postcode": "49612"}}},
{"geometry": {"type": "Point", "coordinates": [-85.275020369, 44.88123214]}, "type": "Feature", "properties": {"collection_times": [{"days": "Mon-Fri", "time": "4:10pm"}, {"days": "Sat", "time": "11:00am"}, {"days": "Sun", "time": "Closed"}], "id": "4961200002", "name": "USPS COLLECTION BOX - PO LOBBY", "address": {"city": "ALDEN", "state": "MI", "street": "9095 HELENA RD", "postcode": "49612"}}},
{"geometry": {"type": "Point", "coordinates": [-86.236030316, 44.493256548]}, "type": "Feature", "properties": {"collection_times": [{"days": "Mon-Fri", "time": "3:00pm"}, {"days": "Sat", "time": "11:00am"}, {"days": "Sun", "time": "Closed"}], "id": "4961300001", "name": "USPS COLLECTION BOX - BLUE BOX", "address": {"city": "ARCADIA", "state": "MI", "street": "3294 LAKE ST", "postcode": "49613"}}},
{"geometry": {"type": "Point", "coordinates": [-86.236030316, 44.493256548]}, "type": "Feature", "properties": {"collection_times": [{"days": "Mon-Fri", "time": "3:00pm"}, {"days": "Sat", "time": "11:00am"}, {"days": "Sun", "time": "Closed"}], "id": "4961300002", "name": "USPS COLLECTION BOX - PO LOBBY", "address": {"city": "ARCADIA", "state": "MI", "street": "3294 LAKE ST", "postcode": "49613"}}},
{"geometry": {"type": "Point", "coordinates": [-86.1458815488, 44.422602084]}, "type": "Feature", "properties": {"collection_times": [{"days": "Mon-Fri", "time": "4:30pm"}, {"days": "Sat", "time": "11:00am"}, {"days": "Sun", "time": "Closed"}], "id": "4961400002", "name": "USPS COLLECTION BOX - BLUE BOX", "address": {"city": "BEAR LAKE", "state": "MI", "street": "7777 MAIN ST", "postcode": "49614"}}},
{"geometry": {"type": "Point", "coordinates": [-86.145881549, 44.422602084]}, "type": "Feature", "properties": {"collection_times": [{"days": "Mon-Fri", "time": "4:30pm"}, {"days": "Sat", "time": "11:00am"}, {"days": "Sun", "time": "Closed"}], "id": "4961400003", "name": "USPS COLLECTION BOX - PO LOBBY", "address": {"city": "BEAR LAKE", "state": "MI", "street": "7777 MAIN ST", "postcode": "49614"}}},
{"geometry": {"type": "Point", "coordinates": [-85.209941797, 44.975798756]}, "type": "Feature", "properties": {"collection_times": [{"days": "Mon-Fri", "time": "3:50pm"}, {"days": "Sat", "time": "10:00am"}, {"days": "Sun", "time": "Closed"}], "id": "4961500001", "name": "USPS COLLECTION BOX - BLUE BOX", "address": {"city": "BELLAIRE", "state": "MI", "street": "110 N BRIDGE ST", "postcode": "49615"}}},
{"geometry": {"type": "Point", "coordinates": [-85.209941797, 44.975798756]}, "type": "Feature", "properties": {"collection_times": [{"days": "Mon-Fri", "time": "3:50pm"}, {"days": "Sat", "time": "10:00am"}, {"days": "Sun", "time": "Closed"}], "id": "4961500002", "name": "USPS COLLECTION BOX - PO LOBBY", "address": {"city": "BELLAIRE", "state": "MI", "street": "110 N BRIDGE ST", "postcode": "49615"}}},
{"geometry": {"type": "Point", "coordinates": [-85.1983790133, 44.9743520428]}, "type": "Feature", "properties": {"collection_times": [{"days": "Mon-Sat", "time": "10:00am"}, {"days": "Sun", "time": "Closed"}], "id": "4961500003", "name": "USPS COLLECTION BOX - BLUE BOX", "address": {"city": "BELLAIRE", "state": "MI", "street": "305 S DIVISION ST", "postcode": "49615"}}},
{"geometry": {"type": "Point", "coordinates": [-86.099099672, 44.617108128]}, "type": "Feature", "properties": {"collection_times": [{"days": "Mon-Fri", "time": "3:45pm"}, {"days": "Sat", "time": "11:00am"}, {"days": "Sun", "time": "Closed"}], "id": "4961600001", "name": "USPS COLLECTION BOX - BLUE BOX", "address": {"city": "BENZONIA", "state": "MI", "street": "1035 MICHIGAN AVE", "postcode": "49616"}}},
{"geometry": {"type": "Point", "coordinates": [-86.0990995948, 44.6070562398]}, "type": "Feature", "properties": {"collection_times": [{"days": "Mon-Sat", "time": "12:30pm"}, {"days": "Sun", "time": "Closed"}], "id": "4961600003", "name": "USPS COLLECTION BOX - BLUE BOX", "address": {"city": "BENZONIA", "state": "MI", "street": "1747 BENZIE HWY", "postcode": "49616"}}},
{"geometry": {"type": "Point", "coordinates": [-86.099099672, 44.617108128]}, "type": "Feature", "properties": {"collection_times": [{"days": "Mon-Fri", "time": "3:45pm"}, {"days": "Sat", "time": "11:00am"}, {"days": "Sun", "time": "Closed"}], "id": "4961600004", "name": "USPS COLLECTION BOX - PO LOBBY", "address": {"city": "BENZONIA", "state": "MI", "street": "1035 MICHIGAN AVE", "postcode": "49616"}}},
{"geometry": {"type": "Point", "coordinates": [-86.095779183, 44.628393855]}, "type": "Feature", "properties": {"collection_times": [{"days": "Mon-Fri", "time": "4:00pm"}, {"days": "Sat", "time": "11:00am"}, {"days": "Sun", "time": "Closed"}], "id": "4961700001", "name": "USPS COLLECTION BOX - BLUE BOX", "address": {"city": "BEULAH", "state": "MI", "street": "246 S BENZIE BLVD", "postcode": "49617"}}},
{"geometry": {"type": "Point", "coordinates": [-86.095779183, 44.628393855]}, "type": "Feature", "properties": {"collection_times": [{"days": "Mon-Fri", "time": "4:15pm"}, {"days": "Sat", "time": "11:15am"}, {"days": "Sun", "time": "Closed"}], "id": "4961700002", "name": "USPS COLLECTION BOX - PO LOBBY", "address": {"city": "BEULAH", "state": "MI", "street": "246 S BENZIE BLVD", "postcode": "49617"}}},
{"geometry": {"type": "Point", "coordinates": [-86.0916481635, 44.632448172]}, "type": "Feature", "properties": {"collection_times": [{"days": "Mon-Sat", "time": "1:00pm"}, {"days": "Sun", "time": "Closed"}], "id": "4961700003", "name": "USPS COLLECTION BOX - BLUE BOX", "address": {"city": "BEULAH", "state": "MI", "street": "49 N BENZIE BLVD", "postcode": "49617"}}},
{"geometry": {"type": "Point", "coordinates": [-85.600349266, 44.289089799]}, "type": "Feature", "properties": {"collection_times": [{"days": "Mon-Fri", "time": "2:30pm"}, {"days": "Sat", "time": "12:30pm"}, {"days": "Sun", "time": "Closed"}], "id": "4961800001", "name": "USPS COLLECTION BOX - BLUE BOX", "address": {"city": "BOON", "state": "MI", "street": "209 S HASKINS RD", "postcode": "49618"}}},
{"geometry": {"type": "Point", "coordinates": [-85.600349266, 44.289089799]}, "type": "Feature", "properties": {"collection_times": [{"days": "Mon-Fri", "time": "2:30pm"}, {"days": "Sat", "time": "12:30pm"}, {"days": "Sun", "time": "Closed"}], "id": "4961800002", "name": "USPS COLLECTION BOX - PO LOBBY", "address": {"city": "BOON", "state": "MI", "street": "209 S HASKINS RD", "postcode": "49618"}}},
{"geometry": {"type": "Point", "coordinates": [-86.018501403, 44.304402168]}, "type": "Feature", "properties": {"collection_times": [{"days": "Mon-Fri", "time": "4:05pm"}, {"days": "Sat", "time": "10:30am"}, {"days": "Sun", "time": "Closed"}], "id": "4961900001", "name": "USPS COLLECTION BOX - BLUE BOX", "address": {"city": "BRETHREN", "state": "MI", "street": "14125 COATES HWY", "postcode": "49619"}}},
{"geometry": {"type": "Point", "coordinates": [-86.018501403, 44.304402168]}, "type": "Feature", "properties": {"collection_times": [{"days": "Mon-Fri", "time": "4:05pm"}, {"days": "Sat", "time": "10:30am"}, {"days": "Sun", "time": "Closed"}], "id": "4961900002", "name": "USPS COLLECTION BOX - PO LOBBY", "address": {"city": "BRETHREN", "state": "MI", "street": "14125 COATES HWY", "postcode": "49619"}}},
{"geometry": {"type": "Point", "coordinates": [-85.676842518, 44.504324674]}, "type": "Feature", "properties": {"collection_times": [{"days": "Mon-Fri", "time": "4:15pm"}, {"days": "Sat", "time": "9:45am"}, {"days": "Sun", "time": "Closed"}], "id": "4962000001", "name": "USPS COLLECTION BOX - BLUE BOX", "address": {"city": "BUCKLEY", "state": "MI", "street": "100 E WEXFORD AVE", "postcode": "49620"}}},
{"geometry": {"type": "Point", "coordinates": [-85.676842518, 44.504324674]}, "type": "Feature", "properties": {"collection_times": [{"days": "Mon-Fri", "time": "4:00pm"}, {"days": "Sat", "time": "10:00am"}, {"days": "Sun", "time": "Closed"}], "id": "4962000002", "name": "USPS COLLECTION BOX - PO LOBBY", "address": {"city": "BUCKLEY", "state": "MI", "street": "100 E WEXFORD AVE", "postcode": "49620"}}},
{"geometry": {"type": "Point", "coordinates": [-85.795871339, 44.847447237]}, "type": "Feature", "properties": {"collection_times": [{"days": "Mon-Fri", "time": "4:00pm"}, {"days": "Sat", "time": "10:30am"}, {"days": "Sun", "time": "Closed"}], "id": "4962100001", "name": "USPS COLLECTION BOX - BLUE BOX", "address": {"city": "CEDAR", "state": "MI", "street": "2989 E BELLINGER RD", "postcode": "49621"}}},
{"geometry": {"type": "Point", "coordinates": [-85.795871339, 44.847447237]}, "type": "Feature", "properties": {"collection_times": [{"days": "Mon-Fri", "time": "4:00pm"}, {"days": "Sat", "time": "10:30am"}, {"days": "Sun", "time": "Closed"}], "id": "4962100002", "name": "USPS COLLECTION BOX - PO LOBBY", "address": {"city": "CEDAR", "state": "MI", "street": "2989 E BELLINGER RD", "postcode": "49621"}}},
{"geometry": {"type": "Point", "coordinates": [-85.263170303, 45.070176398]}, "type": "Feature", "properties": {"collection_times": [{"days": "Mon-Fri", "time": "3:25pm"}, {"days": "Sat", "time": "10:00am"}, {"days": "Sun", "time": "Closed"}], "id": "4962200002", "name": "USPS COLLECTION BOX - BLUE BOX", "address": {"city": "CENTRAL LAKE", "state": "MI", "street": "7956 E STATE ST", "postcode": "49622"}}},
{"geometry": {"type": "Point", "coordinates": [-85.263170303, 45.070176398]}, "type": "Feature", "properties": {"collection_times": [{"days": "Mon-Fri", "time": "3:25pm"}, {"days": "Sat", "time": "10:00am"}, {"days": "Sun", "time": "Closed"}], "id": "4962200004", "name": "USPS COLLECTION BOX - PO LOBBY", "address": {"city": "CENTRAL LAKE", "state": "MI", "street": "7956 E STATE ST", "postcode": "49622"}}},
{"geometry": {"type": "Point", "coordinates": [-85.637172173, 43.888498722]}, "type": "Feature", "properties": {"collection_times": [{"days": "Mon-Fri", "time": "4:15pm"}, {"days": "Sat", "time": "10:00am"}, {"days": "Sun", "time": "Closed"}], "id": "4962300001", "name": "USPS COLLECTION BOX - BLUE BOX", "address": {"city": "CHASE", "state": "MI", "street": "6958 S DEPOT ST", "postcode": "49623"}}},
{"geometry": {"type": "Point", "coordinates": [-85.637172173, 43.888498722]}, "type": "Feature", "properties": {"collection_times": [{"days": "Mon-Fri", "time": "11:15am"}, {"days": "Sat", "time": "10:00am"}, {"days": "Sun", "time": "Closed"}], "id": "4962300002", "name": "USPS COLLECTION BOX - PO LOBBY", "address": {"city": "CHASE", "state": "MI", "street": "6958 S DEPOT ST", "postcode": "49623"}}},
{"geometry": {"type": "Point", "coordinates": [-85.922989915, 44.481867395]}, "type": "Feature", "properties": {"collection_times": [{"days": "Mon-Fri", "time": "4:30pm"}, {"days": "Sat", "time": "10:00am"}, {"days": "Sun", "time": "Closed"}], "id": "4962500001", "name": "USPS COLLECTION BOX - BLUE BOX", "address": {"city": "COPEMISH", "state": "MI", "street": "18772 MAPLE ST", "postcode": "49625"}}},
{"geometry": {"type": "Point", "coordinates": [-85.9249359755, 44.4800049062]}, "type": "Feature", "properties": {"collection_times": [{"days": "Mon-Sat", "time": "2:30pm"}, {"days": "Sun", "time": "Closed"}], "id": "4962500002", "name": "USPS COLLECTION BOX - BLUE BOX", "address": {"city": "COPEMISH", "state": "MI", "street": "18541 CADILLAC HWY", "postcode": "49625"}}},
{"geometry": {"type": "Point", "coordinates": [-85.922989915, 44.481867395]}, "type": "Feature", "properties": {"collection_times": [{"days": "Mon-Fri", "time": "4:30pm"}, {"days": "Sat", "time": "10:00am"}, {"days": "Sun", "time": "Closed"}], "id": "4962500003", "name": "USPS COLLECTION BOX - PO LOBBY", "address": {"city": "COPEMISH", "state": "MI", "street": "18772 MAPLE ST", "postcode": "49625"}}},
{"geometry": {"type": "Point", "coordinates": [-86.296868491, 44.24409289]}, "type": "Feature", "properties": {"collection_times": [{"days": "Mon-Fri", "time": "11:00am"}, {"days": "Sat", "time": "9:00am"}, {"days": "Sun", "time": "Closed"}], "id": "4962600001", "name": "USPS COLLECTION BOX - BLUE BOX", "address": {"city": "EASTLAKE", "state": "MI", "street": "298 1ST ST", "postcode": "49626"}}},
{"geometry": {"type": "Point", "coordinates": [-86.296868491, 44.24409289]}, "type": "Feature", "properties": {"collection_times": [{"days": "Mon-Fri", "time": "11:00am"}, {"days": "Sat", "time": "9:00am"}, {"days": "Sun", "time": "Closed"}], "id": "4962600002", "name": "USPS COLLECTION BOX - PO LOBBY", "address": {"city": "EASTLAKE", "state": "MI", "street": "298 1ST ST", "postcode": "49626"}}},
{"geometry": {"type": "Point", "coordinates": [-85.351180436, 45.108002354]}, "type": "Feature", "properties": {"collection_times": [{"days": "Mon-Fri", "time": "3:10pm"}, {"days": "Sat", "time": "10:00am"}, {"days": "Sun", "time": "Closed"}], "id": "4962700001", "name": "USPS COLLECTION BOX - BLUE BOX", "address": {"city": "EASTPORT", "state": "MI", "street": "12037 BAKER ST", "postcode": "49627"}}},
{"geometry": {"type": "Point", "coordinates": [-85.351180436, 45.108002354]}, "type": "Feature", "properties": {"collection_times": [{"days": "Mon-Fri", "time": "3:10pm"}, {"days": "Sat", "time": "10:00am"}, {"days": "Sun", "time": "Closed"}], "id": "4962700003", "name": "USPS COLLECTION BOX - PO LOBBY", "address": {"city": "EASTPORT", "state": "MI", "street": "12037 BAKER ST", "postcode": "49627"}}},
{"geometry": {"type": "Point", "coordinates": [-86.2263592149, 44.6182779733]}, "type": "Feature", "properties": {"collection_times": [{"days": "Mon-Fri", "time": "3:00pm"}, {"days": "Sat", "time": "10:30am"}, {"days": "Sun", "time": "Closed"}], "id": "4962800001", "name": "USPS COLLECTION BOX - BLUE BOX", "address": {"city": "ELBERTA", "state": "MI", "street": "655 FRANKFORT AVE", "postcode": "49628"}}},
{"geometry": {"type": "Point", "coordinates": [-86.226359215, 44.618277973]}, "type": "Feature", "properties": {"collection_times": [{"days": "Mon-Fri", "time": "1:00pm"}, {"days": "Sat", "time": "10:30am"}, {"days": "Sun", "time": "Closed"}], "id": "4962800002", "name": "USPS COLLECTION BOX - PO LOBBY", "address": {"city": "ELBERTA", "state": "MI", "street": "655 FRANKFORT AVE", "postcode": "49628"}}},
{"geometry": {"type": "Point", "coordinates": [-85.412144209, 44.89842188]}, "type": "Feature", "properties": {"collection_times": [{"days": "Mon-Fri", "time": "4:30pm"}, {"days": "Sat", "time": "11:00am"}, {"days": "Sun", "time": "Closed"}], "id": "4962900001", "name": "USPS COLLECTION BOX - BLUE BOX", "address": {"city": "ELK RAPIDS", "state": "MI", "street": "105 RIVER ST", "postcode": "49629"}}},
{"geometry": {"type": "Point", "coordinates": [-85.412144209, 44.89842188]}, "type": "Feature", "properties": {"collection_times": [{"days": "Mon-Fri", "time": "4:30pm"}, {"days": "Sat", "time": "11:00am"}, {"days": "Sun", "time": "Closed"}], "id": "4962900002", "name": "USPS COLLECTION BOX - BLUE BOX", "address": {"city": "ELK RAPIDS", "state": "MI", "street": "105 RIVER ST", "postcode": "49629"}}},
{"geometry": {"type": "Point", "coordinates": [-85.4109051992, 44.8915061363]}, "type": "Feature", "properties": {"collection_times": [{"days": "Mon-Sat", "time": "11:00am"}, {"days": "Sun", "time": "Closed"}], "id": "4962900004", "name": "USPS COLLECTION BOX - BLUE BOX", "address": {"city": "ELK RAPIDS", "state": "MI", "street": "930 US HIGHWAY 31", "postcode": "49629"}}},
{"geometry": {"type": "Point", "coordinates": [-85.4040782304, 44.900078878]}, "type": "Feature", "properties": {"collection_times": [{"days": "Mon-Sat", "time": "1:00pm"}, {"days": "Sun", "time": "Closed"}], "id": "4962900005", "name": "USPS COLLECTION BOX - BLUE BOX", "address": {"city": "ELK RAPIDS", "state": "MI", "street": "250 AMES ST", "postcode": "49629"}}},
{"geometry": {"type": "Point", "coordinates": [-85.412144209, 44.89842188]}, "type": "Feature", "properties": {"collection_times": [{"days": "Mon-Fri", "time": "4:30pm"}, {"days": "Sat", "time": "11:00am"}, {"days": "Sun", "time": "Closed"}], "id": "4962900006", "name": "USPS COLLECTION BOX - PO LOBBY", "address": {"city": "ELK RAPIDS", "state": "MI", "street": "105 RIVER ST", "postcode": "49629"}}},
{"geometry": {"type": "Point", "coordinates": [-86.063115574, 44.811024606]}, "type": "Feature", "properties": {"collection_times": [{"days": "Mon-Fri", "time": "4:00pm"}, {"days": "Sat", "time": "11:00am"}, {"days": "Sun", "time": "Closed"}], "id": "4963000001", "name": "USPS COLLECTION BOX - BLUE BOX", "address": {"city": "EMPIRE", "state": "MI", "street": "10234 W FRONT ST", "postcode": "49630"}}},
{"geometry": {"type": "Point", "coordinates": [-86.063115574, 44.811024606]}, "type": "Feature", "properties": {"collection_times": [{"days": "Mon-Fri", "time": "4:00pm"}, {"days": "Sat", "time": "11:00am"}, {"days": "Sun", "time": "Closed"}], "id": "4963000002", "name": "USPS COLLECTION BOX - PO LOBBY", "address": {"city": "EMPIRE", "state": "MI", "street": "10234 W FRONT ST", "postcode": "49630"}}},
{"geometry": {"type": "Point", "coordinates": [-85.259352439, 43.902438354]}, "type": "Feature", "properties": {"collection_times": [{"days": "Mon-Fri", "time": "4:00pm"}, {"days": "Sat", "time": "1:00pm"}, {"days": "Sun", "time": "Closed"}], "id": "4963100001", "name": "USPS COLLECTION BOX - BLUE BOX", "address": {"city": "EVART", "state": "MI", "street": "240 N MAIN ST", "postcode": "49631"}}},
{"geometry": {"type": "Point", "coordinates": [-85.259352439, 43.902438354]}, "type": "Feature", "properties": {"collection_times": [{"days": "Mon-Fri", "time": "4:00pm"}, {"days": "Sat", "time": "1:00pm"}, {"days": "Sun", "time": "Closed"}], "id": "4963100002", "name": "USPS COLLECTION BOX - PO LOBBY", "address": {"city": "EVART", "state": "MI", "street": "240 N MAIN ST", "postcode": "49631"}}},
{"geometry": {"type": "Point", "coordinates": [-85.2716819074, 43.9006628588]}, "type": "Feature", "properties": {"collection_times": [{"days": "Mon-Sat", "time": "10:00am"}, {"days": "Sun", "time": "Closed"}], "id": "4963100004", "name": "USPS COLLECTION BOX - BLUE BOX", "address": {"city": "EVART", "state": "MI", "street": "820 W 7TH ST", "postcode": "49631"}}},
{"geometry": {"type": "Point", "coordinates": [-85.087509612, 44.236778448]}, "type": "Feature", "properties": {"collection_times": [{"days": "Mon-Fri", "time": "4:00pm"}, {"days": "Sat", "time": "10:00am"}, {"days": "Sun", "time": "Closed"}], "id": "4963200001", "name": "USPS COLLECTION BOX - BLUE BOX", "address": {"city": "FALMOUTH", "state": "MI", "street": "6520 S MAIN ST", "postcode": "49632"}}},
{"geometry": {"type": "Point", "coordinates": [-85.087509612, 44.236778448]}, "type": "Feature", "properties": {"collection_times": [{"days": "Mon-Fri", "time": "3:45pm"}, {"days": "Sat", "time": "10:00am"}, {"days": "Sun", "time": "Closed"}], "id": "4963200002", "name": "USPS COLLECTION BOX - PO LOBBY", "address": {"city": "FALMOUTH", "state": "MI", "street": "6520 S MAIN ST", "postcode": "49632"}}},
{"geometry": {"type": "Point", "coordinates": [-85.348353888, 44.577633536]}, "type": "Feature", "properties": {"collection_times": [{"days": "Mon-Fri", "time": "4:15pm"}, {"days": "Sat", "time": "10:00am"}, {"days": "Sun", "time": "Closed"}], "id": "4963300001", "name": "USPS COLLECTION BOX - BLUE BOX", "address": {"city": "FIFE LAKE", "state": "MI", "street": "113 OAK ST", "postcode": "49633"}}},
{"geometry": {"type": "Point", "coordinates": [-85.348353888, 44.577633536]}, "type": "Feature", "properties": {"collection_times": [{"days": "Mon-Fri", "time": "4:30pm"}, {"days": "Sat", "time": "10:00am"}, {"days": "Sun", "time": "Closed"}], "id": "4963300002", "name": "USPS COLLECTION BOX - PO LOBBY", "address": {"city": "FIFE LAKE", "state": "MI", "street": "113 OAK ST", "postcode": "49633"}}},
{"geometry": {"type": "Point", "coordinates": [-86.289495312, 44.216771742]}, "type": "Feature", "properties": {"collection_times": [{"days": "Mon-Fri", "time": "4:00pm"}, {"days": "Sat", "time": "10:45am"}, {"days": "Sun", "time": "Closed"}], "id": "4963400001", "name": "USPS COLLECTION BOX - BLUE BOX", "address": {"city": "FILER CITY", "state": "MI", "street": "711 MEE ST", "postcode": "49634"}}},
{"geometry": {"type": "Point", "coordinates": [-86.23546109, 44.63248676]}, "type": "Feature", "properties": {"collection_times": [{"days": "Mon-Fri", "time": "3:30pm"}, {"days": "Sat", "time": "11:30am"}, {"days": "Sun", "time": "Closed"}], "id": "4963500001", "name": "USPS COLLECTION BOX - BLUE BOX", "address": {"city": "FRANKFORT", "state": "MI", "street": "615 MAIN ST", "postcode": "49635"}}},
{"geometry": {"type": "Point", "coordinates": [-86.2394211588, 44.6325698988]}, "type": "Feature", "properties": {"collection_times": [{"days": "Mon-Sat", "time": "2:15pm"}, {"days": "Sun", "time": "Closed"}], "id": "4963500003", "name": "USPS COLLECTION BOX - BLUE BOX", "address": {"city": "FRANKFORT", "state": "MI", "street": "412 MAIN ST", "postcode": "49635"}}},
{"geometry": {"type": "Point", "coordinates": [-86.23546109, 44.63248676]}, "type": "Feature", "properties": {"collection_times": [{"days": "Mon-Fri", "time": "3:45pm"}, {"days": "Sat", "time": "11:00am"}, {"days": "Sun", "time": "Closed"}], "id": "4963500004", "name": "USPS COLLECTION BOX - PO LOBBY", "address": {"city": "FRANKFORT", "state": "MI", "street": "615 MAIN ST", "postcode": "49635"}}},
{"geometry": {"type": "Point", "coordinates": [-86.2287353779, 44.6335723666]}, "type": "Feature", "properties": {"collection_times": [{"days": "Mon-Sat", "time": "1:30pm"}, {"days": "Sun", "time": "Closed"}], "id": "4963500005", "name": "USPS COLLECTION BOX - BLUE BOX", "address": {"city": "FRANKFORT", "state": "MI", "street": "1002 FOREST AVE", "postcode": "49635"}}},
{"geometry": {"type": "Point", "coordinates": [-85.9881359302, 44.8977573546]}, "type": "Feature", "properties": {"collection_times": [{"days": "Mon-Fri", "time": "4:00pm"}, {"days": "Sat", "time": "10:45am"}, {"days": "Sun", "time": "Closed"}], "id": "4963600005", "name": "USPS COLLECTION BOX - BLUE BOX", "address": {"city": "GLEN ARBOR", "state": "MI", "street": "6456 WESTERN AVE", "postcode": "49636"}}},
{"geometry": {"type": "Point", "coordinates": [-85.9881359302, 44.8977573546]}, "type": "Feature", "properties": {"collection_times": [{"days": "Mon-Fri", "time": "4:00pm"}, {"days": "Sat", "time": "10:45am"}, {"days": "Sun", "time": "Closed"}], "id": "4963600006", "name": "USPS COLLECTION BOX - BLUE BOX", "address": {"city": "GLEN ARBOR", "state": "MI", "street": "6456 WESTERN AVE", "postcode": "49636"}}},
{"geometry": {"type": "Point", "coordinates": [-85.9881359302, 44.8977573546]}, "type": "Feature", "properties": {"collection_times": [{"days": "Mon-Fri", "time": "4:15pm"}, {"days": "Sat", "time": "10:45am"}, {"days": "Sun", "time": "Closed"}], "id": "4963600007", "name": "USPS COLLECTION BOX - PO LOBBY", "address": {"city": "GLEN ARBOR", "state": "MI", "street": "6456 WESTERN AVE", "postcode": "49636"}}},
{"geometry": {"type": "Point", "coordinates": [-85.693634653, 44.6637819486]}, "type": "Feature", "properties": {"collection_times": [{"days": "Mon-Fri", "time": "4:30pm"}, {"days": "Sat", "time": "9:00am"}, {"days": "Sun", "time": "Closed"}], "id": "4963700001", "name": "USPS COLLECTION BOX - BLUE BOX", "address": {"city": "GRAWN", "state": "MI", "street": "1568 STATE ST", "postcode": "49637"}}},
{"geometry": {"type": "Point", "coordinates": [-85.693634653, 44.6637819486]}, "type": "Feature", "properties": {"collection_times": [{"days": "Mon-Fri", "time": "4:30pm"}, {"days": "Sat", "time": "9:00am"}, {"days": "Sun", "time": "Closed"}], "id": "4963700002", "name": "USPS COLLECTION BOX - BLUE BOX", "address": {"city": "GRAWN", "state": "MI", "street": "1568 STATE ST", "postcode": "49637"}}},
{"geometry": {"type": "Point", "coordinates": [-85.697527711, 44.30911004]}, "type": "Feature", "properties": {"collection_times": [{"days": "Mon-Fri", "time": "4:00pm"}, {"days": "Sat", "time": "9:45am"}, {"days": "Sun", "time": "Closed"}], "id": "4963800001", "name": "USPS COLLECTION BOX - BLUE BOX", "address": {"city": "HARRIETTA", "state": "MI", "street": "108 S DAVIS ST", "postcode": "49638"}}},
{"geometry": {"type": "Point", "coordinates": [-85.697527711, 44.30911004]}, "type": "Feature", "properties": {"collection_times": [{"days": "Mon-Fri", "time": "12:00pm"}, {"days": "Sat", "time": "9:45am"}, {"days": "Sun", "time": "Closed"}], "id": "4963800002", "name": "USPS COLLECTION BOX - PO LOBBY", "address": {"city": "HARRIETTA", "state": "MI", "street": "108 S DAVIS ST", "postcode": "49638"}}},
{"geometry": {"type": "Point", "coordinates": [-85.444377278, 43.849920086]}, "type": "Feature", "properties": {"collection_times": [{"days": "Mon-Fri", "time": "4:00pm"}, {"days": "Sat", "time": "10:30am"}, {"days": "Sun", "time": "Closed"}], "id": "4963900001", "name": "USPS COLLECTION BOX - BLUE BOX", "address": {"city": "HERSEY", "state": "MI", "street": "102 S MAIN ST", "postcode": "49639"}}},
{"geometry": {"type": "Point", "coordinates": [-85.444377278, 43.849920086]}, "type": "Feature", "properties": {"collection_times": [{"days": "Mon-Fri", "time": "4:00pm"}, {"days": "Sat", "time": "10:30am"}, {"days": "Sun", "time": "Closed"}], "id": "4963900003", "name": "USPS COLLECTION BOX - PO LOBBY", "address": {"city": "HERSEY", "state": "MI", "street": "102 S MAIN ST", "postcode": "49639"}}},
{"geometry": {"type": "Point", "coordinates": [-86.019121331, 44.663155893]}, "type": "Feature", "properties": {"collection_times": [{"days": "Mon-Fri", "time": "4:00pm"}, {"days": "Sat", "time": "10:00am"}, {"days": "Sun", "time": "Closed"}], "id": "4964000001", "name": "USPS COLLECTION BOX - BLUE BOX", "address": {"city": "HONOR", "state": "MI", "street": "10982 MAIN ST", "postcode": "49640"}}},
{"geometry": {"type": "Point", "coordinates": [-86.019121331, 44.663155893]}, "type": "Feature", "properties": {"collection_times": [{"days": "Mon-Fri", "time": "4:00pm"}, {"days": "Sat", "time": "10:00am"}, {"days": "Sun", "time": "Closed"}], "id": "4964000002", "name": "USPS COLLECTION BOX - PO LOBBY", "address": {"city": "HONOR", "state": "MI", "street": "10982 MAIN ST", "postcode": "49640"}}},
{"geometry": {"type": "Point", "coordinates": [-85.785849943, 43.894776353]}, "type": "Feature", "properties": {"collection_times": [{"days": "Mon-Fri", "time": "4:05pm"}, {"days": "Sat", "time": "10:45am"}, {"days": "Sun", "time": "Closed"}], "id": "4964200001", "name": "USPS COLLECTION BOX - BLUE BOX", "address": {"city": "IDLEWILD", "state": "MI", "street": "812 E ESSEX", "postcode": "49642"}}},
{"geometry": {"type": "Point", "coordinates": [-85.785849943, 43.894776353]}, "type": "Feature", "properties": {"collection_times": [{"days": "Mon-Fri", "time": "4:05pm"}, {"days": "Sat", "time": "10:45am"}, {"days": "Sun", "time": "Closed"}], "id": "4964200002", "name": "USPS COLLECTION BOX - PO LOBBY", "address": {"city": "IDLEWILD", "state": "MI", "street": "812 E ESSEX", "postcode": "49642"}}},
{"geometry": {"type": "Point", "coordinates": [-85.7679012972, 44.6586497107]}, "type": "Feature", "properties": {"collection_times": [{"days": "Mon-Sat", "time": "11:00am"}, {"days": "Sun", "time": "Closed"}], "id": "4964300003", "name": "USPS COLLECTION BOX - BLUE BOX", "address": {"city": "INTERLOCHEN", "state": "MI", "street": "2000 M 137", "postcode": "49643"}}},
{"geometry": {"type": "Point", "coordinates": [-85.766129779, 44.645368507]}, "type": "Feature", "properties": {"collection_times": [{"days": "Mon-Fri", "time": "4:30pm"}, {"days": "Sat", "time": "11:00am"}, {"days": "Sun", "time": "Closed"}], "id": "4964300004", "name": "USPS COLLECTION BOX - BLUE BOX", "address": {"city": "INTERLOCHEN", "state": "MI", "street": "9508 9TH ST", "postcode": "49643"}}},
{"geometry": {"type": "Point", "coordinates": [-85.766129779, 44.645368507]}, "type": "Feature", "properties": {"collection_times": [{"days": "Mon-Fri", "time": "4:30pm"}, {"days": "Sat", "time": "9:00am"}, {"days": "Sun", "time": "Closed"}], "id": "4964300006", "name": "USPS COLLECTION BOX - PO LOBBY", "address": {"city": "INTERLOCHEN", "state": "MI", "street": "9508 9TH ST", "postcode": "49643"}}},
{"geometry": {"type": "Point", "coordinates": [-85.8311818849, 44.6368872324]}, "type": "Feature", "properties": {"collection_times": [{"days": "Mon-Fri", "time": "11:30am"}, {"days": "Sat", "time": "11:00am"}, {"days": "Sun", "time": "Closed"}], "id": "4964300007", "name": "USPS COLLECTION BOX - BLUE BOX", "address": {"city": "INTERLOCHEN", "state": "MI", "street": "9475 MARKET DR", "postcode": "49643"}}},
{"geometry": {"type": "Point", "coordinates": [-85.914269099, 44.140447654]}, "type": "Feature", "properties": {"collection_times": [{"days": "Mon-Fri", "time": "3:25pm"}, {"days": "Sat", "time": "11:15am"}, {"days": "Sun", "time": "Closed"}], "id": "4964400001", "name": "USPS COLLECTION BOX - BLUE BOX", "address": {"city": "IRONS", "state": "MI", "street": "5574 W 10 1/2 MILE RD", "postcode": "49644"}}},
{"geometry": {"type": "Point", "coordinates": [-85.914269099, 44.140447654]}, "type": "Feature", "properties": {"collection_times": [{"days": "Mon-Fri", "time": "3:25pm"}, {"days": "Sat", "time": "11:15am"}, {"days": "Sun", "time": "Closed"}], "id": "4964400002", "name": "USPS COLLECTION BOX - PO LOBBY", "address": {"city": "IRONS", "state": "MI", "street": "5574 W 10 1/2 MILE RD", "postcode": "49644"}}},
{"geometry": {"type": "Point", "coordinates": [-86.011690265, 44.373427306]}, "type": "Feature", "properties": {"collection_times": [{"days": "Mon-Fri", "time": "3:30pm"}, {"days": "Sat", "time": "11:00am"}, {"days": "Sun", "time": "Closed"}], "id": "4964500001", "name": "USPS COLLECTION BOX - BLUE BOX", "address": {"city": "KALEVA", "state": "MI", "street": "14424 WUOKSI AVE", "postcode": "49645"}}},
{"geometry": {"type": "Point", "coordinates": [-86.011690265, 44.373427306]}, "type": "Feature", "properties": {"collection_times": [{"days": "Mon-Fri", "time": "3:30pm"}, {"days": "Sat", "time": "11:00am"}, {"days": "Sun", "time": "Closed"}], "id": "4964500002", "name": "USPS COLLECTION BOX - PO LOBBY", "address": {"city": "KALEVA", "state": "MI", "street": "14424 WUOKSI AVE", "postcode": "49645"}}},
{"geometry": {"type": "Point", "coordinates": [-85.178899054, 44.73041323]}, "type": "Feature", "properties": {"collection_times": [{"days": "Mon-Fri", "time": "4:15pm"}, {"days": "Sat", "time": "11:00am"}, {"days": "Sun", "time": "Closed"}], "id": "4964600001", "name": "USPS COLLECTION BOX - BLUE BOX", "address": {"city": "KALKASKA", "state": "MI", "street": "105 W 3RD ST", "postcode": "49646"}}},
{"geometry": {"type": "Point", "coordinates": [-85.178899054, 44.73041323]}, "type": "Feature", "properties": {"collection_times": [{"days": "Mon-Fri", "time": "4:15pm"}, {"days": "Sat", "time": "11:00am"}, {"days": "Sun", "time": "Closed"}], "id": "4964600003", "name": "USPS COLLECTION BOX - PO LOBBY", "address": {"city": "KALKASKA", "state": "MI", "street": "105 W 3RD ST", "postcode": "49646"}}},
{"geometry": {"type": "Point", "coordinates": [-85.178899054, 44.73041323]}, "type": "Feature", "properties": {"collection_times": [{"days": "Mon-Fri", "time": "4:15pm"}, {"days": "Sat", "time": "11:00am"}, {"days": "Sun", "time": "Closed"}], "id": "4964600004", "name": "USPS COLLECTION BOX - BLUE BOX", "address": {"city": "KALKASKA", "state": "MI", "street": "105 W 3RD ST", "postcode": "49646"}}},
{"geometry": {"type": "Point", "coordinates": [-85.371354586, 44.929426327]}, "type": "Feature", "properties": {"collection_times": [{"days": "Mon-Fri", "time": "4:00pm"}, {"days": "Sat", "time": "10:00am"}, {"days": "Sun", "time": "Closed"}], "id": "4964800001", "name": "USPS COLLECTION BOX - BLUE BOX", "address": {"city": "KEWADIN", "state": "MI", "street": "7292 CAIRN HWY", "postcode": "49648"}}},
{"geometry": {"type": "Point", "coordinates": [-85.371354586, 44.929426327]}, "type": "Feature", "properties": {"collection_times": [{"days": "Mon-Fri", "time": "4:00pm"}, {"days": "Sat", "time": "10:00am"}, {"days": "Sun", "time": "Closed"}], "id": "4964800002", "name": "USPS COLLECTION BOX - PO LOBBY", "address": {"city": "KEWADIN", "state": "MI", "street": "7292 CAIRN HWY", "postcode": "49648"}}},
{"geometry": {"type": "Point", "coordinates": [-85.536151626, 44.58361964]}, "type": "Feature", "properties": {"collection_times": [{"days": "Mon-Fri", "time": "4:45pm"}, {"days": "Sat", "time": "11:00am"}, {"days": "Sun", "time": "Closed"}], "id": "4964900001", "name": "USPS COLLECTION BOX - BLUE BOX", "address": {"city": "KINGSLEY", "state": "MI", "street": "201 S BROWNSON AVE", "postcode": "49649"}}},
{"geometry": {"type": "Point", "coordinates": [-85.4981730549, 44.5845849327]}, "type": "Feature", "properties": {"collection_times": [{"days": "Mon-Sat", "time": "11:00am"}, {"days": "Sun", "time": "Closed"}], "id": "4964900002", "name": "USPS COLLECTION BOX - BLUE BOX", "address": {"city": "KINGSLEY", "state": "MI", "street": "2377 E M 113", "postcode": "49649"}}},
{"geometry": {"type": "Point", "coordinates": [-85.536151626, 44.58361964]}, "type": "Feature", "properties": {"collection_times": [{"days": "Mon-Fri", "time": "4:30pm"}, {"days": "Sat", "time": "11:00am"}, {"days": "Sun", "time": "Closed"}], "id": "4964900003", "name": "USPS COLLECTION BOX - PO LOBBY", "address": {"city": "KINGSLEY", "state": "MI", "street": "201 S BROWNSON AVE", "postcode": "49649"}}},
{"geometry": {"type": "Point", "coordinates": [-85.843862723, 44.723916865]}, "type": "Feature", "properties": {"collection_times": [{"days": "Mon-Fri", "time": "4:30pm"}, {"days": "Sat", "time": "11:00am"}, {"days": "Sun", "time": "Closed"}], "id": "4965000001", "name": "USPS COLLECTION BOX - BLUE BOX", "address": {"city": "LAKE ANN", "state": "MI", "street": "19614 MAPLE ST", "postcode": "49650"}}},
{"geometry": {"type": "Point", "coordinates": [-85.843862723, 44.723916865]}, "type": "Feature", "properties": {"collection_times": [{"days": "Mon-Fri", "time": "4:30pm"}, {"days": "Sat", "time": "11:00am"}, {"days": "Sun", "time": "Closed"}], "id": "4965000002", "name": "USPS COLLECTION BOX - PO LOBBY", "address": {"city": "LAKE ANN", "state": "MI", "street": "19614 MAPLE ST", "postcode": "49650"}}},
{"geometry": {"type": "Point", "coordinates": [-85.096019511, 44.481447941]}, "type": "Feature", "properties": {"collection_times": [{"days": "Mon-Fri", "time": "4:15pm"}, {"days": "Sat", "time": "11:00am"}, {"days": "Sun", "time": "Closed"}], "id": "4965100001", "name": "USPS COLLECTION BOX - BLUE BOX", "address": {"city": "LAKE CITY", "state": "MI", "street": "121 E JOHN ST", "postcode": "49651"}}},
{"geometry": {"type": "Point", "coordinates": [-85.096019511, 44.481447941]}, "type": "Feature", "properties": {"collection_times": [{"days": "Mon-Fri", "time": "4:30pm"}, {"days": "Sat", "time": "11:00am"}, {"days": "Sun", "time": "Closed"}], "id": "4965100002", "name": "USPS COLLECTION BOX - PO LOBBY", "address": {"city": "LAKE CITY", "state": "MI", "street": "121 E JOHN ST", "postcode": "49651"}}},
{"geometry": {"type": "Point", "coordinates": [-84.9889403687, 44.4657737595]}, "type": "Feature", "properties": {"collection_times": [{"days": "Mon-Sat", "time": "11:00am"}, {"days": "Sun", "time": "Closed"}], "id": "4965100005", "name": "USPS COLLECTION BOX - BLUE BOX", "address": {"city": "LAKE CITY", "state": "MI", "street": "4865 E MOORESTOWN RD", "postcode": "49651"}}},
{"geometry": {"type": "Point", "coordinates": [-85.2120005451, 44.3392265961]}, "type": "Feature", "properties": {"collection_times": [{"days": "Mon-Fri", "time": "12:00pm"}, {"days": "Sat", "time": "11:00am"}, {"days": "Sun", "time": "Closed"}], "id": "4965100006", "name": "USPS COLLECTION BOX - BLUE BOX", "address": {"city": "LAKE CITY", "state": "MI", "street": "5760 W HOUGHTON LAKE RD", "postcode": "49651"}}},
{"geometry": {"type": "Point", "coordinates": [-85.71532223, 44.981728399]}, "type": "Feature", "properties": {"collection_times": [{"days": "Mon-Fri", "time": "3:45pm"}, {"days": "Sat", "time": "10:45am"}, {"days": "Sun", "time": "Closed"}], "id": "4965300001", "name": "USPS COLLECTION BOX - BLUE BOX", "address": {"city": "LAKE LEELANAU", "state": "MI", "street": "115 S SAINT JOSEPH ST", "postcode": "49653"}}},
{"geometry": {"type": "Point", "coordinates": [-85.71532223, 44.981728399]}, "type": "Feature", "properties": {"collection_times": [{"days": "Mon-Fri", "time": "3:45pm"}, {"days": "Sat", "time": "10:45am"}, {"days": "Sun", "time": "Closed"}], "id": "4965300002", "name": "USPS COLLECTION BOX - PO LOBBY", "address": {"city": "LAKE LEELANAU", "state": "MI", "street": "115 S SAINT JOSEPH ST", "postcode": "49653"}}},
{"geometry": {"type": "Point", "coordinates": [-85.759740389, 45.023662238]}, "type": "Feature", "properties": {"collection_times": [{"days": "Mon-Fri", "time": "4:00pm"}, {"days": "Sat", "time": "11:00am"}, {"days": "Sun", "time": "Closed"}], "id": "4965400001", "name": "USPS COLLECTION BOX - BLUE BOX", "address": {"city": "LELAND", "state": "MI", "street": "122 N MAIN ST", "postcode": "49654"}}},
{"geometry": {"type": "Point", "coordinates": [-85.759740389, 45.023662238]}, "type": "Feature", "properties": {"collection_times": [{"days": "Mon-Fri", "time": "4:00pm"}, {"days": "Sat", "time": "11:00am"}, {"days": "Sun", "time": "Closed"}], "id": "4965400002", "name": "USPS COLLECTION BOX - PO LOBBY", "address": {"city": "LELAND", "state": "MI", "street": "122 N MAIN ST", "postcode": "49654"}}},
{"geometry": {"type": "Point", "coordinates": [-85.451659898, 44.038181589]}, "type": "Feature", "properties": {"collection_times": [{"days": "Mon-Fri", "time": "4:00pm"}, {"days": "Sat", "time": "10:30am"}, {"days": "Sun", "time": "Closed"}], "id": "4965500001", "name": "USPS COLLECTION BOX - BLUE BOX", "address": {"city": "LEROY", "state": "MI", "street": "106 W GILBERT ST", "postcode": "49655"}}},
{"geometry": {"type": "Point", "coordinates": [-85.451659898, 44.038181589]}, "type": "Feature", "properties": {"collection_times": [{"days": "Mon-Fri", "time": "4:00pm"}, {"days": "Sat", "time": "10:30am"}, {"days": "Sun", "time": "Closed"}], "id": "4965500002", "name": "USPS COLLECTION BOX - PO LOBBY", "address": {"city": "LEROY", "state": "MI", "street": "106 W GILBERT ST", "postcode": "49655"}}},
{"geometry": {"type": "Point", "coordinates": [-85.682399235, 44.037009411]}, "type": "Feature", "properties": {"collection_times": [{"days": "Mon-Fri", "time": "3:30pm"}, {"days": "Sat", "time": "10:30am"}, {"days": "Sun", "time": "Closed"}], "id": "4965600001", "name": "USPS COLLECTION BOX - BLUE BOX", "address": {"city": "LUTHER", "state": "MI", "street": "207 STATE ST", "postcode": "49656"}}},
{"geometry": {"type": "Point", "coordinates": [-85.682399235, 44.037009411]}, "type": "Feature", "properties": {"collection_times": [{"days": "Mon-Fri", "time": "3:30pm"}, {"days": "Sat", "time": "10:30am"}, {"days": "Sun", "time": "Closed"}], "id": "4965600003", "name": "USPS COLLECTION BOX - PO LOBBY", "address": {"city": "LUTHER", "state": "MI", "street": "207 STATE ST", "postcode": "49656"}}},
{"geometry": {"type": "Point", "coordinates": [-85.210458088, 44.192237675]}, "type": "Feature", "properties": {"collection_times": [{"days": "Mon-Fri", "time": "3:30pm"}, {"days": "Sat", "time": "10:30am"}, {"days": "Sun", "time": "Closed"}], "id": "4965700004", "name": "USPS COLLECTION BOX - PO LOBBY", "address": {"city": "MCBAIN", "state": "MI", "street": "104 N ROLAND ST", "postcode": "49657"}}},
{"geometry": {"type": "Point", "coordinates": [-85.208977183, 44.1920062485]}, "type": "Feature", "properties": {"collection_times": [{"days": "Mon-Sat", "time": "9:45am"}, {"days": "Sun", "time": "Closed"}], "id": "4965700005", "name": "USPS COLLECTION BOX - BLUE BOX", "address": {"city": "MCBAIN", "state": "MI", "street": "100 E ELM ST", "postcode": "49657"}}},
{"geometry": {"type": "Point", "coordinates": [-85.210458088, 44.192237675]}, "type": "Feature", "properties": {"collection_times": [{"days": "Mon-Fri", "time": "3:30pm"}, {"days": "Sat", "time": "10:30am"}, {"days": "Sun", "time": "Closed"}], "id": "4965700006", "name": "USPS COLLECTION BOX - BLUE BOX", "address": {"city": "MCBAIN", "state": "MI", "street": "104 N ROLAND ST", "postcode": "49657"}}},
{"geometry": {"type": "Point", "coordinates": [-85.2135377377, 44.189506445]}, "type": "Feature", "properties": {"collection_times": [{"days": "Mon-Sat", "time": "9:45am"}, {"days": "Sun", "time": "Closed"}], "id": "4965700008", "name": "USPS COLLECTION BOX - BLUE BOX", "address": {"city": "MCBAIN", "state": "MI", "street": "229 S PINE ST", "postcode": "49657"}}},
{"geometry": {"type": "Point", "coordinates": [-85.06026658, 44.902807587]}, "type": "Feature", "properties": {"collection_times": [{"days": "Mon-Fri", "time": "4:00pm"}, {"days": "Sat", "time": "11:00am"}, {"days": "Sun", "time": "Closed"}], "id": "4965900002", "name": "USPS COLLECTION BOX - BLUE BOX", "address": {"city": "MANCELONA", "state": "MI", "street": "131 N WILLIAMS ST", "postcode": "49659"}}},
{"geometry": {"type": "Point", "coordinates": [-85.06026658, 44.902807587]}, "type": "Feature", "properties": {"collection_times": [{"days": "Mon-Fri", "time": "4:00pm"}, {"days": "Sat", "time": "11:00am"}, {"days": "Sun", "time": "Closed"}], "id": "4965900003", "name": "USPS COLLECTION BOX - PO LOBBY", "address": {"city": "MANCELONA", "state": "MI", "street": "131 N WILLIAMS ST", "postcode": "49659"}}},
{"geometry": {"type": "Point", "coordinates": [-86.3213565012, 44.2480378709]}, "type": "Feature", "properties": {"collection_times": [{"days": "Mon-Sat", "time": "10:30am"}, {"days": "Sun", "time": "Closed"}], "id": "4966000002", "name": "USPS COLLECTION BOX - BLUE BOX", "address": {"city": "MANISTEE", "state": "MI", "street": "355 RIVER ST", "postcode": "49660"}}},
{"geometry": {"type": "Point", "coordinates": [-86.3223448425, 44.2478106932]}, "type": "Feature", "properties": {"collection_times": [{"days": "Mon-Sat", "time": "3:00pm"}, {"days": "Sun", "time": "Closed"}], "id": "4966000004", "name": "USPS COLLECTION BOX - BLUE BOX", "address": {"city": "MANISTEE", "state": "MI", "street": "375 RIVER ST", "postcode": "49660"}}},
{"geometry": {"type": "Point", "coordinates": [-86.3086264715, 44.2199206413]}, "type": "Feature", "properties": {"collection_times": [{"days": "Mon-Sat", "time": "11:00am"}, {"days": "Sun", "time": "Closed"}], "id": "4966000018", "name": "USPS COLLECTION BOX - BLUE BOX", "address": {"city": "MANISTEE", "state": "MI", "street": "1117 28TH ST", "postcode": "49660"}}},
{"geometry": {"type": "Point", "coordinates": [-86.3247776875, 44.2440927214]}, "type": "Feature", "properties": {"collection_times": [{"days": "Mon-Sat", "time": "3:00pm"}, {"days": "Sun", "time": "Closed"}], "id": "4966000029", "name": "USPS COLLECTION BOX - BLUE BOX", "address": {"city": "MANISTEE", "state": "MI", "street": "415 3RD ST", "postcode": "49660"}}},
{"geometry": {"type": "Point", "coordinates": [-86.2939264549, 44.2503000662]}, "type": "Feature", "properties": {"collection_times": [{"days": "Mon-Sat", "time": "11:00am"}, {"days": "Sun", "time": "Closed"}], "id": "4966000035", "name": "USPS COLLECTION BOX - BLUE BOX", "address": {"city": "MANISTEE", "state": "MI", "street": "330 E PARKDALE AVE", "postcode": "49660"}}},
{"geometry": {"type": "Point", "coordinates": [-86.3063950839, 44.2351624173]}, "type": "Feature", "properties": {"collection_times": [{"days": "Mon-Sat", "time": "9:30am"}, {"days": "Sun", "time": "Closed"}], "id": "4966000036", "name": "USPS COLLECTION BOX - BLUE BOX", "address": {"city": "MANISTEE", "state": "MI", "street": "1057 MANISTEE ST", "postcode": "49660"}}},
{"geometry": {"type": "Point", "coordinates": [-86.3247776875, 44.2440927214]}, "type": "Feature", "properties": {"collection_times": [{"days": "Mon-Sat", "time": "3:00pm"}, {"days": "Sun", "time": "Closed"}], "id": "4966000050", "name": "USPS COLLECTION BOX - BLUE BOX", "address": {"city": "MANISTEE", "state": "MI", "street": "415 3RD ST", "postcode": "49660"}}},
{"geometry": {"type": "Point", "coordinates": [-86.318642009, 44.247492122]}, "type": "Feature", "properties": {"collection_times": [{"days": "Mon-Fri", "time": "4:55pm"}, {"days": "Sat", "time": "4:30pm"}, {"days": "Sun", "time": "Closed"}], "id": "4966000051", "name": "USPS COLLECTION BOX - PO LOBBY", "address": {"city": "MANISTEE", "state": "MI", "street": "35 FILER ST", "postcode": "49660"}}},
{"geometry": {"type": "Point", "coordinates": [-86.3218438915, 44.2496194637]}, "type": "Feature", "properties": {"collection_times": [{"days": "Mon-Sat", "time": "9:30am"}, {"days": "Sun", "time": "Closed"}], "id": "4966000052", "name": "USPS COLLECTION BOX - BLUE BOX", "address": {"city": "MANISTEE", "state": "MI", "street": "160 MEMORIAL DR", "postcode": "49660"}}},
{"geometry": {"type": "Point", "coordinates": [-86.318642009, 44.247492122]}, "type": "Feature", "properties": {"collection_times": [{"days": "Mon-Fri", "time": "4:55pm"}, {"days": "Sat", "time": "4:30pm"}, {"days": "Sun", "time": "Closed"}], "id": "4966000058", "name": "USPS COLLECTION BOX - BLUE BOX", "address": {"city": "MANISTEE", "state": "MI", "street": "35 FILER ST", "postcode": "49660"}}},
{"geometry": {"type": "Point", "coordinates": [-85.398633849, 44.410845401]}, "type": "Feature", "properties": {"collection_times": [{"days": "Mon-Fri", "time": "4:30pm"}, {"days": "Sat", "time": "11:00am"}, {"days": "Sun", "time": "Closed"}], "id": "4966300001", "name": "USPS COLLECTION BOX - BLUE BOX", "address": {"city": "MANTON", "state": "MI", "street": "128 W MAIN ST", "postcode": "49663"}}},
{"geometry": {"type": "Point", "coordinates": [-85.398633849, 44.410845401]}, "type": "Feature", "properties": {"collection_times": [{"days": "Mon-Fri", "time": "4:30pm"}, {"days": "Sat", "time": "11:00am"}, {"days": "Sun", "time": "Closed"}], "id": "4966300003", "name": "USPS COLLECTION BOX - PO LOBBY", "address": {"city": "MANTON", "state": "MI", "street": "128 W MAIN ST", "postcode": "49663"}}},
{"geometry": {"type": "Point", "coordinates": [-85.855581429, 44.854428912]}, "type": "Feature", "properties": {"collection_times": [{"days": "Mon-Fri", "time": "3:30pm"}, {"days": "Sat", "time": "10:30am"}, {"days": "Sun", "time": "Closed"}], "id": "4966400001", "name": "USPS COLLECTION BOX - BLUE BOX", "address": {"city": "MAPLE CITY", "state": "MI", "street": "8621 S MAPLE CITY RD", "postcode": "49664"}}},
{"geometry": {"type": "Point", "coordinates": [-85.855581429, 44.854428912]}, "type": "Feature", "properties": {"collection_times": [{"days": "Mon-Fri", "time": "3:30pm"}, {"days": "Sat", "time": "10:30am"}, {"days": "Sun", "time": "Closed"}], "id": "4966400002", "name": "USPS COLLECTION BOX - PO LOBBY", "address": {"city": "MAPLE CITY", "state": "MI", "street": "8621 S MAPLE CITY RD", "postcode": "49664"}}},
{"geometry": {"type": "Point", "coordinates": [-85.14470402, 44.102436804]}, "type": "Feature", "properties": {"collection_times": [{"days": "Mon-Fri", "time": "3:30pm"}, {"days": "Sat", "time": "11:00am"}, {"days": "Sun", "time": "Closed"}], "id": "4966500001", "name": "USPS COLLECTION BOX - BLUE BOX", "address": {"city": "MARION", "state": "MI", "street": "216 E MAIN ST", "postcode": "49665"}}},
{"geometry": {"type": "Point", "coordinates": [-85.147544632, 44.1054907426]}, "type": "Feature", "properties": {"collection_times": [{"days": "Mon-Fri", "time": "12:00pm"}, {"days": "Sat", "time": "11:00am"}, {"days": "Sun", "time": "Closed"}], "id": "4966500004", "name": "USPS COLLECTION BOX - BLUE BOX", "address": {"city": "MARION", "state": "MI", "street": "401 S MILL ST", "postcode": "49665"}}},
{"geometry": {"type": "Point", "coordinates": [-85.14470402, 44.102436804]}, "type": "Feature", "properties": {"collection_times": [{"days": "Mon-Fri", "time": "4:00pm"}, {"days": "Sat", "time": "11:00am"}, {"days": "Sun", "time": "Closed"}], "id": "4966500005", "name": "USPS COLLECTION BOX - PO LOBBY", "address": {"city": "MARION", "state": "MI", "street": "216 E MAIN ST", "postcode": "49665"}}},
{"geometry": {"type": "Point", "coordinates": [-85.528597186, 44.626097831]}, "type": "Feature", "properties": {"collection_times": [{"days": "Mon-Fri", "time": "4:45pm"}, {"days": "Sat", "time": "9:45am"}, {"days": "Sun", "time": "Closed"}], "id": "4966600001", "name": "USPS COLLECTION BOX - BLUE BOX", "address": {"city": "MAYFIELD", "state": "MI", "street": "4044 S GARFIELD RD", "postcode": "49666"}}},
{"geometry": {"type": "Point", "coordinates": [-85.528597186, 44.626097831]}, "type": "Feature", "properties": {"collection_times": [{"days": "Mon-Fri", "time": "4:45pm"}, {"days": "Sat", "time": "9:45am"}, {"days": "Sun", "time": "Closed"}], "id": "4966600002", "name": "USPS COLLECTION BOX - PO LOBBY", "address": {"city": "MAYFIELD", "state": "MI", "street": "4044 S GARFIELD RD", "postcode": "49666"}}},
{"geometry": {"type": "Point", "coordinates": [-84.944458644, 44.331391595]}, "type": "Feature", "properties": {"collection_times": [{"days": "Mon-Fri", "time": "3:15pm"}, {"days": "Sat", "time": "10:00am"}, {"days": "Sun", "time": "Closed"}], "id": "4966700001", "name": "USPS COLLECTION BOX - BLUE BOX", "address": {"city": "MERRITT", "state": "MI", "street": "329 S MERRITT RD", "postcode": "49667"}}},
{"geometry": {"type": "Point", "coordinates": [-84.944458644, 44.331391595]}, "type": "Feature", "properties": {"collection_times": [{"days": "Mon-Fri", "time": "3:15pm"}, {"days": "Sat", "time": "10:00am"}, {"days": "Sun", "time": "Closed"}], "id": "4966700002", "name": "USPS COLLECTION BOX - PO LOBBY", "address": {"city": "MERRITT", "state": "MI", "street": "329 S MERRITT RD", "postcode": "49667"}}},
{"geometry": {"type": "Point", "coordinates": [-85.721283316, 44.405815224]}, "type": "Feature", "properties": {"collection_times": [{"days": "Mon-Fri", "time": "4:15pm"}, {"days": "Sat", "time": "10:30am"}, {"days": "Sun", "time": "Closed"}], "id": "4966800001", "name": "USPS COLLECTION BOX - BLUE BOX", "address": {"city": "MESICK", "state": "MI", "street": "340 W MESICK AVE", "postcode": "49668"}}},
{"geometry": {"type": "Point", "coordinates": [-85.721283316, 44.405815224]}, "type": "Feature", "properties": {"collection_times": [{"days": "Mon-Fri", "time": "4:15pm"}, {"days": "Sat", "time": "10:30am"}, {"days": "Sun", "time": "Closed"}], "id": "4966800002", "name": "USPS COLLECTION BOX - PO LOBBY", "address": {"city": "MESICK", "state": "MI", "street": "340 W MESICK AVE", "postcode": "49668"}}},
{"geometry": {"type": "Point", "coordinates": [-85.721283316, 44.405815224]}, "type": "Feature", "properties": {"collection_times": [{"days": "Mon-Fri", "time": "4:15pm"}, {"days": "Sat", "time": "10:30am"}, {"days": "Sun", "time": "Closed"}], "id": "4966800004", "name": "USPS COLLECTION BOX - BLUE BOX", "address": {"city": "MESICK", "state": "MI", "street": "340 W MESICK AVE", "postcode": "49668"}}},
{"geometry": {"type": "Point", "coordinates": [-85.6149412, 45.129766652]}, "type": "Feature", "properties": {"collection_times": [{"days": "Mon-Fri", "time": "4:00pm"}, {"days": "Sat", "time": "11:30am"}, {"days": "Sun", "time": "Closed"}], "id": "4967000001", "name": "USPS COLLECTION BOX - BLUE BOX", "address": {"city": "NORTHPORT", "state": "MI", "street": "117 E NAGONABA ST", "postcode": "49670"}}},
{"geometry": {"type": "Point", "coordinates": [-85.6149412, 45.129766652]}, "type": "Feature", "properties": {"collection_times": [{"days": "Mon-Fri", "time": "4:15pm"}, {"days": "Sat", "time": "11:30am"}, {"days": "Sun", "time": "Closed"}], "id": "4967000002", "name": "USPS COLLECTION BOX - PO LOBBY", "address": {"city": "NORTHPORT", "state": "MI", "street": "117 E NAGONABA ST", "postcode": "49670"}}},
{"geometry": {"type": "Point", "coordinates": [-85.485199272, 44.962197042]}, "type": "Feature", "properties": {"collection_times": [{"days": "Mon-Fri", "time": "10:30am"}, {"days": "Sat", "time": "11:00am"}, {"days": "Sun", "time": "Closed"}], "id": "4967300001", "name": "USPS COLLECTION BOX - BLUE BOX", "address": {"city": "OLD MISSION", "state": "MI", "street": "4007 SWANEY RD", "postcode": "49673"}}},
{"geometry": {"type": "Point", "coordinates": [-85.485199272, 44.962197042]}, "type": "Feature", "properties": {"collection_times": [{"days": "Mon-Fri", "time": "10:30am"}, {"days": "Sat", "time": "11:00am"}, {"days": "Sun", "time": "Closed"}], "id": "4967300002", "name": "USPS COLLECTION BOX - PO LOBBY", "address": {"city": "OLD MISSION", "state": "MI", "street": "4007 SWANEY RD", "postcode": "49673"}}},
{"geometry": {"type": "Point", "coordinates": [-85.587175046, 45.055991744]}, "type": "Feature", "properties": {"collection_times": [{"days": "Mon-Fri", "time": "4:00pm"}, {"days": "Sat", "time": "10:15am"}, {"days": "Sun", "time": "Closed"}], "id": "4967400001", "name": "USPS COLLECTION BOX - BLUE BOX", "address": {"city": "OMENA", "state": "MI", "street": "5059 N WEST BAYSHORE DR", "postcode": "49674"}}},
{"geometry": {"type": "Point", "coordinates": [-85.587175046, 45.055991744]}, "type": "Feature", "properties": {"collection_times": [{"days": "Mon-Fri", "time": "4:00pm"}, {"days": "Sat", "time": "10:15am"}, {"days": "Sun", "time": "Closed"}], "id": "4967400002", "name": "USPS COLLECTION BOX - PO LOBBY", "address": {"city": "OMENA", "state": "MI", "street": "5059 N WEST BAYSHORE DR", "postcode": "49674"}}},
{"geometry": {"type": "Point", "coordinates": [-86.204922164, 44.364629634]}, "type": "Feature", "properties": {"collection_times": [{"days": "Mon-Fri", "time": "3:25pm"}, {"days": "Sat", "time": "11:00am"}, {"days": "Sun", "time": "Closed"}], "id": "4967500001", "name": "USPS COLLECTION BOX - BLUE BOX", "address": {"city": "ONEKAMA", "state": "MI", "street": "8311 MILL ST", "postcode": "49675"}}},
{"geometry": {"type": "Point", "coordinates": [-86.204922164, 44.364629634]}, "type": "Feature", "properties": {"collection_times": [{"days": "Mon-Fri", "time": "3:25pm"}, {"days": "Sat", "time": "11:00am"}, {"days": "Sun", "time": "Closed"}], "id": "4967500002", "name": "USPS COLLECTION BOX - PO LOBBY", "address": {"city": "ONEKAMA", "state": "MI", "street": "8311 MILL ST", "postcode": "49675"}}},
{"geometry": {"type": "Point", "coordinates": [-85.28270148, 44.835118974]}, "type": "Feature", "properties": {"collection_times": [{"days": "Mon-Fri", "time": "4:20pm"}, {"days": "Sat", "time": "11:00am"}, {"days": "Sun", "time": "Closed"}], "id": "4967600001", "name": "USPS COLLECTION BOX - BLUE BOX", "address": {"city": "RAPID CITY", "state": "MI", "street": "8310 RAPID CITY RD NW", "postcode": "49676"}}},
{"geometry": {"type": "Point", "coordinates": [-85.28270148, 44.835118974]}, "type": "Feature", "properties": {"collection_times": [{"days": "Mon-Fri", "time": "4:20pm"}, {"days": "Sat", "time": "10:30am"}, {"days": "Sun", "time": "Closed"}], "id": "4967600002", "name": "USPS COLLECTION BOX - PO LOBBY", "address": {"city": "RAPID CITY", "state": "MI", "street": "8310 RAPID CITY RD NW", "postcode": "49676"}}},
{"geometry": {"type": "Point", "coordinates": [-85.512586915, 43.875985644]}, "type": "Feature", "properties": {"collection_times": [{"days": "Mon-Fri", "time": "4:15pm"}, {"days": "Sat", "time": "12:00pm"}, {"days": "Sun", "time": "Closed"}], "id": "4967700004", "name": "USPS COLLECTION BOX - BLUE BOX", "address": {"city": "REED CITY", "state": "MI", "street": "232 W UPTON AVE", "postcode": "49677"}}},
{"geometry": {"type": "Point", "coordinates": [-85.5098132781, 43.8666816314]}, "type": "Feature", "properties": {"collection_times": [{"days": "Mon-Fri", "time": "12:45pm"}, {"days": "Sat", "time": "12:00pm"}, {"days": "Sun", "time": "Closed"}], "id": "4967700007", "name": "USPS COLLECTION BOX - BLUE BOX", "address": {"city": "REED CITY", "state": "MI", "street": "716 S CHESTNUT ST", "postcode": "49677"}}},
{"geometry": {"type": "Point", "coordinates": [-85.5030625459, 43.9731597135]}, "type": "Feature", "properties": {"collection_times": [{"days": "Mon-Sat", "time": "9:00am"}, {"days": "Sun", "time": "Closed"}], "id": "4967700009", "name": "USPS COLLECTION BOX - BLUE BOX", "address": {"city": "REED CITY", "state": "MI", "street": "10989 210TH AVE", "postcode": "49677"}}},
{"geometry": {"type": "Point", "coordinates": [-85.5100275795, 43.8759712968]}, "type": "Feature", "properties": {"collection_times": [{"days": "Mon-Fri", "time": "2:00pm"}, {"days": "Sat", "time": "12:00pm"}, {"days": "Sun", "time": "Closed"}], "id": "4967700012", "name": "USPS COLLECTION BOX - BLUE BOX", "address": {"city": "REED CITY", "state": "MI", "street": "103 W UPTON AVE", "postcode": "49677"}}},
{"geometry": {"type": "Point", "coordinates": [-85.512586915, 43.875985644]}, "type": "Feature", "properties": {"collection_times": [{"days": "Mon-Fri", "time": "4:15pm"}, {"days": "Sat", "time": "11:00am"}, {"days": "Sun", "time": "Closed"}], "id": "4967700014", "name": "USPS COLLECTION BOX - PO LOBBY", "address": {"city": "REED CITY", "state": "MI", "street": "232 W UPTON AVE", "postcode": "49677"}}},
{"geometry": {"type": "Point", "coordinates": [-85.187545825, 43.896955848]}, "type": "Feature", "properties": {"collection_times": [{"days": "Mon-Fri", "time": "2:30pm"}, {"days": "Sat", "time": "12:30pm"}, {"days": "Sun", "time": "Closed"}], "id": "4967900001", "name": "USPS COLLECTION BOX - BLUE BOX", "address": {"city": "SEARS", "state": "MI", "street": "5843 50TH AVE", "postcode": "49679"}}},
{"geometry": {"type": "Point", "coordinates": [-85.187545825, 43.896955848]}, "type": "Feature", "properties": {"collection_times": [{"days": "Mon-Fri", "time": "2:30pm"}, {"days": "Sat", "time": "12:30pm"}, {"days": "Sun", "time": "Closed"}], "id": "4967900002", "name": "USPS COLLECTION BOX - PO LOBBY", "address": {"city": "SEARS", "state": "MI", "street": "5843 50TH AVE", "postcode": "49679"}}},
{"geometry": {"type": "Point", "coordinates": [-85.279419781, 44.641327066]}, "type": "Feature", "properties": {"collection_times": [{"days": "Mon-Fri", "time": "1:00pm"}, {"days": "Sat", "time": "9:30am"}, {"days": "Sun", "time": "Closed"}], "id": "4968000001", "name": "USPS COLLECTION BOX - BLUE BOX", "address": {"city": "SOUTH BOARDMAN", "state": "MI", "street": "5408 BOARDMAN RD SW", "postcode": "49680"}}},
{"geometry": {"type": "Point", "coordinates": [-85.279419781, 44.641327066]}, "type": "Feature", "properties": {"collection_times": [{"days": "Mon-Fri", "time": "1:00pm"}, {"days": "Sat", "time": "9:30am"}, {"days": "Sun", "time": "Closed"}], "id": "4968000002", "name": "USPS COLLECTION BOX - PO LOBBY", "address": {"city": "SOUTH BOARDMAN", "state": "MI", "street": "5408 BOARDMAN RD SW", "postcode": "49680"}}},
{"geometry": {"type": "Point", "coordinates": [-85.651347749, 44.974520191]}, "type": "Feature", "properties": {"collection_times": [{"days": "Mon-Fri", "time": "4:00pm"}, {"days": "Sat", "time": "11:00am"}, {"days": "Sun", "time": "Closed"}], "id": "4968200001", "name": "USPS COLLECTION BOX - BLUE BOX", "address": {"city": "SUTTONS BAY", "state": "MI", "street": "106 W BROADWAY", "postcode": "49682"}}},
{"geometry": {"type": "Point", "coordinates": [-85.651347749, 44.974520191]}, "type": "Feature", "properties": {"collection_times": [{"days": "Mon-Fri", "time": "4:00pm"}, {"days": "Sat", "time": "11:00am"}, {"days": "Sun", "time": "Closed"}], "id": "4968200003", "name": "USPS COLLECTION BOX - PO LOBBY", "address": {"city": "SUTTONS BAY", "state": "MI", "street": "106 W BROADWAY", "postcode": "49682"}}},
{"geometry": {"type": "Point", "coordinates": [-85.6413181213, 44.9284408416]}, "type": "Feature", "properties": {"collection_times": [{"days": "Mon-Fri", "time": "10:00am"}, {"days": "Sat-Sun", "time": "Closed"}], "id": "4968200004", "name": "USPS COLLECTION BOX - BLUE BOX", "address": {"city": "SUTTONS BAY", "state": "MI", "street": "8527 E GOVERNMENT CENTER DR", "postcode": "49682"}}},
{"geometry": {"type": "Point", "coordinates": [-85.942310225, 44.519431782]}, "type": "Feature", "properties": {"collection_times": [{"days": "Mon-Fri", "time": "4:00pm"}, {"days": "Sat", "time": "10:30am"}, {"days": "Sun", "time": "Closed"}], "id": "4968300001", "name": "USPS COLLECTION BOX - BLUE BOX", "address": {"city": "THOMPSONVILLE", "state": "MI", "street": "14799 THOMPSON AVE", "postcode": "49683"}}},
{"geometry": {"type": "Point", "coordinates": [-85.942310225, 44.519431782]}, "type": "Feature", "properties": {"collection_times": [{"days": "Mon-Fri", "time": "4:00pm"}, {"days": "Sat", "time": "10:30am"}, {"days": "Sun", "time": "Closed"}], "id": "4968300002", "name": "USPS COLLECTION BOX - PO LOBBY", "address": {"city": "THOMPSONVILLE", "state": "MI", "street": "14799 THOMPSON AVE", "postcode": "49683"}}},
{"geometry": {"type": "Point", "coordinates": [-85.6433591697, 44.7615731089]}, "type": "Feature", "properties": {"collection_times": [{"days": "Mon-Fri", "time": "3:00pm"}, {"days": "Sat", "time": "10:00am"}, {"days": "Sun", "time": "Closed"}], "id": "4968400006", "name": "USPS COLLECTION BOX - BLUE BOX", "address": {"city": "TRAVERSE CITY", "state": "MI", "street": "1221 SIXTH ST", "postcode": "49684"}}},
{"geometry": {"type": "Point", "coordinates": [-85.6240126788, 44.7604470602]}, "type": "Feature", "properties": {"collection_times": [{"days": "Mon-Sat", "time": "3:00pm"}, {"days": "Sun", "time": "Closed"}], "id": "4968400008", "name": "USPS COLLECTION BOX - BLUE BOX", "address": {"city": "TRAVERSE CITY", "state": "MI", "street": "125 W SEVENTH ST", "postcode": "49684"}}},
{"geometry": {"type": "Point", "coordinates": [-85.6237079041, 44.7589618846]}, "type": "Feature", "properties": {"collection_times": [{"days": "Mon-Fri", "time": "1:00pm"}, {"days": "Sat", "time": "10:00am"}, {"days": "Sun", "time": "Closed"}], "id": "4968400013", "name": "USPS COLLECTION BOX - BLUE BOX", "address": {"city": "TRAVERSE CITY", "state": "MI", "street": "531 S UNION ST", "postcode": "49684"}}},
{"geometry": {"type": "Point", "coordinates": [-85.6426621786, 44.7227240092]}, "type": "Feature", "properties": {"collection_times": [{"days": "Mon-Fri", "time": "3:00pm"}, {"days": "Sat", "time": "9:00am"}, {"days": "Sun", "time": "Closed"}], "id": "4968400017", "name": "USPS COLLECTION BOX - BLUE BOX", "address": {"city": "TRAVERSE CITY", "state": "MI", "street": "3323 S AIRPORT RD W", "postcode": "49684"}}},
{"geometry": {"type": "Point", "coordinates": [-85.639420482, 44.7717592015]}, "type": "Feature", "properties": {"collection_times": [{"days": "Mon-Sat", "time": "3:00pm"}, {"days": "Sun", "time": "Closed"}], "id": "4968400021", "name": "USPS COLLECTION BOX - BLUE BOX", "address": {"city": "TRAVERSE CITY", "state": "MI", "street": "1001 BAY ST", "postcode": "49684"}}},
{"geometry": {"type": "Point", "coordinates": [-85.6305847887, 44.7669200494]}, "type": "Feature", "properties": {"collection_times": [{"days": "Mon-Sat", "time": "10:00am"}, {"days": "Sun", "time": "Closed"}], "id": "4968400022", "name": "USPS COLLECTION BOX - BLUE BOX", "address": {"city": "TRAVERSE CITY", "state": "MI", "street": "537 BAY ST", "postcode": "49684"}}},
{"geometry": {"type": "Point", "coordinates": [-85.6159157796, 44.7638164435]}, "type": "Feature", "properties": {"collection_times": [{"days": "Mon-Sat", "time": "3:00pm"}, {"days": "Sun", "time": "Closed"}], "id": "4968400023", "name": "USPS COLLECTION BOX - BLUE BOX", "address": {"city": "TRAVERSE CITY", "state": "MI", "street": "120 BOARDMAN AVE", "postcode": "49684"}}},
{"geometry": {"type": "Point", "coordinates": [-85.6158919896, 44.7605091423]}, "type": "Feature", "properties": {"collection_times": [{"days": "Mon-Fri", "time": "5:00pm"}, {"days": "Sat", "time": "10:00am"}, {"days": "Sun", "time": "Closed"}], "id": "4968400026", "name": "USPS COLLECTION BOX - BLUE BOX", "address": {"city": "TRAVERSE CITY", "state": "MI", "street": "400 BOARDMAN AVE", "postcode": "49684"}}},
{"geometry": {"type": "Point", "coordinates": [-85.6351967881, 44.7498921637]}, "type": "Feature", "properties": {"collection_times": [{"days": "Mon-Sat", "time": "1:00pm"}, {"days": "Sun", "time": "Closed"}], "id": "4968400027", "name": "USPS COLLECTION BOX - BLUE BOX", "address": {"city": "TRAVERSE CITY", "state": "MI", "street": "1201 S DIVISION ST", "postcode": "49684"}}},
{"geometry": {"type": "Point", "coordinates": [-85.6397829008, 44.7558484077]}, "type": "Feature", "properties": {"collection_times": [{"days": "Mon-Fri", "time": "3:00pm"}, {"days": "Sat", "time": "10:00am"}, {"days": "Sun", "time": "Closed"}], "id": "4968400028", "name": "USPS COLLECTION BOX - BLUE BOX", "address": {"city": "TRAVERSE CITY", "state": "MI", "street": "701 S ELMWOOD AVE", "postcode": "49684"}}},
{"geometry": {"type": "Point", "coordinates": [-85.6208305124, 44.7641073022]}, "type": "Feature", "properties": {"collection_times": [{"days": "Mon-Fri", "time": "3:00pm"}, {"days": "Sat", "time": "10:00am"}, {"days": "Sun", "time": "Closed"}], "id": "4968400029", "name": "USPS COLLECTION BOX - BLUE BOX", "address": {"city": "TRAVERSE CITY", "state": "MI", "street": "201 E FRONT ST", "postcode": "49684"}}},
{"geometry": {"type": "Point", "coordinates": [-85.6195686908, 44.7640078665]}, "type": "Feature", "properties": {"collection_times": [{"days": "Mon-Sat", "time": "3:00pm"}, {"days": "Sun", "time": "Closed"}], "id": "4968400031", "name": "USPS COLLECTION BOX - BLUE BOX", "address": {"city": "TRAVERSE CITY", "state": "MI", "street": "250 E FRONT ST", "postcode": "49684"}}},
{"geometry": {"type": "Point", "coordinates": [-85.6327532731, 44.7533715416]}, "type": "Feature", "properties": {"collection_times": [{"days": "Mon-Sat", "time": "10:00am"}, {"days": "Sun", "time": "Closed"}], "id": "4968400040", "name": "USPS COLLECTION BOX - BLUE BOX", "address": {"city": "TRAVERSE CITY", "state": "MI", "street": "1003 S MAPLE ST", "postcode": "49684"}}},
{"geometry": {"type": "Point", "coordinates": [-85.6479162682, 44.7320464802]}, "type": "Feature", "properties": {"collection_times": [{"days": "Mon-Sat", "time": "3:00pm"}, {"days": "Sun", "time": "Closed"}], "id": "4968400041", "name": "USPS COLLECTION BOX - BLUE BOX", "address": {"city": "TRAVERSE CITY", "state": "MI", "street": "3639 MARKETPLACE CIR", "postcode": "49684"}}},
{"geometry": {"type": "Point", "coordinates": [-85.6606450559, 44.6974679531]}, "type": "Feature", "properties": {"collection_times": [{"days": "Mon-Sat", "time": "11:00am"}, {"days": "Sun", "time": "Closed"}], "id": "4968400043", "name": "USPS COLLECTION BOX - BLUE BOX", "address": {"city": "TRAVERSE CITY", "state": "MI", "street": "4301 MEADOW LANE DR", "postcode": "49684"}}},
{"geometry": {"type": "Point", "coordinates": [-85.6826142144, 44.6729826712]}, "type": "Feature", "properties": {"collection_times": [{"days": "Mon-Sat", "time": "10:00am"}, {"days": "Sun", "time": "Closed"}], "id": "4968400047", "name": "USPS COLLECTION BOX - BLUE BOX", "address": {"city": "TRAVERSE CITY", "state": "MI", "street": "1257 OVERLOOK RD", "postcode": "49684"}}},
{"geometry": {"type": "Point", "coordinates": [-85.6173625006, 44.7326541252]}, "type": "Feature", "properties": {"collection_times": [{"days": "Mon-Fri", "time": "3:00pm"}, {"days": "Sat", "time": "10:00am"}, {"days": "Sun", "time": "Closed"}], "id": "4968400049", "name": "USPS COLLECTION BOX - BLUE BOX", "address": {"city": "TRAVERSE CITY", "state": "MI", "street": "3230 RACQUET CLUB DR", "postcode": "49684"}}},
{"geometry": {"type": "Point", "coordinates": [-85.6773575585, 44.7016521552]}, "type": "Feature", "properties": {"collection_times": [{"days": "Mon-Sat", "time": "10:00am"}, {"days": "Sun", "time": "Closed"}], "id": "4968400051", "name": "USPS COLLECTION BOX - BLUE BOX", "address": {"city": "TRAVERSE CITY", "state": "MI", "street": "22 SILVER LAKE VIEW CT", "postcode": "49684"}}},
{"geometry": {"type": "Point", "coordinates": [-85.6432579349, 44.7752026857]}, "type": "Feature", "properties": {"collection_times": [{"days": "Mon-Fri", "time": "3:00pm"}, {"days": "Sat", "time": "10:00am"}, {"days": "Sun", "time": "Closed"}], "id": "4968400054", "name": "USPS COLLECTION BOX - BLUE BOX", "address": {"city": "TRAVERSE CITY", "state": "MI", "street": "10850 E TRAVERSE HWY", "postcode": "49684"}}},
{"geometry": {"type": "Point", "coordinates": [-85.6857148743, 44.6649327624]}, "type": "Feature", "properties": {"collection_times": [{"days": "Mon-Fri", "time": "5:00pm"}, {"days": "Sat", "time": "3:00pm"}, {"days": "Sun", "time": "Closed"}], "id": "4968400057", "name": "USPS COLLECTION BOX - BLUE BOX", "address": {"city": "TRAVERSE CITY", "state": "MI", "street": "4144 US HIGHWAY 31 S", "postcode": "49684"}}},
{"geometry": {"type": "Point", "coordinates": [-85.6570268587, 44.7743077295]}, "type": "Feature", "properties": {"collection_times": [{"days": "Mon-Fri", "time": "5:00pm"}, {"days": "Sat", "time": "4:30pm"}, {"days": "Sun", "time": "Closed"}], "id": "4968400058", "name": "USPS COLLECTION BOX - EXPRESS", "address": {"city": "TRAVERSE CITY", "state": "MI", "street": "120 W STATE ST", "postcode": "49684"}}},
{"geometry": {"type": "Point", "coordinates": [-85.623858709, 44.762477976]}, "type": "Feature", "properties": {"collection_times": [{"days": "Mon-Fri", "time": "5:15pm"}, {"days": "Sat", "time": "4:30pm"}, {"days": "Sun", "time": "Closed"}], "id": "4968400061", "name": "USPS COLLECTION BOX - BLUE BOX", "address": {"city": "TRAVERSE CITY", "state": "MI", "street": "202 S UNION ST", "postcode": "49684"}}},
{"geometry": {"type": "Point", "coordinates": [-85.623858709, 44.762477976]}, "type": "Feature", "properties": {"collection_times": [{"days": "Mon-Fri", "time": "5:15pm"}, {"days": "Sat", "time": "4:30pm"}, {"days": "Sun", "time": "Closed"}], "id": "4968400062", "name": "USPS COLLECTION BOX - PO LOBBY", "address": {"city": "TRAVERSE CITY", "state": "MI", "street": "202 S UNION ST", "postcode": "49684"}}},
{"geometry": {"type": "Point", "coordinates": [-85.6322539214, 44.7404654803]}, "type": "Feature", "properties": {"collection_times": [{"days": "Mon-Sat", "time": "9:00am"}, {"days": "Sun", "time": "Closed"}], "id": "4968400065", "name": "USPS COLLECTION BOX - BLUE BOX", "address": {"city": "TRAVERSE CITY", "state": "MI", "street": "3848 VETERANS DR", "postcode": "49684"}}},
{"geometry": {"type": "Point", "coordinates": [-85.6237554562, 44.764061291]}, "type": "Feature", "properties": {"collection_times": [{"days": "Mon-Fri", "time": "3:00pm"}, {"days": "Sat", "time": "10:00am"}, {"days": "Sun", "time": "Closed"}], "id": "4968400079", "name": "USPS COLLECTION BOX - BLUE BOX", "address": {"city": "TRAVERSE CITY", "state": "MI", "street": "100 N UNION ST", "postcode": "49684"}}},
{"geometry": {"type": "Point", "coordinates": [-85.6353167545, 44.7376156465]}, "type": "Feature", "properties": {"collection_times": [{"days": "Mon-Sat", "time": "11:00am"}, {"days": "Sun", "time": "Closed"}], "id": "4968400084", "name": "USPS COLLECTION BOX - BLUE BOX", "address": {"city": "TRAVERSE CITY", "state": "MI", "street": "3686 MATADOR W", "postcode": "49684"}}},
{"geometry": {"type": "Point", "coordinates": [-85.6221256492, 44.7628129766]}, "type": "Feature", "properties": {"collection_times": [{"days": "Mon-Sat", "time": "10:00am"}, {"days": "Sun", "time": "Closed"}], "id": "4968400085", "name": "USPS COLLECTION BOX - BLUE BOX", "address": {"city": "TRAVERSE CITY", "state": "MI", "street": "160 E STATE ST", "postcode": "49684"}}},
{"geometry": {"type": "Point", "coordinates": [-85.6570268587, 44.7743077295]}, "type": "Feature", "properties": {"collection_times": [{"days": "Mon-Fri", "time": "3:00pm"}, {"days": "Sat", "time": "10:00am"}, {"days": "Sun", "time": "Closed"}], "id": "4968400099", "name": "USPS COLLECTION BOX - EXPRESS", "address": {"city": "TRAVERSE CITY", "state": "MI", "street": "3230 RACQUET CLUB DR", "postcode": "49684"}}},
{"geometry": {"type": "Point", "coordinates": [-85.6343766712, 44.7265124538]}, "type": "Feature", "properties": {"collection_times": [{"days": "Mon-Sat", "time": "10:00am"}, {"days": "Sun", "time": "Closed"}], "id": "4968400101", "name": "USPS COLLECTION BOX - BLUE BOX", "address": {"city": "TRAVERSE CITY", "state": "MI", "street": "2612 CROSSING CIR", "postcode": "49684"}}},
{"geometry": {"type": "Point", "coordinates": [-85.6240126788, 44.7604470602]}, "type": "Feature", "properties": {"collection_times": [{"days": "Mon-Sat", "time": "3:00pm"}, {"days": "Sun", "time": "Closed"}], "id": "4968400102", "name": "USPS COLLECTION BOX - BLUE BOX", "address": {"city": "TRAVERSE CITY", "state": "MI", "street": "125 W SEVENTH ST", "postcode": "49684"}}},
{"geometry": {"type": "Point", "coordinates": [-85.6237554562, 44.764061291]}, "type": "Feature", "properties": {"collection_times": [{"days": "Mon-Fri", "time": "3:00pm"}, {"days": "Sat", "time": "10:00am"}, {"days": "Sun", "time": "Closed"}], "id": "4968400103", "name": "USPS COLLECTION BOX - BLUE BOX", "address": {"city": "TRAVERSE CITY", "state": "MI", "street": "100 N UNION ST", "postcode": "49684"}}},
{"geometry": {"type": "Point", "coordinates": [-85.6987468159, 44.7449867579]}, "type": "Feature", "properties": {"collection_times": [{"days": "Mon-Sat", "time": "3:00pm"}, {"days": "Sun", "time": "Closed"}], "id": "4968400116", "name": "USPS COLLECTION BOX - BLUE BOX", "address": {"city": "TRAVERSE CITY", "state": "MI", "street": "3850 N LONG LAKE RD", "postcode": "49684"}}},
{"geometry": {"type": "Point", "coordinates": [-85.6411898645, 44.7768884276]}, "type": "Feature", "properties": {"collection_times": [{"days": "Mon-Sat", "time": "3:00pm"}, {"days": "Sun", "time": "Closed"}], "id": "4968400123", "name": "USPS COLLECTION BOX - BLUE BOX", "address": {"city": "TRAVERSE CITY", "state": "MI", "street": "13930 S WEST BAY SHORE DR", "postcode": "49684"}}},
{"geometry": {"type": "Point", "coordinates": [-85.623858709, 44.762477976]}, "type": "Feature", "properties": {"collection_times": [{"days": "Mon-Fri", "time": "5:15pm"}, {"days": "Sat", "time": "4:30pm"}, {"days": "Sun", "time": "Closed"}], "id": "4968400124", "name": "USPS COLLECTION BOX - APC", "address": {"city": "TRAVERSE CITY", "state": "MI", "street": "202 S UNION ST", "postcode": "49684"}}},
{"geometry": {"type": "Point", "coordinates": [-85.6542332827, 44.7456041924]}, "type": "Feature", "properties": {"collection_times": [{"days": "Mon-Sat", "time": "3:00pm"}, {"days": "Sun", "time": "Closed"}], "id": "4968400128", "name": "USPS COLLECTION BOX - BLUE BOX", "address": {"city": "TRAVERSE CITY", "state": "MI", "street": "4100 PARK FOREST DR", "postcode": "49684"}}},
{"geometry": {"type": "Point", "coordinates": [-85.7248545969, 44.7300353186]}, "type": "Feature", "properties": {"collection_times": [{"days": "Mon-Sat", "time": "10:00am"}, {"days": "Sun", "time": "Closed"}], "id": "4968400135", "name": "USPS COLLECTION BOX - BLUE BOX", "address": {"city": "TRAVERSE CITY", "state": "MI", "street": "2955 LEGGETT DR", "postcode": "49684"}}},
{"geometry": {"type": "Point", "coordinates": [-85.6242997798, 44.7629146212]}, "type": "Feature", "properties": {"collection_times": [{"days": "Mon-Fri", "time": "5:15pm"}, {"days": "Sat", "time": "4:30pm"}, {"days": "Sun", "time": "Closed"}], "id": "4968400136", "name": "USPS COLLECTION BOX - BLUE BOX", "address": {"city": "TRAVERSE CITY", "state": "MI", "street": "120 W STATE ST", "postcode": "49684"}}},
{"geometry": {"type": "Point", "coordinates": [-85.6542332827, 44.7456041924]}, "type": "Feature", "properties": {"collection_times": [{"days": "Mon-Sat", "time": "3:00pm"}, {"days": "Sun", "time": "Closed"}], "id": "4968400137", "name": "USPS COLLECTION BOX - BLUE BOX", "address": {"city": "TRAVERSE CITY", "state": "MI", "street": "4100 PARK FOREST DR", "postcode": "49684"}}},
{"geometry": {"type": "Point", "coordinates": [-85.640120762, 44.7792473407]}, "type": "Feature", "properties": {"collection_times": [{"days": "Mon-Fri", "time": "3:00pm"}, {"days": "Sat", "time": "10:00am"}, {"days": "Sun", "time": "Closed"}], "id": "4968400138", "name": "USPS COLLECTION BOX - BLUE BOX", "address": {"city": "TRAVERSE CITY", "state": "MI", "street": "13730 S WEST BAY SHORE DR", "postcode": "49684"}}},
{"geometry": {"type": "Point", "coordinates": [-85.640559759, 44.7440030424]}, "type": "Feature", "properties": {"collection_times": [{"days": "Mon-Sat", "time": "4:45pm"}, {"days": "Sun", "time": "Closed"}], "id": "4968400139", "name": "USPS COLLECTION BOX - BLUE BOX", "address": {"city": "TRAVERSE CITY", "state": "MI", "street": "3955 N US HIGHWAY 31 S", "postcode": "49684"}}},
{"geometry": {"type": "Point", "coordinates": [-85.5928456469, 44.7531865041]}, "type": "Feature", "properties": {"collection_times": [{"days": "Mon-Fri", "time": "3:00pm"}, {"days": "Sat", "time": "12:00pm"}, {"days": "Sun", "time": "Closed"}], "id": "4968600003", "name": "USPS COLLECTION BOX - BLUE BOX", "address": {"city": "TRAVERSE CITY", "state": "MI", "street": "810 HASTINGS ST", "postcode": "49686"}}},
{"geometry": {"type": "Point", "coordinates": [-85.5560487194, 44.7434983596]}, "type": "Feature", "properties": {"collection_times": [{"days": "Mon-Fri", "time": "3:00pm"}, {"days": "Sat", "time": "9:00am"}, {"days": "Sun", "time": "Closed"}], "id": "4968600004", "name": "USPS COLLECTION BOX - BLUE BOX", "address": {"city": "TRAVERSE CITY", "state": "MI", "street": "1159 BUSINESS PARK DR", "postcode": "49686"}}},
{"geometry": {"type": "Point", "coordinates": [-85.592120933, 44.7642334529]}, "type": "Feature", "properties": {"collection_times": [{"days": "Mon-Sat", "time": "3:00pm"}, {"days": "Sun", "time": "Closed"}], "id": "4968600005", "name": "USPS COLLECTION BOX - BLUE BOX", "address": {"city": "TRAVERSE CITY", "state": "MI", "street": "1219 E FRONT ST", "postcode": "49686"}}},
{"geometry": {"type": "Point", "coordinates": [-85.5727259466, 44.7440196163]}, "type": "Feature", "properties": {"collection_times": [{"days": "Mon-Fri", "time": "3:00pm"}, {"days": "Sat", "time": "10:00am"}, {"days": "Sun", "time": "Closed"}], "id": "4968600006", "name": "USPS COLLECTION BOX - BLUE BOX", "address": {"city": "TRAVERSE CITY", "state": "MI", "street": "2561 AERO PARK DR", "postcode": "49686"}}},
{"geometry": {"type": "Point", "coordinates": [-85.5610440317, 44.7431806707]}, "type": "Feature", "properties": {"collection_times": [{"days": "Mon-Fri", "time": "3:00pm"}, {"days": "Sat", "time": "9:00am"}, {"days": "Sun", "time": "Closed"}], "id": "4968600008", "name": "USPS COLLECTION BOX - BLUE BOX", "address": {"city": "TRAVERSE CITY", "state": "MI", "street": "2889 AERO PARK DR", "postcode": "49686"}}},
{"geometry": {"type": "Point", "coordinates": [-85.5715866706, 44.7718267314]}, "type": "Feature", "properties": {"collection_times": [{"days": "Mon-Fri", "time": "5:30pm"}, {"days": "Sat", "time": "4:30pm"}, {"days": "Sun", "time": "Closed"}], "id": "4968600010", "name": "USPS COLLECTION BOX - EXPRESS", "address": {"city": "TRAVERSE CITY", "state": "MI", "street": "1756 BARLOW ST", "postcode": "49686"}}},
{"geometry": {"type": "Point", "coordinates": [-85.6056469646, 44.7347978884]}, "type": "Feature", "properties": {"collection_times": [{"days": "Mon-Fri", "time": "5:30pm"}, {"days": "Sat", "time": "4:30pm"}, {"days": "Sun", "time": "Closed"}], "id": "4968600011", "name": "USPS COLLECTION BOX - APC", "address": {"city": "TRAVERSE CITY", "state": "MI", "street": "1756 BARLOW ST", "postcode": "49686"}}},
{"geometry": {"type": "Point", "coordinates": [-85.6056469646, 44.7347978884]}, "type": "Feature", "properties": {"collection_times": [{"days": "Mon-Fri", "time": "5:30pm"}, {"days": "Sat", "time": "4:30pm"}, {"days": "Sun", "time": "Closed"}], "id": "4968600013", "name": "USPS COLLECTION BOX - BLUE BOX", "address": {"city": "TRAVERSE CITY", "state": "MI", "street": "1756 BARLOW ST", "postcode": "49686"}}},
{"geometry": {"type": "Point", "coordinates": [-85.6056469646, 44.7347978884]}, "type": "Feature", "properties": {"collection_times": [{"days": "Mon-Fri", "time": "5:30pm"}, {"days": "Sat", "time": "4:30pm"}, {"days": "Sun", "time": "Closed"}], "id": "4968600014", "name": "USPS COLLECTION BOX - BLUE BOX", "address": {"city": "TRAVERSE CITY", "state": "MI", "street": "1756 BARLOW ST", "postcode": "49686"}}},
{"geometry": {"type": "Point", "coordinates": [-85.5560487194, 44.7434983596]}, "type": "Feature", "properties": {"collection_times": [{"days": "Mon-Fri", "time": "3:00pm"}, {"days": "Sat", "time": "9:00am"}, {"days": "Sun", "time": "Closed"}], "id": "4968600016", "name": "USPS COLLECTION BOX - BLUE BOX", "address": {"city": "TRAVERSE CITY", "state": "MI", "street": "1159 BUSINESS PARK DR", "postcode": "49686"}}},
{"geometry": {"type": "Point", "coordinates": [-85.4838226819, 44.6857139301]}, "type": "Feature", "properties": {"collection_times": [{"days": "Mon-Sat", "time": "10:00am"}, {"days": "Sun", "time": "Closed"}], "id": "4968600017", "name": "USPS COLLECTION BOX - BLUE BOX", "address": {"city": "TRAVERSE CITY", "state": "MI", "street": "727 FLY DONT DR", "postcode": "49686"}}},
{"geometry": {"type": "Point", "coordinates": [-85.592120933, 44.7642334529]}, "type": "Feature", "properties": {"collection_times": [{"days": "Mon-Sat", "time": "3:00pm"}, {"days": "Sun", "time": "Closed"}], "id": "4968600018", "name": "USPS COLLECTION BOX - BLUE BOX", "address": {"city": "TRAVERSE CITY", "state": "MI", "street": "1219 E FRONT ST", "postcode": "49686"}}},
{"geometry": {"type": "Point", "coordinates": [-85.595383914, 44.7532230166]}, "type": "Feature", "properties": {"collection_times": [{"days": "Mon-Sat", "time": "11:00am"}, {"days": "Sun", "time": "Closed"}], "id": "4968600019", "name": "USPS COLLECTION BOX - BLUE BOX", "address": {"city": "TRAVERSE CITY", "state": "MI", "street": "800 S GARFIELD AVE", "postcode": "49686"}}},
{"geometry": {"type": "Point", "coordinates": [-85.59559215, 44.7130243013]}, "type": "Feature", "properties": {"collection_times": [{"days": "Mon-Sat", "time": "6:00pm"}, {"days": "Sun", "time": "Closed"}], "id": "4968600020", "name": "USPS COLLECTION BOX - BLUE BOX", "address": {"city": "TRAVERSE CITY", "state": "MI", "street": "1801 GARFIELD RD N", "postcode": "49686"}}},
{"geometry": {"type": "Point", "coordinates": [-85.5715866706, 44.7718267314]}, "type": "Feature", "properties": {"collection_times": [{"days": "Mon-Sat", "time": "6:00pm"}, {"days": "Sun", "time": "Closed"}], "id": "4968600021", "name": "USPS COLLECTION BOX - EXPRESS", "address": {"city": "TRAVERSE CITY", "state": "MI", "street": "1801 GARFIELD RD N", "postcode": "49686"}}},
{"geometry": {"type": "Point", "coordinates": [-85.5564917597, 44.7155529214]}, "type": "Feature", "properties": {"collection_times": [{"days": "Mon-Sat", "time": "12:00pm"}, {"days": "Sun", "time": "Closed"}], "id": "4968600022", "name": "USPS COLLECTION BOX - BLUE BOX", "address": {"city": "TRAVERSE CITY", "state": "MI", "street": "963 HAMMOND RD E", "postcode": "49686"}}},
{"geometry": {"type": "Point", "coordinates": [-85.612775443, 44.7385195648]}, "type": "Feature", "properties": {"collection_times": [{"days": "Mon-Sat", "time": "10:00am"}, {"days": "Sun", "time": "Closed"}], "id": "4968600023", "name": "USPS COLLECTION BOX - BLUE BOX", "address": {"city": "TRAVERSE CITY", "state": "MI", "street": "1646 MAPLE RIDGE WAY", "postcode": "49686"}}},
{"geometry": {"type": "Point", "coordinates": [-85.5724281876, 44.7547571847]}, "type": "Feature", "properties": {"collection_times": [{"days": "Mon-Sat", "time": "3:00pm"}, {"days": "Sun", "time": "Closed"}], "id": "4968600025", "name": "USPS COLLECTION BOX - BLUE BOX", "address": {"city": "TRAVERSE CITY", "state": "MI", "street": "722 MUNSON AVE", "postcode": "49686"}}},
{"geometry": {"type": "Point", "coordinates": [-85.5981728319, 44.733386676]}, "type": "Feature", "properties": {"collection_times": [{"days": "Mon-Sat", "time": "3:00pm"}, {"days": "Sun", "time": "Closed"}], "id": "4968600026", "name": "USPS COLLECTION BOX - BLUE BOX", "address": {"city": "TRAVERSE CITY", "state": "MI", "street": "1146 W SOUTH AIRPORT RD", "postcode": "49686"}}},
{"geometry": {"type": "Point", "coordinates": [-85.5950489835, 44.7586015775]}, "type": "Feature", "properties": {"collection_times": [{"days": "Mon-Sat", "time": "3:00pm"}, {"days": "Sun", "time": "Closed"}], "id": "4968600027", "name": "USPS COLLECTION BOX - BLUE BOX", "address": {"city": "TRAVERSE CITY", "state": "MI", "street": "1108 E EIGHTH ST", "postcode": "49686"}}},
{"geometry": {"type": "Point", "coordinates": [-85.458594824, 44.102702484]}, "type": "Feature", "properties": {"collection_times": [{"days": "Mon-Fri", "time": "4:00pm"}, {"days": "Sat", "time": "11:00am"}, {"days": "Sun", "time": "Closed"}], "id": "4968800001", "name": "USPS COLLECTION BOX - BLUE BOX", "address": {"city": "TUSTIN", "state": "MI", "street": "120 E CHURCH ST", "postcode": "49688"}}},
{"geometry": {"type": "Point", "coordinates": [-85.458594824, 44.102702484]}, "type": "Feature", "properties": {"collection_times": [{"days": "Mon-Fri", "time": "4:00pm"}, {"days": "Sat", "time": "10:30am"}, {"days": "Sun", "time": "Closed"}], "id": "4968800002", "name": "USPS COLLECTION BOX - PO LOBBY", "address": {"city": "TUSTIN", "state": "MI", "street": "120 E CHURCH ST", "postcode": "49688"}}},
{"geometry": {"type": "Point", "coordinates": [-85.95911856, 44.216706608]}, "type": "Feature", "properties": {"collection_times": [{"days": "Mon-Fri", "time": "3:50pm"}, {"days": "Sat", "time": "10:00am"}, {"days": "Sun", "time": "Closed"}], "id": "4968900001", "name": "USPS COLLECTION BOX - BLUE BOX", "address": {"city": "WELLSTON", "state": "MI", "street": "17114 6TH ST", "postcode": "49689"}}},
{"geometry": {"type": "Point", "coordinates": [-85.95911856, 44.216706608]}, "type": "Feature", "properties": {"collection_times": [{"days": "Mon-Fri", "time": "3:50pm"}, {"days": "Sat", "time": "10:00am"}, {"days": "Sun", "time": "Closed"}], "id": "4968900002", "name": "USPS COLLECTION BOX - PO LOBBY", "address": {"city": "WELLSTON", "state": "MI", "street": "17114 6TH ST", "postcode": "49689"}}},
{"geometry": {"type": "Point", "coordinates": [-85.407259687, 44.772931477]}, "type": "Feature", "properties": {"collection_times": [{"days": "Mon-Fri", "time": "4:30pm"}, {"days": "Sat", "time": "11:00am"}, {"days": "Sun", "time": "Closed"}], "id": "4969000001", "name": "USPS COLLECTION BOX - BLUE BOX", "address": {"city": "WILLIAMSBURG", "state": "MI", "street": "8344 OLD M 72", "postcode": "49690"}}},
{"geometry": {"type": "Point", "coordinates": [-85.4961751385, 44.777545657]}, "type": "Feature", "properties": {"collection_times": [{"days": "Mon-Sat", "time": "12:30pm"}, {"days": "Sun", "time": "Closed"}], "id": "4969000002", "name": "USPS COLLECTION BOX - BLUE BOX", "address": {"city": "WILLIAMSBURG", "state": "MI", "street": "6353 US HIGHWAY 31 N", "postcode": "49690"}}},
{"geometry": {"type": "Point", "coordinates": [-85.407259687, 44.772931477]}, "type": "Feature", "properties": {"collection_times": [{"days": "Mon-Fri", "time": "4:30pm"}, {"days": "Sat", "time": "11:00am"}, {"days": "Sun", "time": "Closed"}], "id": "4969000003", "name": "USPS COLLECTION BOX - PO LOBBY", "address": {"city": "WILLIAMSBURG", "state": "MI", "street": "8344 OLD M 72", "postcode": "49690"}}}
]}
