{"type": "FeatureCollection", "features": [
{"geometry": {"type": "Point", "coordinates": [-84.727270533, 45.781422349]}, "type": "Feature", "properties": {"collection_times": [{"days": "Mon-Fri", "time": "3:05pm"}, {"days": "Sat", "time": "11:00am"}, {"days": "Sun", "time": "Closed"}], "id": "4970100001", "name": "USPS COLLECTION BOX - BLUE BOX", "address": {"city": "MACKINAW CITY", "state": "MI", "street": "306 E CENTRAL AVE", "postcode": "49701"}}},
{"geometry": {"type": "Point", "coordinates": [-84.727270533, 45.781422349]}, "type": "Feature", "properties": {"collection_times": [{"days": "Mon-Fri", "time": "3:05pm"}, {"days": "Sat", "time": "11:00am"}, {"days": "Sun", "time": "Closed"}], "id": "4970100002", "name": "USPS COLLECTION BOX - BLUE BOX", "address": {"city": "MACKINAW CITY", "state": "MI", "street": "306 E CENTRAL AVE", "postcode": "49701"}}},
{"geometry": {"type": "Point", "coordinates": [-84.727270533, 45.781422349]}, "type": "Feature", "properties": {"collection_times": [{"days": "Mon-Fri", "time": "3:05pm"}, {"days": "Sat", "time": "11:00am"}, {"days": "Sun", "time": "Closed"}], "id": "4970100003", "name": "USPS COLLECTION BOX - PO LOBBY", "address": {"city": "MACKINAW CITY", "state": "MI", "street": "306 E CENTRAL AVE", "postcode": "49701"}}},
{"geometry": {"type": "Point", "coordinates": [-84.4782401325, 45.3736886871]}, "type": "Feature", "properties": {"collection_times": [{"days": "Mon-Fri", "time": "3:45pm"}, {"days": "Sat", "time": "9:45am"}, {"days": "Sun", "time": "Closed"}], "id": "4970500001", "name": "USPS COLLECTION BOX - BLUE BOX", "address": {"city": "AFTON", "state": "MI", "street": "498 M 68 HWY", "postcode": "49705"}}},
{"geometry": {"type": "Point", "coordinates": [-84.496360171, 45.374147188]}, "type": "Feature", "properties": {"collection_times": [{"days": "Mon-Fri", "time": "11:45am"}, {"days": "Sat", "time": "9:45am"}, {"days": "Sun", "time": "Closed"}], "id": "4970500002", "name": "USPS COLLECTION BOX - PO LOBBY", "address": {"city": "AFTON", "state": "MI", "street": "498 M 68 HWY", "postcode": "49705"}}},
{"geometry": {"type": "Point", "coordinates": [-84.7865596591, 45.4402224153]}, "type": "Feature", "properties": {"collection_times": [{"days": "Mon-Fri", "time": "3:25pm"}, {"days": "Sat", "time": "10:00am"}, {"days": "Sun", "time": "Closed"}], "id": "4970600001", "name": "USPS COLLECTION BOX - BLUE BOX", "address": {"city": "ALANSON", "state": "MI", "street": "6263 RIVER ST", "postcode": "49706"}}},
{"geometry": {"type": "Point", "coordinates": [-84.7817472258, 45.4395497966]}, "type": "Feature", "properties": {"collection_times": [{"days": "Mon-Sat", "time": "11:00am"}, {"days": "Sun", "time": "Closed"}], "id": "4970600003", "name": "USPS COLLECTION BOX - BLUE BOX", "address": {"city": "ALANSON", "state": "MI", "street": "6732 M 68", "postcode": "49706"}}},
{"geometry": {"type": "Point", "coordinates": [-84.787517089, 45.440617788]}, "type": "Feature", "properties": {"collection_times": [{"days": "Mon-Fri", "time": "3:25pm"}, {"days": "Sat", "time": "10:00am"}, {"days": "Sun", "time": "Closed"}], "id": "4970600004", "name": "USPS COLLECTION BOX - PO LOBBY", "address": {"city": "ALANSON", "state": "MI", "street": "6262 RIVER ST", "postcode": "49706"}}},
{"geometry": {"type": "Point", "coordinates": [-83.429954463, 45.064254822]}, "type": "Feature", "properties": {"collection_times": [{"days": "Mon-Sat", "time": "3:05pm"}, {"days": "Sun", "time": "Closed"}], "id": "4970700001", "name": "USPS COLLECTION BOX - BLUE BOX", "address": {"city": "ALPENA", "state": "MI", "street": "350 N SECOND AVE", "postcode": "49707"}}},
{"geometry": {"type": "Point", "coordinates": [-83.4405978096, 45.0682090063]}, "type": "Feature", "properties": {"collection_times": [{"days": "Mon-Fri", "time": "3:00pm"}, {"days": "Sat", "time": "2:00pm"}, {"days": "Sun", "time": "Closed"}], "id": "4970700007", "name": "USPS COLLECTION BOX - BLUE BOX", "address": {"city": "ALPENA", "state": "MI", "street": "720 W CHISHOLM ST", "postcode": "49707"}}},
{"geometry": {"type": "Point", "coordinates": [-83.4404582524, 45.0682624713]}, "type": "Feature", "properties": {"collection_times": [{"days": "Mon-Fri", "time": "3:00pm"}, {"days": "Sat", "time": "2:00pm"}, {"days": "Sun", "time": "Closed"}], "id": "4970700010", "name": "USPS COLLECTION BOX - BLUE BOX", "address": {"city": "ALPENA", "state": "MI", "street": "719 W CHISHOLM ST", "postcode": "49707"}}},
{"geometry": {"type": "Point", "coordinates": [-83.4580123966, 45.0429514034]}, "type": "Feature", "properties": {"collection_times": [{"days": "Mon-Sat", "time": "1:30pm"}, {"days": "Sun", "time": "Closed"}], "id": "4970700012", "name": "USPS COLLECTION BOX - BLUE BOX", "address": {"city": "ALPENA", "state": "MI", "street": "2236 US HIGHWAY 23 S", "postcode": "49707"}}},
{"geometry": {"type": "Point", "coordinates": [-83.4510202897, 45.0577854246]}, "type": "Feature", "properties": {"collection_times": [{"days": "Mon-Sat", "time": "1:30pm"}, {"days": "Sun", "time": "Closed"}], "id": "4970700013", "name": "USPS COLLECTION BOX - BLUE BOX", "address": {"city": "ALPENA", "state": "MI", "street": "458 W BALDWIN ST", "postcode": "49707"}}},
{"geometry": {"type": "Point", "coordinates": [-83.4578040535, 45.0431667641]}, "type": "Feature", "properties": {"collection_times": [{"days": "Mon-Sat", "time": "11:00am"}, {"days": "Sun", "time": "Closed"}], "id": "4970700014", "name": "USPS COLLECTION BOX - BLUE BOX", "address": {"city": "ALPENA", "state": "MI", "street": "2205 US HIGHWAY 23 S", "postcode": "49707"}}},
{"geometry": {"type": "Point", "coordinates": [-83.4333455154, 45.0621742509]}, "type": "Feature", "properties": {"collection_times": [{"days": "Mon-Fri", "time": "3:00pm"}, {"days": "Sat", "time": "1:00pm"}, {"days": "Sun", "time": "Closed"}], "id": "4970700022", "name": "USPS COLLECTION BOX - BLUE BOX", "address": {"city": "ALPENA", "state": "MI", "street": "100 S SECOND AVE", "postcode": "49707"}}},
{"geometry": {"type": "Point", "coordinates": [-83.4686421098, 45.0617470196]}, "type": "Feature", "properties": {"collection_times": [{"days": "Mon-Sat", "time": "10:00am"}, {"days": "Sun", "time": "Closed"}], "id": "4970700037", "name": "USPS COLLECTION BOX - BLUE BOX", "address": {"city": "ALPENA", "state": "MI", "street": "1180 M 32 W", "postcode": "49707"}}},
{"geometry": {"type": "Point", "coordinates": [-83.4310114743, 45.0619095735]}, "type": "Feature", "properties": {"collection_times": [{"days": "Mon-Fri", "time": "3:00pm"}, {"days": "Sat", "time": "2:00pm"}, {"days": "Sun", "time": "Closed"}], "id": "4970700043", "name": "USPS COLLECTION BOX - BLUE BOX", "address": {"city": "ALPENA", "state": "MI", "street": "208 N FIRST AVE", "postcode": "49707"}}},
{"geometry": {"type": "Point", "coordinates": [-83.459739183, 45.0421816629]}, "type": "Feature", "properties": {"collection_times": [{"days": "Mon-Sat", "time": "11:00am"}, {"days": "Sun", "time": "Closed"}], "id": "4970700046", "name": "USPS COLLECTION BOX - BLUE BOX", "address": {"city": "ALPENA", "state": "MI", "street": "2355 US HIGHWAY 23 S", "postcode": "49707"}}},
{"geometry": {"type": "Point", "coordinates": [-83.4712814913, 45.0616006857]}, "type": "Feature", "properties": {"collection_times": [{"days": "Mon-Fri", "time": "11:00am"}, {"days": "Sat", "time": "9:00am"}, {"days": "Sun", "time": "Closed"}], "id": "4970700047", "name": "USPS COLLECTION BOX - BLUE BOX", "address": {"city": "ALPENA", "state": "MI", "street": "1100 S BAGLEY ST", "postcode": "49707"}}},
{"geometry": {"type": "Point", "coordinates": [-83.47285041, 45.0788602684]}, "type": "Feature", "properties": {"collection_times": [{"days": "Mon-Sat", "time": "11:00am"}, {"days": "Sun", "time": "Closed"}], "id": "4970700048", "name": "USPS COLLECTION BOX - BLUE BOX", "address": {"city": "ALPENA", "state": "MI", "street": "999 LONG RAPIDS RD", "postcode": "49707"}}},
{"geometry": {"type": "Point", "coordinates": [-83.4345558366, 45.0631997174]}, "type": "Feature", "properties": {"collection_times": [{"days": "Mon-Fri", "time": "3:00pm"}, {"days": "Sat", "time": "2:00pm"}, {"days": "Sun", "time": "Closed"}], "id": "4970700051", "name": "USPS COLLECTION BOX - BLUE BOX", "address": {"city": "ALPENA", "state": "MI", "street": "200 W CHISHOLM ST", "postcode": "49707"}}},
{"geometry": {"type": "Point", "coordinates": [-83.429954463, 45.064254822]}, "type": "Feature", "properties": {"collection_times": [{"days": "Mon-Sat", "time": "3:05pm"}, {"days": "Sun", "time": "Closed"}], "id": "4970700057", "name": "USPS COLLECTION BOX - PO LOBBY", "address": {"city": "ALPENA", "state": "MI", "street": "350 N SECOND AVE", "postcode": "49707"}}},
{"geometry": {"type": "Point", "coordinates": [-83.4559141299, 45.0849399271]}, "type": "Feature", "properties": {"collection_times": [{"days": "Mon-Sat", "time": "10:00am"}, {"days": "Sun", "time": "Closed"}], "id": "4970700063", "name": "USPS COLLECTION BOX - BLUE BOX", "address": {"city": "ALPENA", "state": "MI", "street": "1025 US HIGHWAY 23 N", "postcode": "49707"}}},
{"geometry": {"type": "Point", "coordinates": [-84.140272827, 45.004445634]}, "type": "Feature", "properties": {"collection_times": [{"days": "Mon-Fri", "time": "3:20pm"}, {"days": "Sat", "time": "11:00am"}, {"days": "Sun", "time": "Closed"}], "id": "4970900002", "name": "USPS COLLECTION BOX - BLUE BOX", "address": {"city": "ATLANTA", "state": "MI", "street": "12606 STATE ST", "postcode": "49709"}}},
{"geometry": {"type": "Point", "coordinates": [-84.140272827, 45.004445634]}, "type": "Feature", "properties": {"collection_times": [{"days": "Mon-Fri", "time": "3:20pm"}, {"days": "Sat", "time": "11:00am"}, {"days": "Sun", "time": "Closed"}], "id": "4970900004", "name": "USPS COLLECTION BOX - PO LOBBY", "address": {"city": "ATLANTA", "state": "MI", "street": "12606 STATE ST", "postcode": "49709"}}},
{"geometry": {"type": "Point", "coordinates": [-84.182127776, 46.267649599]}, "type": "Feature", "properties": {"collection_times": [{"days": "Mon-Fri", "time": "1:10pm"}, {"days": "Sat", "time": "10:30am"}, {"days": "Sun", "time": "Closed"}], "id": "4971000001", "name": "USPS COLLECTION BOX - BLUE BOX", "address": {"city": "BARBEAU", "state": "MI", "street": "15005 S RIVERSIDE DR", "postcode": "49710"}}},
{"geometry": {"type": "Point", "coordinates": [-84.182127776, 46.267649599]}, "type": "Feature", "properties": {"collection_times": [{"days": "Mon-Fri", "time": "1:10pm"}, {"days": "Sat", "time": "10:30am"}, {"days": "Sun", "time": "Closed"}], "id": "4971000003", "name": "USPS COLLECTION BOX - PO LOBBY", "address": {"city": "BARBEAU", "state": "MI", "street": "15005 S RIVERSIDE DR", "postcode": "49710"}}},
{"geometry": {"type": "Point", "coordinates": [-85.011139767, 45.213596307]}, "type": "Feature", "properties": {"collection_times": [{"days": "Mon-Fri", "time": "4:00pm"}, {"days": "Sat", "time": "3:00pm"}, {"days": "Sun", "time": "Closed"}], "id": "4971200001", "name": "USPS COLLECTION BOX - BLUE BOX", "address": {"city": "BOYNE CITY", "state": "MI", "street": "301 WATER ST", "postcode": "49712"}}},
{"geometry": {"type": "Point", "coordinates": [-85.0152936221, 45.2200672649]}, "type": "Feature", "properties": {"collection_times": [{"days": "Mon-Sat", "time": "11:30am"}, {"days": "Sun", "time": "Closed"}], "id": "4971200005", "name": "USPS COLLECTION BOX - BLUE BOX", "address": {"city": "BOYNE CITY", "state": "MI", "street": "430 N LAKE ST", "postcode": "49712"}}},
{"geometry": {"type": "Point", "coordinates": [-85.0148781202, 45.211544771]}, "type": "Feature", "properties": {"collection_times": [{"days": "Mon-Sat", "time": "2:00pm"}, {"days": "Sun", "time": "Closed"}], "id": "4971200007", "name": "USPS COLLECTION BOX - BLUE BOX", "address": {"city": "BOYNE CITY", "state": "MI", "street": "219 S LAKE ST", "postcode": "49712"}}},
{"geometry": {"type": "Point", "coordinates": [-85.011139767, 45.213596307]}, "type": "Feature", "properties": {"collection_times": [{"days": "Mon-Fri", "time": "4:00pm"}, {"days": "Sat", "time": "3:00pm"}, {"days": "Sun", "time": "Closed"}], "id": "4971200008", "name": "USPS COLLECTION BOX - BLUE BOX", "address": {"city": "BOYNE CITY", "state": "MI", "street": "301 WATER ST", "postcode": "49712"}}},
{"geometry": {"type": "Point", "coordinates": [-85.011139767, 45.213596307]}, "type": "Feature", "properties": {"collection_times": [{"days": "Mon-Fri", "time": "4:00pm"}, {"days": "Sat", "time": "3:00pm"}, {"days": "Sun", "time": "Closed"}], "id": "4971200009", "name": "USPS COLLECTION BOX - PO LOBBY", "address": {"city": "BOYNE CITY", "state": "MI", "street": "301 WATER ST", "postcode": "49712"}}},
{"geometry": {"type": "Point", "coordinates": [-85.0148615829, 45.2136193455]}, "type": "Feature", "properties": {"collection_times": [{"days": "Mon-Sat", "time": "2:00pm"}, {"days": "Sun", "time": "Closed"}], "id": "4971200010", "name": "USPS COLLECTION BOX - BLUE BOX", "address": {"city": "BOYNE CITY", "state": "MI", "street": "102 WATER ST", "postcode": "49712"}}},
{"geometry": {"type": "Point", "coordinates": [-84.91451037, 45.167261755]}, "type": "Feature", "properties": {"collection_times": [{"days": "Mon-Fri", "time": "4:20pm"}, {"days": "Sat", "time": "11:00am"}, {"days": "Sun", "time": "Closed"}], "id": "4971300001", "name": "USPS COLLECTION BOX - BLUE BOX", "address": {"city": "BOYNE FALLS", "state": "MI", "street": "2543 CENTER ST", "postcode": "49713"}}},
{"geometry": {"type": "Point", "coordinates": [-84.91451037, 45.167261755]}, "type": "Feature", "properties": {"collection_times": [{"days": "Mon-Fri", "time": "4:20pm"}, {"days": "Sat", "time": "11:00am"}, {"days": "Sun", "time": "Closed"}], "id": "4971300002", "name": "USPS COLLECTION BOX - PO LOBBY", "address": {"city": "BOYNE FALLS", "state": "MI", "street": "2543 CENTER ST", "postcode": "49713"}}},
{"geometry": {"type": "Point", "coordinates": [-84.572237712, 46.404417392]}, "type": "Feature", "properties": {"collection_times": [{"days": "Mon-Fri", "time": "1:55pm"}, {"days": "Sat", "time": "10:00am"}, {"days": "Sun", "time": "Closed"}], "id": "4971500001", "name": "USPS COLLECTION BOX - BLUE BOX", "address": {"city": "BRIMLEY", "state": "MI", "street": "6981 S M 221", "postcode": "49715"}}},
{"geometry": {"type": "Point", "coordinates": [-84.572237712, 46.404417392]}, "type": "Feature", "properties": {"collection_times": [{"days": "Mon-Fri", "time": "1:55pm"}, {"days": "Sat", "time": "10:00am"}, {"days": "Sun", "time": "Closed"}], "id": "4971500002", "name": "USPS COLLECTION BOX - PO LOBBY", "address": {"city": "BRIMLEY", "state": "MI", "street": "6981 S M 221", "postcode": "49715"}}},
{"geometry": {"type": "Point", "coordinates": [-84.7811707787, 45.4936510094]}, "type": "Feature", "properties": {"collection_times": [{"days": "Mon-Fri", "time": "1:00pm"}, {"days": "Sat", "time": "10:00am"}, {"days": "Sun", "time": "Closed"}], "id": "4971600002", "name": "USPS COLLECTION BOX - BLUE BOX", "address": {"city": "BRUTUS", "state": "MI", "street": "3989 US HIGHWAY 31", "postcode": "49716"}}},
{"geometry": {"type": "Point", "coordinates": [-84.517518751, 45.499257102]}, "type": "Feature", "properties": {"collection_times": [{"days": "Mon-Fri", "time": "1:00pm"}, {"days": "Sat", "time": "10:00am"}, {"days": "Sun", "time": "Closed"}], "id": "4971700001", "name": "USPS COLLECTION BOX - BLUE BOX", "address": {"city": "BURT LAKE", "state": "MI", "street": "10501 E WEST RESORT RD", "postcode": "49717"}}},
{"geometry": {"type": "Point", "coordinates": [-84.517518751, 45.499257102]}, "type": "Feature", "properties": {"collection_times": [{"days": "Mon-Fri", "time": "1:00pm"}, {"days": "Sat", "time": "10:00am"}, {"days": "Sun", "time": "Closed"}], "id": "4971700002", "name": "USPS COLLECTION BOX - PO LOBBY", "address": {"city": "BURT LAKE", "state": "MI", "street": "10501 E WEST RESORT RD", "postcode": "49717"}}},
{"geometry": {"type": "Point", "coordinates": [-84.77914869, 45.694637698]}, "type": "Feature", "properties": {"collection_times": [{"days": "Mon-Fri", "time": "2:25pm"}, {"days": "Sat", "time": "10:00am"}, {"days": "Sun", "time": "Closed"}], "id": "4971800002", "name": "USPS COLLECTION BOX - BLUE BOX", "address": {"city": "CARP LAKE", "state": "MI", "street": "6496 PARADISE TRL", "postcode": "49718"}}},
{"geometry": {"type": "Point", "coordinates": [-84.77914869, 45.694637698]}, "type": "Feature", "properties": {"collection_times": [{"days": "Mon-Fri", "time": "2:25pm"}, {"days": "Sat", "time": "10:00am"}, {"days": "Sun", "time": "Closed"}], "id": "4971800005", "name": "USPS COLLECTION BOX - PO LOBBY", "address": {"city": "CARP LAKE", "state": "MI", "street": "6496 PARADISE TRL", "postcode": "49718"}}},
{"geometry": {"type": "Point", "coordinates": [-84.357840704, 45.997649477]}, "type": "Feature", "properties": {"collection_times": [{"days": "Mon-Fri", "time": "1:55pm"}, {"days": "Sat", "time": "10:00am"}, {"days": "Sun", "time": "Closed"}], "id": "4971900002", "name": "USPS COLLECTION BOX - BLUE BOX", "address": {"city": "CEDARVILLE", "state": "MI", "street": "124 BEACH ST", "postcode": "49719"}}},
{"geometry": {"type": "Point", "coordinates": [-84.357840704, 45.997649477]}, "type": "Feature", "properties": {"collection_times": [{"days": "Mon-Fri", "time": "1:55pm"}, {"days": "Sat", "time": "10:00am"}, {"days": "Sun", "time": "Closed"}], "id": "4971900004", "name": "USPS COLLECTION BOX - PO LOBBY", "address": {"city": "CEDARVILLE", "state": "MI", "street": "124 BEACH ST", "postcode": "49719"}}},
{"geometry": {"type": "Point", "coordinates": [-85.2586439794, 45.3130379456]}, "type": "Feature", "properties": {"collection_times": [{"days": "Mon-Fri", "time": "1:00pm"}, {"days": "Sat", "time": "11:30am"}, {"days": "Sun", "time": "Closed"}], "id": "4972000003", "name": "USPS COLLECTION BOX - BLUE BOX", "address": {"city": "CHARLEVOIX", "state": "MI", "street": "802 BRIDGE ST", "postcode": "49720"}}},
{"geometry": {"type": "Point", "coordinates": [-85.2581626962, 45.3151714959]}, "type": "Feature", "properties": {"collection_times": [{"days": "Mon-Fri", "time": "1:00pm"}, {"days": "Sat", "time": "11:30am"}, {"days": "Sun", "time": "Closed"}], "id": "4972000004", "name": "USPS COLLECTION BOX - BLUE BOX", "address": {"city": "CHARLEVOIX", "state": "MI", "street": "112 ANTRIM ST", "postcode": "49720"}}},
{"geometry": {"type": "Point", "coordinates": [-85.256310769, 45.299587641]}, "type": "Feature", "properties": {"collection_times": [{"days": "Mon-Fri", "time": "5:00pm"}, {"days": "Sat", "time": "4:00pm"}, {"days": "Sun", "time": "Closed"}], "id": "4972000009", "name": "USPS COLLECTION BOX - BLUE BOX", "address": {"city": "CHARLEVOIX", "state": "MI", "street": "6700 M 66 N", "postcode": "49720"}}},
{"geometry": {"type": "Point", "coordinates": [-85.256310769, 45.299587641]}, "type": "Feature", "properties": {"collection_times": [{"days": "Mon-Fri", "time": "5:00pm"}, {"days": "Sat", "time": "4:00pm"}, {"days": "Sun", "time": "Closed"}], "id": "4972000010", "name": "USPS COLLECTION BOX - BLUE BOX", "address": {"city": "CHARLEVOIX", "state": "MI", "street": "6700 M 66 N", "postcode": "49720"}}},
{"geometry": {"type": "Point", "coordinates": [-85.2589327515, 45.3160126019]}, "type": "Feature", "properties": {"collection_times": [{"days": "Mon-Fri", "time": "3:00pm"}, {"days": "Sat", "time": "11:30am"}, {"days": "Sun", "time": "Closed"}], "id": "4972000011", "name": "USPS COLLECTION BOX - BLUE BOX", "address": {"city": "CHARLEVOIX", "state": "MI", "street": "109 MASON ST", "postcode": "49720"}}},
{"geometry": {"type": "Point", "coordinates": [-85.2589327515, 45.3160126019]}, "type": "Feature", "properties": {"collection_times": [{"days": "Mon-Fri", "time": "3:00pm"}, {"days": "Sat", "time": "11:30am"}, {"days": "Sun", "time": "Closed"}], "id": "4972000012", "name": "USPS COLLECTION BOX - BLUE BOX", "address": {"city": "CHARLEVOIX", "state": "MI", "street": "109 MASON ST", "postcode": "49720"}}},
{"geometry": {"type": "Point", "coordinates": [-85.2565670702, 45.3001252572]}, "type": "Feature", "properties": {"collection_times": [{"days": "Mon-Fri", "time": "1:00pm"}, {"days": "Sat", "time": "11:30am"}, {"days": "Sun", "time": "Closed"}], "id": "4972000013", "name": "USPS COLLECTION BOX - BLUE BOX", "address": {"city": "CHARLEVOIX", "state": "MI", "street": "6600 M 66 N", "postcode": "49720"}}},
{"geometry": {"type": "Point", "coordinates": [-85.256310769, 45.299587641]}, "type": "Feature", "properties": {"collection_times": [{"days": "Mon-Fri", "time": "5:00pm"}, {"days": "Sat", "time": "4:00pm"}, {"days": "Sun", "time": "Closed"}], "id": "4972000014", "name": "USPS COLLECTION BOX - PO LOBBY", "address": {"city": "CHARLEVOIX", "state": "MI", "street": "6700 M 66 N", "postcode": "49720"}}},
{"geometry": {"type": "Point", "coordinates": [-85.2589327515, 45.3160126019]}, "type": "Feature", "properties": {"collection_times": [{"days": "Mon-Fri", "time": "3:00pm"}, {"days": "Sat", "time": "11:30am"}, {"days": "Sun", "time": "Closed"}], "id": "4972000015", "name": "USPS COLLECTION BOX - BLUE BOX", "address": {"city": "CHARLEVOIX", "state": "MI", "street": "109 MASON ST", "postcode": "49720"}}},
{"geometry": {"type": "Point", "coordinates": [-85.2589327515, 45.3160126019]}, "type": "Feature", "properties": {"collection_times": [{"days": "Mon-Fri", "time": "3:00pm"}, {"days": "Sat", "time": "11:30am"}, {"days": "Sun", "time": "Closed"}], "id": "4972000016", "name": "USPS COLLECTION BOX - BLUE BOX", "address": {"city": "CHARLEVOIX", "state": "MI", "street": "109 MASON ST", "postcode": "49720"}}},
{"geometry": {"type": "Point", "coordinates": [-84.4796869057, 45.629591129]}, "type": "Feature", "properties": {"collection_times": [{"days": "Mon-Sat", "time": "10:30am"}, {"days": "Sun", "time": "Closed"}], "id": "4972100003", "name": "USPS COLLECTION BOX - BLUE BOX", "address": {"city": "CHEBOYGAN", "state": "MI", "street": "992 S MAIN ST", "postcode": "49721"}}},
{"geometry": {"type": "Point", "coordinates": [-84.458182946, 45.6404982216]}, "type": "Feature", "properties": {"collection_times": [{"days": "Mon-Sat", "time": "10:00am"}, {"days": "Sun", "time": "Closed"}], "id": "4972100009", "name": "USPS COLLECTION BOX - BLUE BOX", "address": {"city": "CHEBOYGAN", "state": "MI", "street": "1131 E STATE ST", "postcode": "49721"}}},
{"geometry": {"type": "Point", "coordinates": [-84.477196573, 45.644147559]}, "type": "Feature", "properties": {"collection_times": [{"days": "Mon-Fri", "time": "3:30pm"}, {"days": "Sat", "time": "3:00pm"}, {"days": "Sun", "time": "Closed"}], "id": "4972100010", "name": "USPS COLLECTION BOX - PO LOBBY", "address": {"city": "CHEBOYGAN", "state": "MI", "street": "200 N MAIN ST", "postcode": "49721"}}},
{"geometry": {"type": "Point", "coordinates": [-84.477196573, 45.644147559]}, "type": "Feature", "properties": {"collection_times": [{"days": "Mon-Fri", "time": "3:30pm"}, {"days": "Sat", "time": "3:00pm"}, {"days": "Sun", "time": "Closed"}], "id": "4972100011", "name": "USPS COLLECTION BOX - BLUE BOX", "address": {"city": "CHEBOYGAN", "state": "MI", "street": "200 N MAIN ST", "postcode": "49721"}}},
{"geometry": {"type": "Point", "coordinates": [-84.86356705, 45.420712953]}, "type": "Feature", "properties": {"collection_times": [{"days": "Mon-Fri", "time": "4:00pm"}, {"days": "Sat", "time": "10:30am"}, {"days": "Sun", "time": "Closed"}], "id": "4972200004", "name": "USPS COLLECTION BOX - PO LOBBY", "address": {"city": "CONWAY", "state": "MI", "street": "3459 US 31 N", "postcode": "49722"}}},
{"geometry": {"type": "Point", "coordinates": [-84.86356705, 45.420712953]}, "type": "Feature", "properties": {"collection_times": [{"days": "Mon-Fri", "time": "4:00pm"}, {"days": "Sat", "time": "10:30am"}, {"days": "Sun", "time": "Closed"}], "id": "4972200005", "name": "USPS COLLECTION BOX - BLUE BOX", "address": {"city": "CONWAY", "state": "MI", "street": "3459 US 31 N", "postcode": "49722"}}},
{"geometry": {"type": "Point", "coordinates": [-85.038032991, 45.641780676]}, "type": "Feature", "properties": {"collection_times": [{"days": "Mon-Fri", "time": "3:05pm"}, {"days": "Sat", "time": "10:30am"}, {"days": "Sun", "time": "Closed"}], "id": "4972300001", "name": "USPS COLLECTION BOX - BLUE BOX", "address": {"city": "CROSS VILLAGE", "state": "MI", "street": "6340 N LAKE SHORE DR", "postcode": "49723"}}},
{"geometry": {"type": "Point", "coordinates": [-85.038032991, 45.641780676]}, "type": "Feature", "properties": {"collection_times": [{"days": "Mon-Fri", "time": "3:05pm"}, {"days": "Sat", "time": "10:30am"}, {"days": "Sun", "time": "Closed"}], "id": "4972300002", "name": "USPS COLLECTION BOX - PO LOBBY", "address": {"city": "CROSS VILLAGE", "state": "MI", "street": "6340 N LAKE SHORE DR", "postcode": "49723"}}},
{"geometry": {"type": "Point", "coordinates": [-84.428008087, 46.360219278]}, "type": "Feature", "properties": {"collection_times": [{"days": "Mon-Fri", "time": "2:20pm"}, {"days": "Sat", "time": "11:45am"}, {"days": "Sun", "time": "Closed"}], "id": "4972400001", "name": "USPS COLLECTION BOX - BLUE BOX", "address": {"city": "DAFTER", "state": "MI", "street": "3082 W 10 MILE RD", "postcode": "49724"}}},
{"geometry": {"type": "Point", "coordinates": [-84.428008087, 46.360219278]}, "type": "Feature", "properties": {"collection_times": [{"days": "Mon-Fri", "time": "2:20pm"}, {"days": "Sat", "time": "11:30am"}, {"days": "Sun", "time": "Closed"}], "id": "4972400002", "name": "USPS COLLECTION BOX - PO LOBBY", "address": {"city": "DAFTER", "state": "MI", "street": "3082 W 10 MILE RD", "postcode": "49724"}}},
{"geometry": {"type": "Point", "coordinates": [-83.90179383, 45.992831651]}, "type": "Feature", "properties": {"collection_times": [{"days": "Mon-Fri", "time": "1:10pm"}, {"days": "Sat", "time": "11:30am"}, {"days": "Sun", "time": "Closed"}], "id": "4972500001", "name": "USPS COLLECTION BOX - BLUE BOX", "address": {"city": "DETOUR VILLAGE", "state": "MI", "street": "136 N ONTARIO ST", "postcode": "49725"}}},
{"geometry": {"type": "Point", "coordinates": [-83.90179383, 45.992831651]}, "type": "Feature", "properties": {"collection_times": [{"days": "Mon-Fri", "time": "1:10pm"}, {"days": "Sat", "time": "11:30am"}, {"days": "Sun", "time": "Closed"}], "id": "4972500002", "name": "USPS COLLECTION BOX - PO LOBBY", "address": {"city": "DETOUR VILLAGE", "state": "MI", "street": "136 N ONTARIO ST", "postcode": "49725"}}},
{"geometry": {"type": "Point", "coordinates": [-83.7382280999, 45.9987964194]}, "type": "Feature", "properties": {"collection_times": [{"days": "Mon-Fri", "time": "12:25pm"}, {"days": "Sat", "time": "12:00pm"}, {"days": "Sun", "time": "Closed"}], "id": "4972600001", "name": "USPS COLLECTION BOX - BLUE BOX", "address": {"city": "DRUMMOND ISLAND", "state": "MI", "street": "30012 E JOHNSWOOD RD", "postcode": "49726"}}},
{"geometry": {"type": "Point", "coordinates": [-83.745301587, 46.020534968]}, "type": "Feature", "properties": {"collection_times": [{"days": "Mon-Fri", "time": "12:25pm"}, {"days": "Sat", "time": "12:00pm"}, {"days": "Sun", "time": "Closed"}], "id": "4972600003", "name": "USPS COLLECTION BOX - BLUE BOX", "address": {"city": "DRUMMOND ISLAND", "state": "MI", "street": "29726 E SOMES RD", "postcode": "49726"}}},
{"geometry": {"type": "Point", "coordinates": [-83.745301587, 46.020534968]}, "type": "Feature", "properties": {"collection_times": [{"days": "Mon-Fri", "time": "12:25pm"}, {"days": "Sat", "time": "12:00pm"}, {"days": "Sun", "time": "Closed"}], "id": "4972600005", "name": "USPS COLLECTION BOX - PO LOBBY", "address": {"city": "DRUMMOND ISLAND", "state": "MI", "street": "29726 E SOMES RD", "postcode": "49726"}}},
{"geometry": {"type": "Point", "coordinates": [-85.1040042245, 45.1270836358]}, "type": "Feature", "properties": {"collection_times": [{"days": "Mon-Fri", "time": "4:20pm"}, {"days": "Sat", "time": "11:30am"}, {"days": "Sun", "time": "Closed"}], "id": "4972700001", "name": "USPS COLLECTION BOX - BLUE BOX", "address": {"city": "EAST JORDAN", "state": "MI", "street": "103 2ND ST", "postcode": "49727"}}},
{"geometry": {"type": "Point", "coordinates": [-85.1040042245, 45.1270836358]}, "type": "Feature", "properties": {"collection_times": [{"days": "Mon-Fri", "time": "4:20pm"}, {"days": "Sat", "time": "11:30am"}, {"days": "Sun", "time": "Closed"}], "id": "4972700004", "name": "USPS COLLECTION BOX - PO LOBBY", "address": {"city": "EAST JORDAN", "state": "MI", "street": "103 2ND ST", "postcode": "49727"}}},
{"geometry": {"type": "Point", "coordinates": [-85.038437116, 46.42253601]}, "type": "Feature", "properties": {"collection_times": [{"days": "Mon-Fri", "time": "12:00pm"}, {"days": "Sat", "time": "11:00am"}, {"days": "Sun", "time": "Closed"}], "id": "4972800001", "name": "USPS COLLECTION BOX - BLUE BOX", "address": {"city": "ECKERMAN", "state": "MI", "street": "9925 S SHELDON RD", "postcode": "49728"}}},
{"geometry": {"type": "Point", "coordinates": [-85.038437116, 46.42253601]}, "type": "Feature", "properties": {"collection_times": [{"days": "Mon-Fri", "time": "12:00pm"}, {"days": "Sat", "time": "11:00am"}, {"days": "Sun", "time": "Closed"}], "id": "4972800003", "name": "USPS COLLECTION BOX - PO LOBBY", "address": {"city": "ECKERMAN", "state": "MI", "street": "9925 S SHELDON RD", "postcode": "49728"}}},
{"geometry": {"type": "Point", "coordinates": [-85.246101553, 45.166158016]}, "type": "Feature", "properties": {"collection_times": [{"days": "Mon-Fri", "time": "3:50pm"}, {"days": "Sat", "time": "11:30am"}, {"days": "Sun", "time": "Closed"}], "id": "4972900001", "name": "USPS COLLECTION BOX - BLUE BOX", "address": {"city": "ELLSWORTH", "state": "MI", "street": "9284 MAIN ST", "postcode": "49729"}}},
{"geometry": {"type": "Point", "coordinates": [-85.246101553, 45.166158016]}, "type": "Feature", "properties": {"collection_times": [{"days": "Mon-Fri", "time": "3:50pm"}, {"days": "Sat", "time": "11:30am"}, {"days": "Sun", "time": "Closed"}], "id": "4972900002", "name": "USPS COLLECTION BOX - PO LOBBY", "address": {"city": "ELLSWORTH", "state": "MI", "street": "9284 MAIN ST", "postcode": "49729"}}},
{"geometry": {"type": "Point", "coordinates": [-84.85599362, 45.064283267]}, "type": "Feature", "properties": {"collection_times": [{"days": "Mon-Fri", "time": "2:00pm"}, {"days": "Sat", "time": "10:00am"}, {"days": "Sun", "time": "Closed"}], "id": "4973000001", "name": "USPS COLLECTION BOX - BLUE BOX", "address": {"city": "ELMIRA", "state": "MI", "street": "8846 UNDERWOOD AVE", "postcode": "49730"}}},
{"geometry": {"type": "Point", "coordinates": [-84.85599362, 45.064283267]}, "type": "Feature", "properties": {"collection_times": [{"days": "Mon-Fri", "time": "12:15pm"}, {"days": "Sat", "time": "10:00am"}, {"days": "Sun", "time": "Closed"}], "id": "4973000002", "name": "USPS COLLECTION BOX - PO LOBBY", "address": {"city": "ELMIRA", "state": "MI", "street": "8846 UNDERWOOD AVE", "postcode": "49730"}}},
{"geometry": {"type": "Point", "coordinates": [-84.753790437, 44.805244267]}, "type": "Feature", "properties": {"collection_times": [{"days": "Mon-Fri", "time": "3:30pm"}, {"days": "Sat", "time": "10:30am"}, {"days": "Sun", "time": "Closed"}], "id": "4973300001", "name": "USPS COLLECTION BOX - BLUE BOX", "address": {"city": "FREDERIC", "state": "MI", "street": "6450 OLD 27 N", "postcode": "49733"}}},
{"geometry": {"type": "Point", "coordinates": [-84.753790437, 44.805244267]}, "type": "Feature", "properties": {"collection_times": [{"days": "Mon-Fri", "time": "3:30pm"}, {"days": "Sat", "time": "11:30am"}, {"days": "Sun", "time": "Closed"}], "id": "4973300002", "name": "USPS COLLECTION BOX - PO LOBBY", "address": {"city": "FREDERIC", "state": "MI", "street": "6450 OLD 27 N", "postcode": "49733"}}},
{"geometry": {"type": "Point", "coordinates": [-84.6874562614, 44.9971978216]}, "type": "Feature", "properties": {"collection_times": [{"days": "Mon-Sat", "time": "3:00pm"}, {"days": "Sun", "time": "Closed"}], "id": "4973500001", "name": "USPS COLLECTION BOX - EXPRESS", "address": {"city": "GAYLORD", "state": "MI", "street": "1068 OROURKE BLVD", "postcode": "49735"}}},
{"geometry": {"type": "Point", "coordinates": [-84.6771439211, 45.0274280766]}, "type": "Feature", "properties": {"collection_times": [{"days": "Mon-Sat", "time": "3:00pm"}, {"days": "Sun", "time": "Closed"}], "id": "4973500008", "name": "USPS COLLECTION BOX - BLUE BOX", "address": {"city": "GAYLORD", "state": "MI", "street": "302 W MAIN ST", "postcode": "49735"}}},
{"geometry": {"type": "Point", "coordinates": [-84.671151647, 45.0273124751]}, "type": "Feature", "properties": {"collection_times": [{"days": "Mon-Sat", "time": "3:00pm"}, {"days": "Sun", "time": "Closed"}], "id": "4973500009", "name": "USPS COLLECTION BOX - BLUE BOX", "address": {"city": "GAYLORD", "state": "MI", "street": "305 E MAIN ST", "postcode": "49735"}}},
{"geometry": {"type": "Point", "coordinates": [-84.688856385, 45.0115064655]}, "type": "Feature", "properties": {"collection_times": [{"days": "Mon-Sat", "time": "3:00pm"}, {"days": "Sun", "time": "Closed"}], "id": "4973500010", "name": "USPS COLLECTION BOX - BLUE BOX", "address": {"city": "GAYLORD", "state": "MI", "street": "1068 OROURKE BLVD", "postcode": "49735"}}},
{"geometry": {"type": "Point", "coordinates": [-84.6743199744, 45.0273105876]}, "type": "Feature", "properties": {"collection_times": [{"days": "Mon-Sat", "time": "3:00pm"}, {"days": "Sun", "time": "Closed"}], "id": "4973500017", "name": "USPS COLLECTION BOX - BLUE BOX", "address": {"city": "GAYLORD", "state": "MI", "street": "123 W MAIN ST", "postcode": "49735"}}},
{"geometry": {"type": "Point", "coordinates": [-84.7025634908, 45.0273897793]}, "type": "Feature", "properties": {"collection_times": [{"days": "Mon-Sat", "time": "3:00pm"}, {"days": "Sun", "time": "Closed"}], "id": "4973500023", "name": "USPS COLLECTION BOX - BLUE BOX", "address": {"city": "GAYLORD", "state": "MI", "street": "1425 W MAIN ST", "postcode": "49735"}}},
{"geometry": {"type": "Point", "coordinates": [-84.6848403412, 45.0273287165]}, "type": "Feature", "properties": {"collection_times": [{"days": "Mon-Sat", "time": "1:00pm"}, {"days": "Sun", "time": "Closed"}], "id": "4973500025", "name": "USPS COLLECTION BOX - BLUE BOX", "address": {"city": "GAYLORD", "state": "MI", "street": "829 W MAIN ST", "postcode": "49735"}}},
{"geometry": {"type": "Point", "coordinates": [-84.6697388724, 45.0114230843]}, "type": "Feature", "properties": {"collection_times": [{"days": "Mon-Sat", "time": "5:00pm"}, {"days": "Sun", "time": "Closed"}], "id": "4973500030", "name": "USPS COLLECTION BOX - BLUE BOX", "address": {"city": "GAYLORD", "state": "MI", "street": "289 W COMMERCE BLVD", "postcode": "49735"}}},
{"geometry": {"type": "Point", "coordinates": [-84.6874562614, 44.9971978216]}, "type": "Feature", "properties": {"collection_times": [{"days": "Mon-Sat", "time": "5:00pm"}, {"days": "Sun", "time": "Closed"}], "id": "4973500032", "name": "USPS COLLECTION BOX - EXPRESS", "address": {"city": "GAYLORD", "state": "MI", "street": "289 W COMMERCE BLVD", "postcode": "49735"}}},
{"geometry": {"type": "Point", "coordinates": [-84.6744966529, 44.9957505316]}, "type": "Feature", "properties": {"collection_times": [{"days": "Mon-Sat", "time": "3:00pm"}, {"days": "Sun", "time": "Closed"}], "id": "4973500033", "name": "USPS COLLECTION BOX - BLUE BOX", "address": {"city": "GAYLORD", "state": "MI", "street": "840 EDELWEISS VILLAGE PKWY", "postcode": "49735"}}},
{"geometry": {"type": "Point", "coordinates": [-84.6697388724, 45.0114230843]}, "type": "Feature", "properties": {"collection_times": [{"days": "Mon-Sat", "time": "5:00pm"}, {"days": "Sun", "time": "Closed"}], "id": "4973500034", "name": "USPS COLLECTION BOX - APC", "address": {"city": "GAYLORD", "state": "MI", "street": "289 W COMMERCE BLVD", "postcode": "49735"}}},
{"geometry": {"type": "Point", "coordinates": [-84.091745078, 46.058049096]}, "type": "Feature", "properties": {"collection_times": [{"days": "Mon-Fri", "time": "12:20pm"}, {"days": "Sat", "time": "11:00am"}, {"days": "Sun", "time": "Closed"}], "id": "4973600001", "name": "USPS COLLECTION BOX - BLUE BOX", "address": {"city": "GOETZVILLE", "state": "MI", "street": "18001 E M 48", "postcode": "49736"}}},
{"geometry": {"type": "Point", "coordinates": [-84.091745078, 46.058049096]}, "type": "Feature", "properties": {"collection_times": [{"days": "Mon-Fri", "time": "12:20pm"}, {"days": "Sat", "time": "11:00am"}, {"days": "Sun", "time": "Closed"}], "id": "4973600002", "name": "USPS COLLECTION BOX - PO LOBBY", "address": {"city": "GOETZVILLE", "state": "MI", "street": "18001 E M 48", "postcode": "49736"}}},
{"geometry": {"type": "Point", "coordinates": [-84.713638433, 44.662226056]}, "type": "Feature", "properties": {"collection_times": [{"days": "Mon-Fri", "time": "4:00pm"}, {"days": "Sat", "time": "1:30pm"}, {"days": "Sun", "time": "Closed"}], "id": "4973800002", "name": "USPS COLLECTION BOX - BLUE BOX", "address": {"city": "GRAYLING", "state": "MI", "street": "300 E MICHIGAN AVE", "postcode": "49738"}}},
{"geometry": {"type": "Point", "coordinates": [-84.7067320559, 44.6583669113]}, "type": "Feature", "properties": {"collection_times": [{"days": "Mon-Sat", "time": "11:30am"}, {"days": "Sun", "time": "Closed"}], "id": "4973800007", "name": "USPS COLLECTION BOX - BLUE BOX", "address": {"city": "GRAYLING", "state": "MI", "street": "308 LAWNDALE ST", "postcode": "49738"}}},
{"geometry": {"type": "Point", "coordinates": [-84.7083553905, 44.648292334]}, "type": "Feature", "properties": {"collection_times": [{"days": "Mon-Sat", "time": "9:30am"}, {"days": "Sun", "time": "Closed"}], "id": "4973800009", "name": "USPS COLLECTION BOX - BLUE BOX", "address": {"city": "GRAYLING", "state": "MI", "street": "2470 S I 75 BUSINESS LOOP", "postcode": "49738"}}},
{"geometry": {"type": "Point", "coordinates": [-84.713638433, 44.662226056]}, "type": "Feature", "properties": {"collection_times": [{"days": "Mon-Fri", "time": "4:00pm"}, {"days": "Sat", "time": "1:30pm"}, {"days": "Sun", "time": "Closed"}], "id": "4973800010", "name": "USPS COLLECTION BOX - PO LOBBY", "address": {"city": "GRAYLING", "state": "MI", "street": "300 E MICHIGAN AVE", "postcode": "49738"}}},
{"geometry": {"type": "Point", "coordinates": [-84.7123141207, 44.5996377857]}, "type": "Feature", "properties": {"collection_times": [{"days": "Mon-Sat", "time": "10:00am"}, {"days": "Sun", "time": "Closed"}], "id": "4973800013", "name": "USPS COLLECTION BOX - BLUE BOX", "address": {"city": "GRAYLING", "state": "MI", "street": "5801 NELSON A MILES PKWY", "postcode": "49738"}}},
{"geometry": {"type": "Point", "coordinates": [-84.7083277828, 44.6489812095]}, "type": "Feature", "properties": {"collection_times": [{"days": "Mon-Sat", "time": "9:30am"}, {"days": "Sun", "time": "Closed"}], "id": "4973800015", "name": "USPS COLLECTION BOX - BLUE BOX", "address": {"city": "GRAYLING", "state": "MI", "street": "2384 S I 75 BUSINESS LOOP", "postcode": "49738"}}},
{"geometry": {"type": "Point", "coordinates": [-84.713638433, 44.662226056]}, "type": "Feature", "properties": {"collection_times": [{"days": "Mon-Fri", "time": "4:00pm"}, {"days": "Sat", "time": "1:30pm"}, {"days": "Sun", "time": "Closed"}], "id": "4973800016", "name": "USPS COLLECTION BOX - BLUE BOX", "address": {"city": "GRAYLING", "state": "MI", "street": "300 E MICHIGAN AVE", "postcode": "49738"}}},
{"geometry": {"type": "Point", "coordinates": [-84.4814301699, 44.804403332]}, "type": "Feature", "properties": {"collection_times": [{"days": "Mon-Sat", "time": "10:30am"}, {"days": "Sun", "time": "Closed"}], "id": "4973800018", "name": "USPS COLLECTION BOX - BLUE BOX", "address": {"city": "GRAYLING", "state": "MI", "street": "6510 COUNTY ROAD 612", "postcode": "49738"}}},
{"geometry": {"type": "Point", "coordinates": [-84.9145702934, 45.4710172664]}, "type": "Feature", "properties": {"collection_times": [{"days": "Mon-Sat", "time": "11:00am"}, {"days": "Sun", "time": "Closed"}], "id": "4974000001", "name": "USPS COLLECTION BOX - BLUE BOX", "address": {"city": "HARBOR SPRINGS", "state": "MI", "street": "5667 S PLEASANTVIEW RD", "postcode": "49740"}}},
{"geometry": {"type": "Point", "coordinates": [-84.9879997571, 45.4305457655]}, "type": "Feature", "properties": {"collection_times": [{"days": "Mon-Fri", "time": "2:30pm"}, {"days": "Sat", "time": "12:00pm"}, {"days": "Sun", "time": "Closed"}], "id": "4974000002", "name": "USPS COLLECTION BOX - BLUE BOX", "address": {"city": "HARBOR SPRINGS", "state": "MI", "street": "297 S SPRING ST", "postcode": "49740"}}},
{"geometry": {"type": "Point", "coordinates": [-84.989055134, 45.430141172]}, "type": "Feature", "properties": {"collection_times": [{"days": "Mon-Fri", "time": "4:00pm"}, {"days": "Sat", "time": "12:00pm"}, {"days": "Sun", "time": "Closed"}], "id": "4974000003", "name": "USPS COLLECTION BOX - BLUE BOX", "address": {"city": "HARBOR SPRINGS", "state": "MI", "street": "250 STATE ST", "postcode": "49740"}}},
{"geometry": {"type": "Point", "coordinates": [-85.005890489, 45.5357152408]}, "type": "Feature", "properties": {"collection_times": [{"days": "Mon-Sat", "time": "11:00am"}, {"days": "Sun", "time": "Closed"}], "id": "4974000007", "name": "USPS COLLECTION BOX - BLUE BOX", "address": {"city": "HARBOR SPRINGS", "state": "MI", "street": "1057 S STATE RD", "postcode": "49740"}}},
{"geometry": {"type": "Point", "coordinates": [-84.9872942181, 45.4299939957]}, "type": "Feature", "properties": {"collection_times": [{"days": "Mon-Fri", "time": "2:30pm"}, {"days": "Sat", "time": "12:00pm"}, {"days": "Sun", "time": "Closed"}], "id": "4974000008", "name": "USPS COLLECTION BOX - BLUE BOX", "address": {"city": "HARBOR SPRINGS", "state": "MI", "street": "220 E MAIN ST", "postcode": "49740"}}},
{"geometry": {"type": "Point", "coordinates": [-84.9060665903, 45.4276053324]}, "type": "Feature", "properties": {"collection_times": [{"days": "Mon-Sat", "time": "11:15am"}, {"days": "Sun", "time": "Closed"}], "id": "4974000009", "name": "USPS COLLECTION BOX - BLUE BOX", "address": {"city": "HARBOR SPRINGS", "state": "MI", "street": "8460 M 119", "postcode": "49740"}}},
{"geometry": {"type": "Point", "coordinates": [-84.989055134, 45.430141172]}, "type": "Feature", "properties": {"collection_times": [{"days": "Mon-Fri", "time": "4:30pm"}, {"days": "Sat", "time": "12:00pm"}, {"days": "Sun", "time": "Closed"}], "id": "4974000010", "name": "USPS COLLECTION BOX - PO LOBBY", "address": {"city": "HARBOR SPRINGS", "state": "MI", "street": "250 STATE ST", "postcode": "49740"}}},
{"geometry": {"type": "Point", "coordinates": [-83.89616993, 45.287368564]}, "type": "Feature", "properties": {"collection_times": [{"days": "Mon-Fri", "time": "2:30pm"}, {"days": "Sat", "time": "12:00pm"}, {"days": "Sun", "time": "Closed"}], "id": "4974300001", "name": "USPS COLLECTION BOX - BLUE BOX", "address": {"city": "HAWKS", "state": "MI", "street": "8129 F-21 HWY", "postcode": "49743"}}},
{"geometry": {"type": "Point", "coordinates": [-83.89616993, 45.287368564]}, "type": "Feature", "properties": {"collection_times": [{"days": "Mon-Fri", "time": "2:30pm"}, {"days": "Sat", "time": "12:00pm"}, {"days": "Sun", "time": "Closed"}], "id": "4974300002", "name": "USPS COLLECTION BOX - PO LOBBY", "address": {"city": "HAWKS", "state": "MI", "street": "8129 F-21 HWY", "postcode": "49743"}}},
{"geometry": {"type": "Point", "coordinates": [-83.656950524, 45.064946191]}, "type": "Feature", "properties": {"collection_times": [{"days": "Mon-Fri", "time": "2:55pm"}, {"days": "Sat", "time": "10:30am"}, {"days": "Sun", "time": "Closed"}], "id": "4974400001", "name": "USPS COLLECTION BOX - BLUE BOX", "address": {"city": "HERRON", "state": "MI", "street": "10084 M 32 W", "postcode": "49744"}}},
{"geometry": {"type": "Point", "coordinates": [-83.656950524, 45.064946191]}, "type": "Feature", "properties": {"collection_times": [{"days": "Mon-Fri", "time": "2:55pm"}, {"days": "Sat", "time": "10:40am"}, {"days": "Sun", "time": "Closed"}], "id": "4974400002", "name": "USPS COLLECTION BOX - PO LOBBY", "address": {"city": "HERRON", "state": "MI", "street": "10084 M 32 W", "postcode": "49744"}}},
{"geometry": {"type": "Point", "coordinates": [-84.512348195, 46.057499063]}, "type": "Feature", "properties": {"collection_times": [{"days": "Mon-Fri", "time": "2:05pm"}, {"days": "Sat", "time": "9:30am"}, {"days": "Sun", "time": "Closed"}], "id": "4974500002", "name": "USPS COLLECTION BOX - BLUE BOX", "address": {"city": "HESSEL", "state": "MI", "street": "3042 LAKE ST", "postcode": "49745"}}},
{"geometry": {"type": "Point", "coordinates": [-84.512348195, 46.057499063]}, "type": "Feature", "properties": {"collection_times": [{"days": "Mon-Fri", "time": "2:05pm"}, {"days": "Sat", "time": "9:30am"}, {"days": "Sun", "time": "Closed"}], "id": "4974500003", "name": "USPS COLLECTION BOX - PO LOBBY", "address": {"city": "HESSEL", "state": "MI", "street": "3042 LAKE ST", "postcode": "49745"}}},
{"geometry": {"type": "Point", "coordinates": [-83.900798181, 45.063598961]}, "type": "Feature", "properties": {"collection_times": [{"days": "Mon-Fri", "time": "3:25pm"}, {"days": "Sat", "time": "10:00am"}, {"days": "Sun", "time": "Closed"}], "id": "4974600001", "name": "USPS COLLECTION BOX - BLUE BOX", "address": {"city": "HILLMAN", "state": "MI", "street": "111 N STATE ST", "postcode": "49746"}}},
{"geometry": {"type": "Point", "coordinates": [-83.900798181, 45.063598961]}, "type": "Feature", "properties": {"collection_times": [{"days": "Mon-Fri", "time": "3:25pm"}, {"days": "Sat", "time": "10:00am"}, {"days": "Sun", "time": "Closed"}], "id": "4974600002", "name": "USPS COLLECTION BOX - PO LOBBY", "address": {"city": "HILLMAN", "state": "MI", "street": "111 N STATE ST", "postcode": "49746"}}},
{"geometry": {"type": "Point", "coordinates": [-83.587328033, 44.875774496]}, "type": "Feature", "properties": {"collection_times": [{"days": "Mon-Fri", "time": "2:40pm"}, {"days": "Sat", "time": "11:30am"}, {"days": "Sun", "time": "Closed"}], "id": "4974700001", "name": "USPS COLLECTION BOX - BLUE BOX", "address": {"city": "HUBBARD LAKE", "state": "MI", "street": "13818 HUBBARD LAKE RD", "postcode": "49747"}}},
{"geometry": {"type": "Point", "coordinates": [-83.587328033, 44.875774496]}, "type": "Feature", "properties": {"collection_times": [{"days": "Mon-Fri", "time": "2:40pm"}, {"days": "Sat", "time": "11:30am"}, {"days": "Sun", "time": "Closed"}], "id": "4974700002", "name": "USPS COLLECTION BOX - PO LOBBY", "address": {"city": "HUBBARD LAKE", "state": "MI", "street": "13818 HUBBARD LAKE RD", "postcode": "49747"}}},
{"geometry": {"type": "Point", "coordinates": [-85.150305382, 46.352645814]}, "type": "Feature", "properties": {"collection_times": [{"days": "Mon-Fri", "time": "2:15pm"}, {"days": "Sat", "time": "10:15am"}, {"days": "Sun", "time": "Closed"}], "id": "4974800001", "name": "USPS COLLECTION BOX - BLUE BOX", "address": {"city": "HULBERT", "state": "MI", "street": "10395 S MAPLE ST", "postcode": "49748"}}},
{"geometry": {"type": "Point", "coordinates": [-85.150305382, 46.352645814]}, "type": "Feature", "properties": {"collection_times": [{"days": "Mon-Fri", "time": "2:15pm"}, {"days": "Sat", "time": "10:15am"}, {"days": "Sun", "time": "Closed"}], "id": "4974800002", "name": "USPS COLLECTION BOX - PO LOBBY", "address": {"city": "HULBERT", "state": "MI", "street": "10395 S MAPLE ST", "postcode": "49748"}}},
{"geometry": {"type": "Point", "coordinates": [-84.61345418, 45.411830206]}, "type": "Feature", "properties": {"collection_times": [{"days": "Mon-Fri", "time": "4:05pm"}, {"days": "Sat", "time": "11:45am"}, {"days": "Sun", "time": "Closed"}], "id": "4974900003", "name": "USPS COLLECTION BOX - BLUE BOX", "address": {"city": "INDIAN RIVER", "state": "MI", "street": "6095 LAKE ST", "postcode": "49749"}}},
{"geometry": {"type": "Point", "coordinates": [-84.61345418, 45.411830206]}, "type": "Feature", "properties": {"collection_times": [{"days": "Mon-Fri", "time": "4:05pm"}, {"days": "Sat", "time": "11:45am"}, {"days": "Sun", "time": "Closed"}], "id": "4974900004", "name": "USPS COLLECTION BOX - PO LOBBY", "address": {"city": "INDIAN RIVER", "state": "MI", "street": "6095 LAKE ST", "postcode": "49749"}}},
{"geometry": {"type": "Point", "coordinates": [-84.61345418, 45.411830206]}, "type": "Feature", "properties": {"collection_times": [{"days": "Mon-Fri", "time": "4:05pm"}, {"days": "Sat", "time": "11:45am"}, {"days": "Sun", "time": "Closed"}], "id": "4974900005", "name": "USPS COLLECTION BOX - BLUE BOX", "address": {"city": "INDIAN RIVER", "state": "MI", "street": "6095 LAKE ST", "postcode": "49749"}}},
{"geometry": {"type": "Point", "coordinates": [-84.458720885, 44.985752167]}, "type": "Feature", "properties": {"collection_times": [{"days": "Mon-Fri", "time": "3:00pm"}, {"days": "Sat", "time": "10:30am"}, {"days": "Sun", "time": "Closed"}], "id": "4975100001", "name": "USPS COLLECTION BOX - BLUE BOX", "address": {"city": "JOHANNESBURG", "state": "MI", "street": "10701 M 32 E", "postcode": "49751"}}},
{"geometry": {"type": "Point", "coordinates": [-84.458720885, 44.985752167]}, "type": "Feature", "properties": {"collection_times": [{"days": "Mon-Fri", "time": "3:00pm"}, {"days": "Sat", "time": "10:30am"}, {"days": "Sun", "time": "Closed"}], "id": "4975100003", "name": "USPS COLLECTION BOX - PO LOBBY", "address": {"city": "JOHANNESBURG", "state": "MI", "street": "10701 M 32 E", "postcode": "49751"}}},
{"geometry": {"type": "Point", "coordinates": [-84.514878935, 46.275006018]}, "type": "Feature", "properties": {"collection_times": [{"days": "Mon-Fri", "time": "2:10pm"}, {"days": "Sat", "time": "10:30am"}, {"days": "Sun", "time": "Closed"}], "id": "4975200001", "name": "USPS COLLECTION BOX - BLUE BOX", "address": {"city": "KINROSS", "state": "MI", "street": "16901 S HASSETT DR", "postcode": "49752"}}},
{"geometry": {"type": "Point", "coordinates": [-84.514878935, 46.275006018]}, "type": "Feature", "properties": {"collection_times": [{"days": "Mon-Fri", "time": "2:10pm"}, {"days": "Sat", "time": "10:30am"}, {"days": "Sun", "time": "Closed"}], "id": "4975200002", "name": "USPS COLLECTION BOX - PO LOBBY", "address": {"city": "KINROSS", "state": "MI", "street": "16901 S HASSETT DR", "postcode": "49752"}}},
{"geometry": {"type": "Point", "coordinates": [-83.717179142, 45.079294404]}, "type": "Feature", "properties": {"collection_times": [{"days": "Mon-Fri", "time": "12:15pm"}, {"days": "Sat", "time": "10:00am"}, {"days": "Sun", "time": "Closed"}], "id": "4975300001", "name": "USPS COLLECTION BOX - BLUE BOX", "address": {"city": "LACHINE", "state": "MI", "street": "2292 M 65 N", "postcode": "49753"}}},
{"geometry": {"type": "Point", "coordinates": [-83.717179142, 45.079294404]}, "type": "Feature", "properties": {"collection_times": [{"days": "Mon-Fri", "time": "12:15pm"}, {"days": "Sat", "time": "10:30am"}, {"days": "Sun", "time": "Closed"}], "id": "4975300003", "name": "USPS COLLECTION BOX - PO LOBBY", "address": {"city": "LACHINE", "state": "MI", "street": "2292 M 65 N", "postcode": "49753"}}},
{"geometry": {"type": "Point", "coordinates": [-84.789281731, 45.635720922]}, "type": "Feature", "properties": {"collection_times": [{"days": "Mon-Fri", "time": "2:40pm"}, {"days": "Sat", "time": "10:30am"}, {"days": "Sun", "time": "Closed"}], "id": "4975500001", "name": "USPS COLLECTION BOX - BLUE BOX", "address": {"city": "LEVERING", "state": "MI", "street": "5912 ROBINSON ST", "postcode": "49755"}}},
{"geometry": {"type": "Point", "coordinates": [-84.789281731, 45.635720922]}, "type": "Feature", "properties": {"collection_times": [{"days": "Mon-Fri", "time": "2:40pm"}, {"days": "Sat", "time": "10:30am"}, {"days": "Sun", "time": "Closed"}], "id": "4975500002", "name": "USPS COLLECTION BOX - PO LOBBY", "address": {"city": "LEVERING", "state": "MI", "street": "5912 ROBINSON ST", "postcode": "49755"}}},
{"geometry": {"type": "Point", "coordinates": [-84.309428353, 44.883944299]}, "type": "Feature", "properties": {"collection_times": [{"days": "Mon-Fri", "time": "3:30pm"}, {"days": "Sat", "time": "11:30am"}, {"days": "Sun", "time": "Closed"}], "id": "4975600002", "name": "USPS COLLECTION BOX - BLUE BOX", "address": {"city": "LEWISTON", "state": "MI", "street": "4165 SALLING AVE", "postcode": "49756"}}},
{"geometry": {"type": "Point", "coordinates": [-84.2928478532, 44.8815370644]}, "type": "Feature", "properties": {"collection_times": [{"days": "Mon-Fri", "time": "11:30am"}, {"days": "Sat", "time": "11:00am"}, {"days": "Sun", "time": "Closed"}], "id": "4975600004", "name": "USPS COLLECTION BOX - BLUE BOX", "address": {"city": "LEWISTON", "state": "MI", "street": "2855 S COUNTY ROAD 489", "postcode": "49756"}}},
{"geometry": {"type": "Point", "coordinates": [-84.309428353, 44.883944299]}, "type": "Feature", "properties": {"collection_times": [{"days": "Mon-Fri", "time": "3:30pm"}, {"days": "Sat", "time": "11:30am"}, {"days": "Sun", "time": "Closed"}], "id": "4975600005", "name": "USPS COLLECTION BOX - PO LOBBY", "address": {"city": "LEWISTON", "state": "MI", "street": "4165 SALLING AVE", "postcode": "49756"}}},
{"geometry": {"type": "Point", "coordinates": [-84.618975883, 45.849330747]}, "type": "Feature", "properties": {"collection_times": [{"days": "Mon-Fri", "time": "12:00pm"}, {"days": "Sat", "time": "11:00am"}, {"days": "Sun", "time": "Closed"}], "id": "4975700001", "name": "USPS COLLECTION BOX - BLUE BOX", "address": {"city": "MACKINAC ISLAND", "state": "MI", "street": "7316 MARKET ST", "postcode": "49757"}}},
{"geometry": {"type": "Point", "coordinates": [-84.618975883, 45.849330747]}, "type": "Feature", "properties": {"collection_times": [{"days": "Mon-Fri", "time": "12:00pm"}, {"days": "Sat", "time": "11:00am"}, {"days": "Sun", "time": "Closed"}], "id": "4975700002", "name": "USPS COLLECTION BOX - PO LOBBY", "address": {"city": "MACKINAC ISLAND", "state": "MI", "street": "7316 MARKET ST", "postcode": "49757"}}},
{"geometry": {"type": "Point", "coordinates": [-84.060069403, 45.337079435]}, "type": "Feature", "properties": {"collection_times": [{"days": "Mon-Fri", "time": "3:10pm"}, {"days": "Sat", "time": "10:30am"}, {"days": "Sun", "time": "Closed"}], "id": "4975900001", "name": "USPS COLLECTION BOX - BLUE BOX", "address": {"city": "MILLERSBURG", "state": "MI", "street": "5316 MAIN ST", "postcode": "49759"}}},
{"geometry": {"type": "Point", "coordinates": [-84.060069403, 45.337079435]}, "type": "Feature", "properties": {"collection_times": [{"days": "Mon-Fri", "time": "3:10pm"}, {"days": "Sat", "time": "10:30am"}, {"days": "Sun", "time": "Closed"}], "id": "4975900003", "name": "USPS COLLECTION BOX - PO LOBBY", "address": {"city": "MILLERSBURG", "state": "MI", "street": "5316 MAIN ST", "postcode": "49759"}}},
{"geometry": {"type": "Point", "coordinates": [-84.91331987, 46.072891116]}, "type": "Feature", "properties": {"collection_times": [{"days": "Mon-Fri", "time": "2:55pm"}, {"days": "Sat", "time": "10:30am"}, {"days": "Sun", "time": "Closed"}], "id": "4976000002", "name": "USPS COLLECTION BOX - BLUE BOX", "address": {"city": "MORAN", "state": "MI", "street": "N4050 M 123", "postcode": "49760"}}},
{"geometry": {"type": "Point", "coordinates": [-85.04671, 46.021725]}, "type": "Feature", "properties": {"collection_times": [{"days": "Mon-Sat", "time": "12:45pm"}, {"days": "Sun", "time": "Closed"}], "id": "4976000003", "name": "USPS COLLECTION BOX - BLUE BOX", "address": {"city": "MORAN", "state": "MI", "street": "W4467 US 2", "postcode": "49760"}}},
{"geometry": {"type": "Point", "coordinates": [-84.91331987, 46.072891116]}, "type": "Feature", "properties": {"collection_times": [{"days": "Mon-Fri", "time": "2:55pm"}, {"days": "Sat", "time": "10:30am"}, {"days": "Sun", "time": "Closed"}], "id": "4976000004", "name": "USPS COLLECTION BOX - PO LOBBY", "address": {"city": "MORAN", "state": "MI", "street": "N4050 M 123", "postcode": "49760"}}},
{"geometry": {"type": "Point", "coordinates": [-84.525548321, 45.562216231]}, "type": "Feature", "properties": {"collection_times": [{"days": "Mon-Fri", "time": "1:00pm"}, {"days": "Sat", "time": "10:00am"}, {"days": "Sun", "time": "Closed"}], "id": "4976100001", "name": "USPS COLLECTION BOX - BLUE BOX", "address": {"city": "MULLETT LAKE", "state": "MI", "street": "7221 MULLETT LAKE DR", "postcode": "49761"}}},
{"geometry": {"type": "Point", "coordinates": [-84.525548321, 45.562216231]}, "type": "Feature", "properties": {"collection_times": [{"days": "Mon-Fri", "time": "1:00pm"}, {"days": "Sat", "time": "10:00am"}, {"days": "Sun", "time": "Closed"}], "id": "4976100002", "name": "USPS COLLECTION BOX - PO LOBBY", "address": {"city": "MULLETT LAKE", "state": "MI", "street": "7221 MULLETT LAKE DR", "postcode": "49761"}}},
{"geometry": {"type": "Point", "coordinates": [-85.277784138, 46.072763058]}, "type": "Feature", "properties": {"collection_times": [{"days": "Mon-Fri", "time": "1:00pm"}, {"days": "Sat", "time": "11:00am"}, {"days": "Sun", "time": "Closed"}], "id": "4976200001", "name": "USPS COLLECTION BOX - BLUE BOX", "address": {"city": "NAUBINWAY", "state": "MI", "street": "W11631 US HIGHWAY 2", "postcode": "49762"}}},
{"geometry": {"type": "Point", "coordinates": [-85.277784138, 46.072763058]}, "type": "Feature", "properties": {"collection_times": [{"days": "Mon-Fri", "time": "1:00pm"}, {"days": "Sat", "time": "11:00am"}, {"days": "Sun", "time": "Closed"}], "id": "4976200002", "name": "USPS COLLECTION BOX - PO LOBBY", "address": {"city": "NAUBINWAY", "state": "MI", "street": "W11631 US HIGHWAY 2", "postcode": "49762"}}},
{"geometry": {"type": "Point", "coordinates": [-84.82799981, 45.423597521]}, "type": "Feature", "properties": {"collection_times": [{"days": "Mon-Fri", "time": "3:55pm"}, {"days": "Sat", "time": "10:30am"}, {"days": "Sun", "time": "Closed"}], "id": "4976400001", "name": "USPS COLLECTION BOX - BLUE BOX", "address": {"city": "ODEN", "state": "MI", "street": "8841 MAIN ST", "postcode": "49764"}}},
{"geometry": {"type": "Point", "coordinates": [-84.82799981, 45.423597521]}, "type": "Feature", "properties": {"collection_times": [{"days": "Mon-Fri", "time": "3:55pm"}, {"days": "Sat", "time": "10:30am"}, {"days": "Sun", "time": "Closed"}], "id": "4976400002", "name": "USPS COLLECTION BOX - PO LOBBY", "address": {"city": "ODEN", "state": "MI", "street": "8841 MAIN ST", "postcode": "49764"}}},
{"geometry": {"type": "Point", "coordinates": [-84.2305639582, 45.356306722]}, "type": "Feature", "properties": {"collection_times": [{"days": "Mon-Sat", "time": "11:00am"}, {"days": "Sun", "time": "Closed"}], "id": "4976500002", "name": "USPS COLLECTION BOX - BLUE BOX", "address": {"city": "ONAWAY", "state": "MI", "street": "20855 WASHINGTON AVE", "postcode": "49765"}}},
{"geometry": {"type": "Point", "coordinates": [-84.227451012, 45.357631534]}, "type": "Feature", "properties": {"collection_times": [{"days": "Mon-Fri", "time": "3:30pm"}, {"days": "Sat", "time": "11:00am"}, {"days": "Sun", "time": "Closed"}], "id": "4976500003", "name": "USPS COLLECTION BOX - BLUE BOX", "address": {"city": "ONAWAY", "state": "MI", "street": "20675 STATE ST", "postcode": "49765"}}},
{"geometry": {"type": "Point", "coordinates": [-84.227451012, 45.357631534]}, "type": "Feature", "properties": {"collection_times": [{"days": "Mon-Fri", "time": "3:30pm"}, {"days": "Sat", "time": "11:00am"}, {"days": "Sun", "time": "Closed"}], "id": "4976500004", "name": "USPS COLLECTION BOX - PO LOBBY", "address": {"city": "ONAWAY", "state": "MI", "street": "20675 STATE ST", "postcode": "49765"}}},
{"geometry": {"type": "Point", "coordinates": [-83.442967181, 44.902869687]}, "type": "Feature", "properties": {"collection_times": [{"days": "Mon-Fri", "time": "2:40pm"}, {"days": "Sat", "time": "11:00am"}, {"days": "Sun", "time": "Closed"}], "id": "4976600001", "name": "USPS COLLECTION BOX - BLUE BOX", "address": {"city": "OSSINEKE", "state": "MI", "street": "11926 US HIGHWAY 23 S", "postcode": "49766"}}},
{"geometry": {"type": "Point", "coordinates": [-83.442967181, 44.902869687]}, "type": "Feature", "properties": {"collection_times": [{"days": "Mon-Fri", "time": "2:40pm"}, {"days": "Sat", "time": "11:00am"}, {"days": "Sun", "time": "Closed"}], "id": "4976600002", "name": "USPS COLLECTION BOX - PO LOBBY", "address": {"city": "OSSINEKE", "state": "MI", "street": "11926 US HIGHWAY 23 S", "postcode": "49766"}}},
{"geometry": {"type": "Point", "coordinates": [-85.037524254, 46.62569612]}, "type": "Feature", "properties": {"collection_times": [{"days": "Mon-Fri", "time": "1:25pm"}, {"days": "Sat", "time": "10:00am"}, {"days": "Sun", "time": "Closed"}], "id": "4976800001", "name": "USPS COLLECTION BOX - BLUE BOX", "address": {"city": "PARADISE", "state": "MI", "street": "8196 N M 123", "postcode": "49768"}}},
{"geometry": {"type": "Point", "coordinates": [-85.037524254, 46.62569612]}, "type": "Feature", "properties": {"collection_times": [{"days": "Mon-Fri", "time": "1:25pm"}, {"days": "Sat", "time": "10:00am"}, {"days": "Sun", "time": "Closed"}], "id": "4976800002", "name": "USPS COLLECTION BOX - PO LOBBY", "address": {"city": "PARADISE", "state": "MI", "street": "8196 N M 123", "postcode": "49768"}}},
{"geometry": {"type": "Point", "coordinates": [-84.7843648643, 45.5535303184]}, "type": "Feature", "properties": {"collection_times": [{"days": "Mon-Sat", "time": "11:00am"}, {"days": "Sun", "time": "Closed"}], "id": "4976900002", "name": "USPS COLLECTION BOX - BLUE BOX", "address": {"city": "PELLSTON", "state": "MI", "street": "200 N US HIGHWAY 31", "postcode": "49769"}}},
{"geometry": {"type": "Point", "coordinates": [-84.784538109, 45.549597098]}, "type": "Feature", "properties": {"collection_times": [{"days": "Mon-Fri", "time": "3:00pm"}, {"days": "Sat", "time": "11:00am"}, {"days": "Sun", "time": "Closed"}], "id": "4976900003", "name": "USPS COLLECTION BOX - BLUE BOX", "address": {"city": "PELLSTON", "state": "MI", "street": "146 STIMPSON DR", "postcode": "49769"}}},
{"geometry": {"type": "Point", "coordinates": [-84.784538109, 45.549597098]}, "type": "Feature", "properties": {"collection_times": [{"days": "Mon-Fri", "time": "3:00pm"}, {"days": "Sat", "time": "11:00am"}, {"days": "Sun", "time": "Closed"}], "id": "4976900004", "name": "USPS COLLECTION BOX - PO LOBBY", "address": {"city": "PELLSTON", "state": "MI", "street": "146 STIMPSON DR", "postcode": "49769"}}},
{"geometry": {"type": "Point", "coordinates": [-84.9523193371, 45.3758248853]}, "type": "Feature", "properties": {"collection_times": [{"days": "Mon-Sat", "time": "2:30pm"}, {"days": "Sun", "time": "Closed"}], "id": "4977000001", "name": "USPS COLLECTION BOX - BLUE BOX", "address": {"city": "PETOSKEY", "state": "MI", "street": "200 DIVISION ST", "postcode": "49770"}}},
{"geometry": {"type": "Point", "coordinates": [-84.9429172863, 45.3818158308]}, "type": "Feature", "properties": {"collection_times": [{"days": "Mon-Sat", "time": "1:00pm"}, {"days": "Sun", "time": "Closed"}], "id": "4977000007", "name": "USPS COLLECTION BOX - BLUE BOX", "address": {"city": "PETOSKEY", "state": "MI", "street": "1163 N US HIGHWAY 31", "postcode": "49770"}}},
{"geometry": {"type": "Point", "coordinates": [-84.9697583626, 45.3722584278]}, "type": "Feature", "properties": {"collection_times": [{"days": "Mon-Fri", "time": "2:30pm"}, {"days": "Sat", "time": "2:00pm"}, {"days": "Sun", "time": "Closed"}], "id": "4977000008", "name": "USPS COLLECTION BOX - BLUE BOX", "address": {"city": "PETOSKEY", "state": "MI", "street": "560 W MITCHELL ST", "postcode": "49770"}}},
{"geometry": {"type": "Point", "coordinates": [-84.956180534, 45.371862213]}, "type": "Feature", "properties": {"collection_times": [{"days": "Mon-Fri", "time": "4:55pm"}, {"days": "Sat", "time": "3:00pm"}, {"days": "Sun", "time": "Closed"}], "id": "4977000009", "name": "USPS COLLECTION BOX - BLUE BOX", "address": {"city": "PETOSKEY", "state": "MI", "street": "318 STATE ST", "postcode": "49770"}}},
{"geometry": {"type": "Point", "coordinates": [-84.9556818315, 45.3749477379]}, "type": "Feature", "properties": {"collection_times": [{"days": "Mon-Fri", "time": "2:30pm"}, {"days": "Sat", "time": "1:45pm"}, {"days": "Sun", "time": "Closed"}], "id": "4977000012", "name": "USPS COLLECTION BOX - BLUE BOX", "address": {"city": "PETOSKEY", "state": "MI", "street": "300 HOWARD ST", "postcode": "49770"}}},
{"geometry": {"type": "Point", "coordinates": [-84.9691956927, 45.3732620615]}, "type": "Feature", "properties": {"collection_times": [{"days": "Mon-Fri", "time": "2:30pm"}, {"days": "Sat", "time": "2:00pm"}, {"days": "Sun", "time": "Closed"}], "id": "4977000014", "name": "USPS COLLECTION BOX - BLUE BOX", "address": {"city": "PETOSKEY", "state": "MI", "street": "416 CONNABLE AVE", "postcode": "49770"}}},
{"geometry": {"type": "Point", "coordinates": [-84.9554982521, 45.3739504201]}, "type": "Feature", "properties": {"collection_times": [{"days": "Mon-Fri", "time": "2:30pm"}, {"days": "Sat", "time": "1:45pm"}, {"days": "Sun", "time": "Closed"}], "id": "4977000015", "name": "USPS COLLECTION BOX - BLUE BOX", "address": {"city": "PETOSKEY", "state": "MI", "street": "405 HOWARD ST", "postcode": "49770"}}},
{"geometry": {"type": "Point", "coordinates": [-84.9536684111, 45.3768129623]}, "type": "Feature", "properties": {"collection_times": [{"days": "Mon-Sat", "time": "2:30pm"}, {"days": "Sun", "time": "Closed"}], "id": "4977000016", "name": "USPS COLLECTION BOX - BLUE BOX", "address": {"city": "PETOSKEY", "state": "MI", "street": "101 LEWIS ST", "postcode": "49770"}}},
{"geometry": {"type": "Point", "coordinates": [-84.9020074222, 45.4043862998]}, "type": "Feature", "properties": {"collection_times": [{"days": "Mon-Sat", "time": "9:30am"}, {"days": "Sun", "time": "Closed"}], "id": "4977000019", "name": "USPS COLLECTION BOX - BLUE BOX", "address": {"city": "PETOSKEY", "state": "MI", "street": "2292 M 119", "postcode": "49770"}}},
{"geometry": {"type": "Point", "coordinates": [-84.956180534, 45.371862213]}, "type": "Feature", "properties": {"collection_times": [{"days": "Mon-Fri", "time": "4:55pm"}, {"days": "Sat", "time": "3:00pm"}, {"days": "Sun", "time": "Closed"}], "id": "4977000020", "name": "USPS COLLECTION BOX - PO LOBBY", "address": {"city": "PETOSKEY", "state": "MI", "street": "318 STATE ST", "postcode": "49770"}}},
{"geometry": {"type": "Point", "coordinates": [-84.9523193371, 45.3758248853]}, "type": "Feature", "properties": {"collection_times": [{"days": "Mon-Sat", "time": "2:30pm"}, {"days": "Sun", "time": "Closed"}], "id": "4977000026", "name": "USPS COLLECTION BOX - BLUE BOX", "address": {"city": "PETOSKEY", "state": "MI", "street": "200 DIVISION ST", "postcode": "49770"}}},
{"geometry": {"type": "Point", "coordinates": [-84.956180534, 45.371862213]}, "type": "Feature", "properties": {"collection_times": [{"days": "Mon-Fri", "time": "4:55pm"}, {"days": "Sat", "time": "3:00pm"}, {"days": "Sun", "time": "Closed"}], "id": "4977000033", "name": "USPS COLLECTION BOX - APC", "address": {"city": "PETOSKEY", "state": "MI", "street": "318 STATE ST", "postcode": "49770"}}},
{"geometry": {"type": "Point", "coordinates": [-84.9218240621, 45.3750157638]}, "type": "Feature", "properties": {"collection_times": [{"days": "Mon-Sat", "time": "1:00pm"}, {"days": "Sun", "time": "Closed"}], "id": "4977000034", "name": "USPS COLLECTION BOX - BLUE BOX", "address": {"city": "PETOSKEY", "state": "MI", "street": "2233 MITCHELL PARK DR", "postcode": "49770"}}},
{"geometry": {"type": "Point", "coordinates": [-84.9437768259, 45.3630994248]}, "type": "Feature", "properties": {"collection_times": [{"days": "Mon-Sat", "time": "12:00pm"}, {"days": "Sun", "time": "Closed"}], "id": "4977000036", "name": "USPS COLLECTION BOX - BLUE BOX", "address": {"city": "PETOSKEY", "state": "MI", "street": "1850 ANDERSON RD", "postcode": "49770"}}},
{"geometry": {"type": "Point", "coordinates": [-84.361292596, 46.157962247]}, "type": "Feature", "properties": {"collection_times": [{"days": "Mon-Fri", "time": "1:30pm"}, {"days": "Sat", "time": "11:30am"}, {"days": "Sun", "time": "Closed"}], "id": "4977400002", "name": "USPS COLLECTION BOX - PO LOBBY", "address": {"city": "PICKFORD", "state": "MI", "street": "160 E MAIN ST", "postcode": "49774"}}},
{"geometry": {"type": "Point", "coordinates": [-84.361292596, 46.157962247]}, "type": "Feature", "properties": {"collection_times": [{"days": "Mon-Fri", "time": "1:30pm"}, {"days": "Sat", "time": "11:30am"}, {"days": "Sun", "time": "Closed"}], "id": "4977400003", "name": "USPS COLLECTION BOX - BLUE BOX", "address": {"city": "PICKFORD", "state": "MI", "street": "160 E MAIN ST", "postcode": "49774"}}},
{"geometry": {"type": "Point", "coordinates": [-83.698822141, 45.262289431]}, "type": "Feature", "properties": {"collection_times": [{"days": "Mon-Fri", "time": "2:20pm"}, {"days": "Sat", "time": "10:30am"}, {"days": "Sun", "time": "Closed"}], "id": "4977600001", "name": "USPS COLLECTION BOX - BLUE BOX", "address": {"city": "POSEN", "state": "MI", "street": "10993 MICHIGAN AVE", "postcode": "49776"}}},
{"geometry": {"type": "Point", "coordinates": [-83.698822141, 45.262289431]}, "type": "Feature", "properties": {"collection_times": [{"days": "Mon-Fri", "time": "2:20pm"}, {"days": "Sat", "time": "10:30am"}, {"days": "Sun", "time": "Closed"}], "id": "4977600002", "name": "USPS COLLECTION BOX - PO LOBBY", "address": {"city": "POSEN", "state": "MI", "street": "10993 MICHIGAN AVE", "postcode": "49776"}}},
{"geometry": {"type": "Point", "coordinates": [-83.477404276, 45.302559377]}, "type": "Feature", "properties": {"collection_times": [{"days": "Mon-Fri", "time": "1:30pm"}, {"days": "Sat", "time": "10:00am"}, {"days": "Sun", "time": "Closed"}], "id": "4977700002", "name": "USPS COLLECTION BOX - BLUE BOX", "address": {"city": "PRESQUE ISLE", "state": "MI", "street": "8133 E GRAND LAKE RD", "postcode": "49777"}}},
{"geometry": {"type": "Point", "coordinates": [-83.477404276, 45.302559377]}, "type": "Feature", "properties": {"collection_times": [{"days": "Mon-Fri", "time": "1:30pm"}, {"days": "Sat", "time": "10:00am"}, {"days": "Sun", "time": "Closed"}], "id": "4977700003", "name": "USPS COLLECTION BOX - PO LOBBY", "address": {"city": "PRESQUE ISLE", "state": "MI", "street": "8133 E GRAND LAKE RD", "postcode": "49777"}}},
{"geometry": {"type": "Point", "coordinates": [-83.8269841208, 45.4130006628]}, "type": "Feature", "properties": {"collection_times": [{"days": "Mon-Sat", "time": "11:00am"}, {"days": "Sun", "time": "Closed"}], "id": "4977900008", "name": "USPS COLLECTION BOX - BLUE BOX", "address": {"city": "ROGERS CITY", "state": "MI", "street": "100 S BRADLEY HWY", "postcode": "49779"}}},
{"geometry": {"type": "Point", "coordinates": [-83.816559992, 45.420292619]}, "type": "Feature", "properties": {"collection_times": [{"days": "Mon-Fri", "time": "2:50pm"}, {"days": "Sat", "time": "2:00pm"}, {"days": "Sun", "time": "Closed"}], "id": "4977900009", "name": "USPS COLLECTION BOX - BLUE BOX", "address": {"city": "ROGERS CITY", "state": "MI", "street": "188 N 3RD ST", "postcode": "49779"}}},
{"geometry": {"type": "Point", "coordinates": [-83.816559992, 45.420292619]}, "type": "Feature", "properties": {"collection_times": [{"days": "Mon-Fri", "time": "2:50pm"}, {"days": "Sat", "time": "2:00pm"}, {"days": "Sun", "time": "Closed"}], "id": "4977900010", "name": "USPS COLLECTION BOX - PO LOBBY", "address": {"city": "ROGERS CITY", "state": "MI", "street": "188 N 3RD ST", "postcode": "49779"}}},
{"geometry": {"type": "Point", "coordinates": [-83.816559992, 45.420292619]}, "type": "Feature", "properties": {"collection_times": [{"days": "Mon-Fri", "time": "2:50pm"}, {"days": "Sat", "time": "2:00pm"}, {"days": "Sun", "time": "Closed"}], "id": "4977900011", "name": "USPS COLLECTION BOX - BLUE BOX", "address": {"city": "ROGERS CITY", "state": "MI", "street": "188 N 3RD ST", "postcode": "49779"}}},
{"geometry": {"type": "Point", "coordinates": [-84.592544432, 46.230200798]}, "type": "Feature", "properties": {"collection_times": [{"days": "Mon-Fri", "time": "2:35pm"}, {"days": "Sat", "time": "10:00am"}, {"days": "Sun", "time": "Closed"}], "id": "4978000001", "name": "USPS COLLECTION BOX - BLUE BOX", "address": {"city": "RUDYARD", "state": "MI", "street": "19018 S MACKINAC TRL", "postcode": "49780"}}},
{"geometry": {"type": "Point", "coordinates": [-84.592544432, 46.230200798]}, "type": "Feature", "properties": {"collection_times": [{"days": "Mon-Fri", "time": "2:35pm"}, {"days": "Sat", "time": "10:00am"}, {"days": "Sun", "time": "Closed"}], "id": "4978000002", "name": "USPS COLLECTION BOX - PO LOBBY", "address": {"city": "RUDYARD", "state": "MI", "street": "19018 S MACKINAC TRL", "postcode": "49780"}}},
{"geometry": {"type": "Point", "coordinates": [-84.71812019, 45.863852636]}, "type": "Feature", "properties": {"collection_times": [{"days": "Mon-Fri", "time": "3:20pm"}, {"days": "Sat", "time": "2:30pm"}, {"days": "Sun", "time": "Closed"}], "id": "4978100005", "name": "USPS COLLECTION BOX - BLUE BOX", "address": {"city": "SAINT IGNACE", "state": "MI", "street": "310 S STATE ST", "postcode": "49781"}}},
{"geometry": {"type": "Point", "coordinates": [-84.71812019, 45.863852636]}, "type": "Feature", "properties": {"collection_times": [{"days": "Mon-Fri", "time": "3:20pm"}, {"days": "Sat", "time": "2:30pm"}, {"days": "Sun", "time": "Closed"}], "id": "4978100006", "name": "USPS COLLECTION BOX - PO LOBBY", "address": {"city": "SAINT IGNACE", "state": "MI", "street": "310 S STATE ST", "postcode": "49781"}}},
{"geometry": {"type": "Point", "coordinates": [-84.71812019, 45.863852636]}, "type": "Feature", "properties": {"collection_times": [{"days": "Mon-Fri", "time": "3:20pm"}, {"days": "Sat", "time": "2:30pm"}, {"days": "Sun", "time": "Closed"}], "id": "4978100007", "name": "USPS COLLECTION BOX - BLUE BOX", "address": {"city": "SAINT IGNACE", "state": "MI", "street": "310 S STATE ST", "postcode": "49781"}}},
{"geometry": {"type": "Point", "coordinates": [-85.518048126, 45.748283875]}, "type": "Feature", "properties": {"collection_times": [{"days": "Mon-Sat", "time": "7:45am"}, {"days": "Sun", "time": "Closed"}], "id": "4978200001", "name": "USPS COLLECTION BOX - BLUE BOX", "address": {"city": "BEAVER ISLAND", "state": "MI", "street": "26135 MAIN ST", "postcode": "49782"}}},
{"geometry": {"type": "Point", "coordinates": [-85.518048126, 45.748283875]}, "type": "Feature", "properties": {"collection_times": [{"days": "Mon-Sat", "time": "7:45am"}, {"days": "Sun", "time": "Closed"}], "id": "4978200002", "name": "USPS COLLECTION BOX - BLUE BOX", "address": {"city": "BEAVER ISLAND", "state": "MI", "street": "26135 MAIN ST", "postcode": "49782"}}},
{"geometry": {"type": "Point", "coordinates": [-85.518048126, 45.748283875]}, "type": "Feature", "properties": {"collection_times": [{"days": "Mon-Sat", "time": "8:00am"}, {"days": "Sun", "time": "Closed"}], "id": "4978200003", "name": "USPS COLLECTION BOX - PO LOBBY", "address": {"city": "BEAVER ISLAND", "state": "MI", "street": "26135 MAIN ST", "postcode": "49782"}}},
{"geometry": {"type": "Point", "coordinates": [-84.3480290018, 46.4968804499]}, "type": "Feature", "properties": {"collection_times": [{"days": "Mon-Fri", "time": "2:00pm"}, {"days": "Sat", "time": "1:00pm"}, {"days": "Sun", "time": "Closed"}], "id": "4978300006", "name": "USPS COLLECTION BOX - BLUE BOX", "address": {"city": "SAULT S MARIE", "state": "MI", "street": "523 ASHMUN ST", "postcode": "49783"}}},
{"geometry": {"type": "Point", "coordinates": [-84.348326876, 46.499492895]}, "type": "Feature", "properties": {"collection_times": [{"days": "Mon-Fri", "time": "3:10pm"}, {"days": "Sat", "time": "3:00pm"}, {"days": "Sun", "time": "Closed"}], "id": "4978300011", "name": "USPS COLLECTION BOX - BLUE BOX", "address": {"city": "SAULT S MARIE", "state": "MI", "street": "161 RIDGE ST", "postcode": "49783"}}},
{"geometry": {"type": "Point", "coordinates": [-84.3461466075, 46.4959036699]}, "type": "Feature", "properties": {"collection_times": [{"days": "Mon-Fri", "time": "3:00pm"}, {"days": "Sat", "time": "1:00pm"}, {"days": "Sun", "time": "Closed"}], "id": "4978300012", "name": "USPS COLLECTION BOX - BLUE BOX", "address": {"city": "SAULT S MARIE", "state": "MI", "street": "536 BINGHAM AVE", "postcode": "49783"}}},
{"geometry": {"type": "Point", "coordinates": [-84.3546394257, 46.4765617733]}, "type": "Feature", "properties": {"collection_times": [{"days": "Mon-Sat", "time": "10:00am"}, {"days": "Sun", "time": "Closed"}], "id": "4978300016", "name": "USPS COLLECTION BOX - BLUE BOX", "address": {"city": "SAULT S MARIE", "state": "MI", "street": "2581 I 75 BUSINESS SPUR", "postcode": "49783"}}},
{"geometry": {"type": "Point", "coordinates": [-84.3218494065, 46.4774263688]}, "type": "Feature", "properties": {"collection_times": [{"days": "Mon-Sat", "time": "12:00pm"}, {"days": "Sun", "time": "Closed"}], "id": "4978300019", "name": "USPS COLLECTION BOX - BLUE BOX", "address": {"city": "SAULT S MARIE", "state": "MI", "street": "2186 SHUNK RD", "postcode": "49783"}}},
{"geometry": {"type": "Point", "coordinates": [-84.3653223565, 46.4691896926]}, "type": "Feature", "properties": {"collection_times": [{"days": "Mon-Sat", "time": "10:00am"}, {"days": "Sun", "time": "Closed"}], "id": "4978300023", "name": "USPS COLLECTION BOX - BLUE BOX", "address": {"city": "SAULT S MARIE", "state": "MI", "street": "3394 I 75 BUSINESS SPUR", "postcode": "49783"}}},
{"geometry": {"type": "Point", "coordinates": [-84.3725157664, 46.4637411301]}, "type": "Feature", "properties": {"collection_times": [{"days": "Mon-Fri", "time": "2:00pm"}, {"days": "Sat", "time": "1:00pm"}, {"days": "Sun", "time": "Closed"}], "id": "4978300024", "name": "USPS COLLECTION BOX - BLUE BOX", "address": {"city": "SAULT S MARIE", "state": "MI", "street": "4516 I 75 BUSINESS SPUR", "postcode": "49783"}}},
{"geometry": {"type": "Point", "coordinates": [-84.348326876, 46.499492895]}, "type": "Feature", "properties": {"collection_times": [{"days": "Mon-Fri", "time": "3:10pm"}, {"days": "Sat", "time": "3:00pm"}, {"days": "Sun", "time": "Closed"}], "id": "4978300035", "name": "USPS COLLECTION BOX - PO LOBBY", "address": {"city": "SAULT S MARIE", "state": "MI", "street": "161 RIDGE ST", "postcode": "49783"}}},
{"geometry": {"type": "Point", "coordinates": [-84.3457458467, 46.4980063502]}, "type": "Feature", "properties": {"collection_times": [{"days": "Mon-Fri", "time": "2:00pm"}, {"days": "Sat", "time": "1:00pm"}, {"days": "Sun", "time": "Closed"}], "id": "4978300036", "name": "USPS COLLECTION BOX - BLUE BOX", "address": {"city": "SAULT S MARIE", "state": "MI", "street": "325 COURT ST", "postcode": "49783"}}},
{"geometry": {"type": "Point", "coordinates": [-84.3582689439, 46.476735149]}, "type": "Feature", "properties": {"collection_times": [{"days": "Mon-Sat", "time": "9:00am"}, {"days": "Sun", "time": "Closed"}], "id": "4978300037", "name": "USPS COLLECTION BOX - BLUE BOX", "address": {"city": "SAULT S MARIE", "state": "MI", "street": "2700 DAVITT ST", "postcode": "49783"}}},
{"geometry": {"type": "Point", "coordinates": [-84.3431097069, 46.4993728279]}, "type": "Feature", "properties": {"collection_times": [{"days": "Mon-Fri", "time": "2:00pm"}, {"days": "Sat", "time": "12:00pm"}, {"days": "Sun", "time": "Closed"}], "id": "4978300051", "name": "USPS COLLECTION BOX - BLUE BOX", "address": {"city": "SAULT S MARIE", "state": "MI", "street": "225 E PORTAGE AVE", "postcode": "49783"}}},
{"geometry": {"type": "Point", "coordinates": [-84.463867601, 46.259429289]}, "type": "Feature", "properties": {"collection_times": [{"days": "Mon-Fri", "time": "2:00pm"}, {"days": "Sat", "time": "12:00pm"}, {"days": "Sun", "time": "Closed"}], "id": "4978800000", "name": "USPS COLLECTION BOX - BLUE BOX", "address": {"city": "SAULT S MARIE", "state": "MI", "street": "4800 W M 80", "postcode": "49788"}}},
{"geometry": {"type": "Point", "coordinates": [-84.463867601, 46.259429289]}, "type": "Feature", "properties": {"collection_times": [{"days": "Mon-Fri", "time": "2:00pm"}, {"days": "Sat", "time": "12:00pm"}, {"days": "Sun", "time": "Closed"}], "id": "4978800007", "name": "USPS COLLECTION BOX - PO LOBBY", "address": {"city": "SAULT S MARIE", "state": "MI", "street": "4800 W M 80", "postcode": "49788"}}},
{"geometry": {"type": "Point", "coordinates": [-84.588773211, 45.486048734]}, "type": "Feature", "properties": {"collection_times": [{"days": "Mon-Fri", "time": "2:50pm"}, {"days": "Sat", "time": "10:45am"}, {"days": "Sun", "time": "Closed"}], "id": "4979100002", "name": "USPS COLLECTION BOX - BLUE BOX", "address": {"city": "TOPINABEE", "state": "MI", "street": "1593 N STRAITS HWY", "postcode": "49791"}}},
{"geometry": {"type": "Point", "coordinates": [-84.588773211, 45.486048734]}, "type": "Feature", "properties": {"collection_times": [{"days": "Mon-Fri", "time": "2:50pm"}, {"days": "Sat", "time": "10:45am"}, {"days": "Sun", "time": "Closed"}], "id": "4979100003", "name": "USPS COLLECTION BOX - PO LOBBY", "address": {"city": "TOPINABEE", "state": "MI", "street": "1593 N STRAITS HWY", "postcode": "49791"}}},
{"geometry": {"type": "Point", "coordinates": [-84.2999531152, 45.3552568479]}, "type": "Feature", "properties": {"collection_times": [{"days": "Mon-Fri", "time": "10:00am"}, {"days": "Sat", "time": "9:30am"}, {"days": "Sun", "time": "Closed"}], "id": "4979200001", "name": "USPS COLLECTION BOX - BLUE BOX", "address": {"city": "TOWER", "state": "MI", "street": "9720 M 33", "postcode": "49792"}}},
{"geometry": {"type": "Point", "coordinates": [-85.026835951, 46.194219006]}, "type": "Feature", "properties": {"collection_times": [{"days": "Mon-Fri", "time": "2:20pm"}, {"days": "Sat", "time": "11:00am"}, {"days": "Sun", "time": "Closed"}], "id": "4979300001", "name": "USPS COLLECTION BOX - BLUE BOX", "address": {"city": "TROUT LAKE", "state": "MI", "street": "100 MAPLE ST", "postcode": "49793"}}},
{"geometry": {"type": "Point", "coordinates": [-85.026835951, 46.194219006]}, "type": "Feature", "properties": {"collection_times": [{"days": "Mon-Fri", "time": "2:20pm"}, {"days": "Sat", "time": "11:00am"}, {"days": "Sun", "time": "Closed"}], "id": "4979300002", "name": "USPS COLLECTION BOX - PO LOBBY", "address": {"city": "TROUT LAKE", "state": "MI", "street": "100 MAPLE ST", "postcode": "49793"}}},
{"geometry": {"type": "Point", "coordinates": [-84.66270127, 45.142561589]}, "type": "Feature", "properties": {"collection_times": [{"days": "Mon-Fri", "time": "2:50pm"}, {"days": "Sat", "time": "10:00am"}, {"days": "Sun", "time": "Closed"}], "id": "4979500001", "name": "USPS COLLECTION BOX - BLUE BOX", "address": {"city": "VANDERBILT", "state": "MI", "street": "534 E MAIN ST", "postcode": "49795"}}},
{"geometry": {"type": "Point", "coordinates": [-84.66270127, 45.142561589]}, "type": "Feature", "properties": {"collection_times": [{"days": "Mon-Fri", "time": "2:50pm"}, {"days": "Sat", "time": "10:00am"}, {"days": "Sun", "time": "Closed"}], "id": "4979500002", "name": "USPS COLLECTION BOX - PO LOBBY", "address": {"city": "VANDERBILT", "state": "MI", "street": "534 E MAIN ST", "postcode": "49795"}}},
{"geometry": {"type": "Point", "coordinates": [-84.929408676, 45.266893625]}, "type": "Feature", "properties": {"collection_times": [{"days": "Mon-Fri", "time": "3:50pm"}, {"days": "Sat", "time": "11:00am"}, {"days": "Sun", "time": "Closed"}], "id": "4979600001", "name": "USPS COLLECTION BOX - BLUE BOX", "address": {"city": "WALLOON LAKE", "state": "MI", "street": "4149 STATE ST", "postcode": "49796"}}},
{"geometry": {"type": "Point", "coordinates": [-84.929408676, 45.266893625]}, "type": "Feature", "properties": {"collection_times": [{"days": "Mon-Fri", "time": "3:50pm"}, {"days": "Sat", "time": "11:00am"}, {"days": "Sun", "time": "Closed"}], "id": "4979600002", "name": "USPS COLLECTION BOX - PO LOBBY", "address": {"city": "WALLOON LAKE", "state": "MI", "street": "4149 STATE ST", "postcode": "49796"}}},
{"geometry": {"type": "Point", "coordinates": [-84.700269683, 44.875509837]}, "type": "Feature", "properties": {"collection_times": [{"days": "Mon-Fri", "time": "3:10pm"}, {"days": "Sat", "time": "10:00am"}, {"days": "Sun", "time": "Closed"}], "id": "4979700001", "name": "USPS COLLECTION BOX - BLUE BOX", "address": {"city": "WATERS", "state": "MI", "street": "10568 OTSEGOLAND RD", "postcode": "49797"}}},
{"geometry": {"type": "Point", "coordinates": [-84.700269683, 44.875509837]}, "type": "Feature", "properties": {"collection_times": [{"days": "Mon-Fri", "time": "3:10pm"}, {"days": "Sat", "time": "10:00am"}, {"days": "Sun", "time": "Closed"}], "id": "4979700002", "name": "USPS COLLECTION BOX - PO LOBBY", "address": {"city": "WATERS", "state": "MI", "street": "10568 OTSEGOLAND RD", "postcode": "49797"}}},
{"geometry": {"type": "Point", "coordinates": [-84.60370905, 45.273709696]}, "type": "Feature", "properties": {"collection_times": [{"days": "Mon-Fri", "time": "2:40pm"}, {"days": "Sat", "time": "10:45am"}, {"days": "Sun", "time": "Closed"}], "id": "4979900001", "name": "USPS COLLECTION BOX - BLUE BOX", "address": {"city": "WOLVERINE", "state": "MI", "street": "12966 S STRAITS HWY", "postcode": "49799"}}},
{"geometry": {"type": "Point", "coordinates": [-84.60370905, 45.273709696]}, "type": "Feature", "properties": {"collection_times": [{"days": "Mon-Fri", "time": "2:40pm"}, {"days": "Sat", "time": "10:45am"}, {"days": "Sun", "time": "Closed"}], "id": "4979900002", "name": "USPS COLLECTION BOX - PO LOBBY", "address": {"city": "WOLVERINE", "state": "MI", "street": "12966 S STRAITS HWY", "postcode": "49799"}}}
]}
