{"type": "FeatureCollection", "features": [
{"geometry": {"type": "Point", "coordinates": [-88.0535537061, 45.8093463454]}, "type": "Feature", "properties": {"collection_times": [{"days": "Mon-Sat", "time": "9:30am"}, {"days": "Sun", "time": "Closed"}], "id": "4980100007", "name": "USPS COLLECTION BOX - BLUE BOX", "address": {"city": "IRON MOUNTAIN", "state": "MI", "street": "1600 S STEPHENSON AVE", "postcode": "49801"}}},
{"geometry": {"type": "Point", "coordinates": [-88.0575906421, 45.8344034542]}, "type": "Feature", "properties": {"collection_times": [{"days": "Mon-Sat", "time": "11:00am"}, {"days": "Sun", "time": "Closed"}], "id": "4980100009", "name": "USPS COLLECTION BOX - BLUE BOX", "address": {"city": "IRON MOUNTAIN", "state": "MI", "street": "1208 VULCAN ST", "postcode": "49801"}}},
{"geometry": {"type": "Point", "coordinates": [-88.0646044966, 45.8221853897]}, "type": "Feature", "properties": {"collection_times": [{"days": "Mon-Sat", "time": "10:00am"}, {"days": "Sun", "time": "Closed"}], "id": "4980100013", "name": "USPS COLLECTION BOX - BLUE BOX", "address": {"city": "IRON MOUNTAIN", "state": "MI", "street": "105 N STEPHENSON AVE", "postcode": "49801"}}},
{"geometry": {"type": "Point", "coordinates": [-88.0709812277, 45.8186088867]}, "type": "Feature", "properties": {"collection_times": [{"days": "Mon-Sat", "time": "7:00am"}, {"days": "Sun", "time": "Closed"}], "id": "4980100015", "name": "USPS COLLECTION BOX - BLUE BOX", "address": {"city": "IRON MOUNTAIN", "state": "MI", "street": "400 W A ST", "postcode": "49801"}}},
{"geometry": {"type": "Point", "coordinates": [-88.0608714148, 45.8125528888]}, "type": "Feature", "properties": {"collection_times": [{"days": "Mon-Sat", "time": "12:30pm"}, {"days": "Sun", "time": "Closed"}], "id": "4980100034", "name": "USPS COLLECTION BOX - BLUE BOX", "address": {"city": "IRON MOUNTAIN", "state": "MI", "street": "1100 S STEPHENSON AVE", "postcode": "49801"}}},
{"geometry": {"type": "Point", "coordinates": [-88.0657338046, 45.8184325371]}, "type": "Feature", "properties": {"collection_times": [{"days": "Mon-Sat", "time": "12:00pm"}, {"days": "Sun", "time": "Closed"}], "id": "4980100036", "name": "USPS COLLECTION BOX - BLUE BOX", "address": {"city": "IRON MOUNTAIN", "state": "MI", "street": "500 S STEPHENSON AVE", "postcode": "49801"}}},
{"geometry": {"type": "Point", "coordinates": [-88.066806978, 45.8184318295]}, "type": "Feature", "properties": {"collection_times": [{"days": "Mon-Sat", "time": "12:00pm"}, {"days": "Sun", "time": "Closed"}], "id": "4980100037", "name": "USPS COLLECTION BOX - BLUE BOX", "address": {"city": "IRON MOUNTAIN", "state": "MI", "street": "105 E A ST", "postcode": "49801"}}},
{"geometry": {"type": "Point", "coordinates": [-88.0654810482, 45.8199922673]}, "type": "Feature", "properties": {"collection_times": [{"days": "Mon-Sat", "time": "12:00pm"}, {"days": "Sun", "time": "Closed"}], "id": "4980100038", "name": "USPS COLLECTION BOX - BLUE BOX", "address": {"city": "IRON MOUNTAIN", "state": "MI", "street": "333 S STEPHENSON AVE", "postcode": "49801"}}},
{"geometry": {"type": "Point", "coordinates": [-88.0668636937, 45.8202917362]}, "type": "Feature", "properties": {"collection_times": [{"days": "Mon-Fri", "time": "5:00pm"}, {"days": "Sat", "time": "12:00pm"}, {"days": "Sun", "time": "Closed"}], "id": "4980100043", "name": "USPS COLLECTION BOX - BLUE BOX", "address": {"city": "IRON MOUNTAIN", "state": "MI", "street": "101 W LUDINGTON ST", "postcode": "49801"}}},
{"geometry": {"type": "Point", "coordinates": [-88.0522965398, 45.8193325262]}, "type": "Feature", "properties": {"collection_times": [{"days": "Mon-Sat", "time": "8:00am"}, {"days": "Sun", "time": "Closed"}], "id": "4980100044", "name": "USPS COLLECTION BOX - BLUE BOX", "address": {"city": "IRON MOUNTAIN", "state": "MI", "street": "610 N PARK AVE", "postcode": "49801"}}},
{"geometry": {"type": "Point", "coordinates": [-88.0668636937, 45.8202917362]}, "type": "Feature", "properties": {"collection_times": [{"days": "Mon-Fri", "time": "5:00pm"}, {"days": "Sat", "time": "12:00pm"}, {"days": "Sun", "time": "Closed"}], "id": "4980100045", "name": "USPS COLLECTION BOX - BLUE BOX", "address": {"city": "IRON MOUNTAIN", "state": "MI", "street": "101 W LUDINGTON ST", "postcode": "49801"}}},
{"geometry": {"type": "Point", "coordinates": [-88.0517795281, 45.809145548]}, "type": "Feature", "properties": {"collection_times": [{"days": "Mon-Sat", "time": "8:30am"}, {"days": "Sun", "time": "Closed"}], "id": "4980100047", "name": "USPS COLLECTION BOX - BLUE BOX", "address": {"city": "IRON MOUNTAIN", "state": "MI", "street": "1721 S STEPHENSON AVE", "postcode": "49801"}}},
{"geometry": {"type": "Point", "coordinates": [-88.0668636937, 45.8202917362]}, "type": "Feature", "properties": {"collection_times": [{"days": "Mon-Fri", "time": "5:00pm"}, {"days": "Sat", "time": "12:00pm"}, {"days": "Sun", "time": "Closed"}], "id": "4980100048", "name": "USPS COLLECTION BOX - PO LOBBY", "address": {"city": "IRON MOUNTAIN", "state": "MI", "street": "101 W LUDINGTON ST", "postcode": "49801"}}},
{"geometry": {"type": "Point", "coordinates": [-88.0668636937, 45.8202917362]}, "type": "Feature", "properties": {"collection_times": [{"days": "Mon-Fri", "time": "5:00pm"}, {"days": "Sat", "time": "12:00pm"}, {"days": "Sun", "time": "Closed"}], "id": "4980100051", "name": "USPS COLLECTION BOX - BLUE BOX", "address": {"city": "IRON MOUNTAIN", "state": "MI", "street": "101 W LUDINGTON ST", "postcode": "49801"}}},
{"geometry": {"type": "Point", "coordinates": [-88.0668636937, 45.8202917362]}, "type": "Feature", "properties": {"collection_times": [{"days": "Mon-Fri", "time": "5:00pm"}, {"days": "Sat", "time": "12:00pm"}, {"days": "Sun", "time": "Closed"}], "id": "4980100052", "name": "USPS COLLECTION BOX - BLUE BOX", "address": {"city": "IRON MOUNTAIN", "state": "MI", "street": "101 W LUDINGTON ST", "postcode": "49801"}}},
{"geometry": {"type": "Point", "coordinates": [-88.0833205156, 45.7933125447]}, "type": "Feature", "properties": {"collection_times": [{"days": "Mon-Sat", "time": "12:00pm"}, {"days": "Sun", "time": "Closed"}], "id": "4980200000", "name": "USPS COLLECTION BOX - BLUE BOX", "address": {"city": "IRON MOUNTAIN", "state": "MI", "street": "1201 W BREEN AVE", "postcode": "49802"}}},
{"geometry": {"type": "Point", "coordinates": [-88.0769321715, 45.7970167435]}, "type": "Feature", "properties": {"collection_times": [{"days": "Mon-Sat", "time": "8:00pm"}, {"days": "Sun", "time": "Closed"}], "id": "4980200002", "name": "USPS COLLECTION BOX - BLUE BOX", "address": {"city": "IRON MOUNTAIN", "state": "MI", "street": "700 W BREITUNG AVE", "postcode": "49802"}}},
{"geometry": {"type": "Point", "coordinates": [-88.0769321715, 45.7970167435]}, "type": "Feature", "properties": {"collection_times": [{"days": "Mon-Sat", "time": "8:00pm"}, {"days": "Sun", "time": "Closed"}], "id": "4980200003", "name": "USPS COLLECTION BOX - BLUE BOX", "address": {"city": "IRON MOUNTAIN", "state": "MI", "street": "700 W BREITUNG AVE", "postcode": "49802"}}},
{"geometry": {"type": "Point", "coordinates": [-88.0769321715, 45.7970167435]}, "type": "Feature", "properties": {"collection_times": [{"days": "Mon-Sat", "time": "8:00pm"}, {"days": "Sun", "time": "Closed"}], "id": "4980200004", "name": "USPS COLLECTION BOX - BLUE BOX", "address": {"city": "IRON MOUNTAIN", "state": "MI", "street": "700 W BREITUNG AVE", "postcode": "49802"}}},
{"geometry": {"type": "Point", "coordinates": [-88.0769321715, 45.7970167435]}, "type": "Feature", "properties": {"collection_times": [{"days": "Mon-Sat", "time": "8:00pm"}, {"days": "Sun", "time": "Closed"}], "id": "4980200005", "name": "USPS COLLECTION BOX - BLUE BOX", "address": {"city": "IRON MOUNTAIN", "state": "MI", "street": "700 W BREITUNG AVE", "postcode": "49802"}}},
{"geometry": {"type": "Point", "coordinates": [-88.0697620775, 45.8034492903]}, "type": "Feature", "properties": {"collection_times": [{"days": "Mon-Sat", "time": "12:30pm"}, {"days": "Sun", "time": "Closed"}], "id": "4980200008", "name": "USPS COLLECTION BOX - BLUE BOX", "address": {"city": "IRON MOUNTAIN", "state": "MI", "street": "500 S CARPENTER AVE", "postcode": "49802"}}},
{"geometry": {"type": "Point", "coordinates": [-88.0978568172, 45.8107850657]}, "type": "Feature", "properties": {"collection_times": [{"days": "Mon-Sat", "time": "12:00pm"}, {"days": "Sun", "time": "Closed"}], "id": "4980200013", "name": "USPS COLLECTION BOX - BLUE BOX", "address": {"city": "IRON MOUNTAIN", "state": "MI", "street": "401 WESTWOOD AVE", "postcode": "49802"}}},
{"geometry": {"type": "Point", "coordinates": [-88.0770557802, 45.7969831337]}, "type": "Feature", "properties": {"collection_times": [{"days": "Mon-Sat", "time": "8:00pm"}, {"days": "Sun", "time": "Closed"}], "id": "4980200019", "name": "USPS COLLECTION BOX - PO LOBBY", "address": {"city": "IRON MOUNTAIN", "state": "MI", "street": "700 W BREITUNG AVE", "postcode": "49802"}}},
{"geometry": {"type": "Point", "coordinates": [-86.8375702542, 46.4306734519]}, "type": "Feature", "properties": {"collection_times": [{"days": "Mon-Fri", "time": "12:15pm"}, {"days": "Sat", "time": "10:45am"}, {"days": "Sun", "time": "Closed"}], "id": "4980600000", "name": "USPS COLLECTION BOX - BLUE BOX", "address": {"city": "AU TRAIN", "state": "MI", "street": "N7589 ARBUTUS ST", "postcode": "49806"}}},
{"geometry": {"type": "Point", "coordinates": [-86.8377018366, 46.4308379868]}, "type": "Feature", "properties": {"collection_times": [{"days": "Mon-Fri", "time": "12:15pm"}, {"days": "Sat", "time": "10:45am"}, {"days": "Sun", "time": "Closed"}], "id": "4980600001", "name": "USPS COLLECTION BOX - PO LOBBY", "address": {"city": "AU TRAIN", "state": "MI", "street": "N7589 ARBUTUS ST", "postcode": "49806"}}},
{"geometry": {"type": "Point", "coordinates": [-87.304092938, 45.710516688]}, "type": "Feature", "properties": {"collection_times": [{"days": "Mon-Fri", "time": "4:30pm"}, {"days": "Sat", "time": "12:15pm"}, {"days": "Sun", "time": "Closed"}], "id": "4980700000", "name": "USPS COLLECTION BOX - BLUE BOX", "address": {"city": "BARK RIVER", "state": "MI", "street": "1316 OLD HIGHWAY 2/41", "postcode": "49807"}}},
{"geometry": {"type": "Point", "coordinates": [-87.304092938, 45.710516688]}, "type": "Feature", "properties": {"collection_times": [{"days": "Mon-Fri", "time": "4:30pm"}, {"days": "Sat", "time": "12:15pm"}, {"days": "Sun", "time": "Closed"}], "id": "4980700001", "name": "USPS COLLECTION BOX - PO LOBBY", "address": {"city": "BARK RIVER", "state": "MI", "street": "1316 OLD HIGHWAY 2/41", "postcode": "49807"}}},
{"geometry": {"type": "Point", "coordinates": [-87.7314721542, 46.8190092732]}, "type": "Feature", "properties": {"collection_times": [{"days": "Mon-Fri", "time": "1:00pm"}, {"days": "Sat", "time": "1:45pm"}, {"days": "Sun", "time": "Closed"}], "id": "4980800000", "name": "USPS COLLECTION BOX - BLUE BOX", "address": {"city": "BIG BAY", "state": "MI", "street": "505 HOFFMAN ST", "postcode": "49808"}}},
{"geometry": {"type": "Point", "coordinates": [-87.5530745953, 45.5911344165]}, "type": "Feature", "properties": {"collection_times": [{"days": "Mon-Fri", "time": "4:00pm"}, {"days": "Sat", "time": "10:15am"}, {"days": "Sun", "time": "Closed"}], "id": "4981200000", "name": "USPS COLLECTION BOX - BLUE BOX", "address": {"city": "CARNEY", "state": "MI", "street": "211 N US HIGHWAY 41", "postcode": "49812"}}},
{"geometry": {"type": "Point", "coordinates": [-87.553065513, 45.5912028951]}, "type": "Feature", "properties": {"collection_times": [{"days": "Mon-Fri", "time": "4:15pm"}, {"days": "Sat", "time": "10:15am"}, {"days": "Sun", "time": "Closed"}], "id": "4981200002", "name": "USPS COLLECTION BOX - PO LOBBY", "address": {"city": "CARNEY", "state": "MI", "street": "211 N US HIGHWAY 41", "postcode": "49812"}}},
{"geometry": {"type": "Point", "coordinates": [-87.9150366721, 46.4977677095]}, "type": "Feature", "properties": {"collection_times": [{"days": "Mon-Fri", "time": "4:00pm"}, {"days": "Sat", "time": "10:00am"}, {"days": "Sun", "time": "Closed"}], "id": "4981400000", "name": "USPS COLLECTION BOX - BLUE BOX", "address": {"city": "CHAMPION", "state": "MI", "street": "3953 US HIGHWAY 41 W", "postcode": "49814"}}},
{"geometry": {"type": "Point", "coordinates": [-87.9150366721, 46.4977677095]}, "type": "Feature", "properties": {"collection_times": [{"days": "Mon-Fri", "time": "4:00pm"}, {"days": "Sat", "time": "10:00am"}, {"days": "Sun", "time": "Closed"}], "id": "4981400002", "name": "USPS COLLECTION BOX - PO LOBBY", "address": {"city": "CHAMPION", "state": "MI", "street": "3953 US HIGHWAY 41 W", "postcode": "49814"}}},
{"geometry": {"type": "Point", "coordinates": [-87.9166365168, 46.4975747072]}, "type": "Feature", "properties": {"collection_times": [{"days": "Mon-Sat", "time": "2:00pm"}, {"days": "Sun", "time": "Closed"}], "id": "4981400004", "name": "USPS COLLECTION BOX - BLUE BOX", "address": {"city": "CHAMPION", "state": "MI", "street": "13401 US HIGHWAY 41 W", "postcode": "49814"}}},
{"geometry": {"type": "Point", "coordinates": [-88.0935447702, 46.1396090643]}, "type": "Feature", "properties": {"collection_times": [{"days": "Mon-Fri", "time": "3:45pm"}, {"days": "Sat", "time": "9:45am"}, {"days": "Sun", "time": "Closed"}], "id": "4981500000", "name": "USPS COLLECTION BOX - BLUE BOX", "address": {"city": "CHANNING", "state": "MI", "street": "601 RAILROAD AVE", "postcode": "49815"}}},
{"geometry": {"type": "Point", "coordinates": [-88.0935447702, 46.1396090643]}, "type": "Feature", "properties": {"collection_times": [{"days": "Mon-Fri", "time": "12:00pm"}, {"days": "Sat", "time": "9:45am"}, {"days": "Sun", "time": "Closed"}], "id": "4981500002", "name": "USPS COLLECTION BOX - PO LOBBY", "address": {"city": "CHANNING", "state": "MI", "street": "601 RAILROAD AVE", "postcode": "49815"}}},
{"geometry": {"type": "Point", "coordinates": [-86.9342041868, 46.3474980397]}, "type": "Feature", "properties": {"collection_times": [{"days": "Mon-Fri", "time": "3:30pm"}, {"days": "Sat", "time": "11:00am"}, {"days": "Sun", "time": "Closed"}], "id": "4981600000", "name": "USPS COLLECTION BOX - BLUE BOX", "address": {"city": "CHATHAM", "state": "MI", "street": "E3735 MUNISING ST", "postcode": "49816"}}},
{"geometry": {"type": "Point", "coordinates": [-86.9342041868, 46.3474980397]}, "type": "Feature", "properties": {"collection_times": [{"days": "Mon-Fri", "time": "3:30pm"}, {"days": "Sat", "time": "11:00am"}, {"days": "Sun", "time": "Closed"}], "id": "4981600001", "name": "USPS COLLECTION BOX - PO LOBBY", "address": {"city": "CHATHAM", "state": "MI", "street": "E3735 MUNISING ST", "postcode": "49816"}}},
{"geometry": {"type": "Point", "coordinates": [-86.4709429058, 45.9345541196]}, "type": "Feature", "properties": {"collection_times": [{"days": "Mon-Fri", "time": "3:15pm"}, {"days": "Sat", "time": "10:00am"}, {"days": "Sun", "time": "Closed"}], "id": "4981700000", "name": "USPS COLLECTION BOX - BLUE BOX", "address": {"city": "COOKS", "state": "MI", "street": "1131 S COUNTY ROAD 442", "postcode": "49817"}}},
{"geometry": {"type": "Point", "coordinates": [-86.4709429058, 45.9345541196]}, "type": "Feature", "properties": {"collection_times": [{"days": "Mon-Fri", "time": "12:00pm"}, {"days": "Sat", "time": "10:00am"}, {"days": "Sun", "time": "Closed"}], "id": "4981700001", "name": "USPS COLLECTION BOX - PO LOBBY", "address": {"city": "COOKS", "state": "MI", "street": "1131 S COUNTY ROAD 442", "postcode": "49817"}}},
{"geometry": {"type": "Point", "coordinates": [-87.2231725029, 45.9037338891]}, "type": "Feature", "properties": {"collection_times": [{"days": "Mon-Fri", "time": "12:00pm"}, {"days": "Sat", "time": "11:00am"}, {"days": "Sun", "time": "Closed"}], "id": "4981800000", "name": "USPS COLLECTION BOX - BLUE BOX", "address": {"city": "CORNELL", "state": "MI", "street": "9845 BONEY FALLS H RD", "postcode": "49818"}}},
{"geometry": {"type": "Point", "coordinates": [-87.2231725029, 45.9037338891]}, "type": "Feature", "properties": {"collection_times": [{"days": "Mon-Fri", "time": "12:00pm"}, {"days": "Sat", "time": "11:00am"}, {"days": "Sun", "time": "Closed"}], "id": "4981800001", "name": "USPS COLLECTION BOX - PO LOBBY", "address": {"city": "CORNELL", "state": "MI", "street": "9845 BONEY FALLS H RD", "postcode": "49818"}}},
{"geometry": {"type": "Point", "coordinates": [-85.7441256931, 46.2057248665]}, "type": "Feature", "properties": {"collection_times": [{"days": "Mon-Fri", "time": "3:30pm"}, {"days": "Sat", "time": "12:45pm"}, {"days": "Sun", "time": "Closed"}], "id": "4982000000", "name": "USPS COLLECTION BOX - BLUE BOX", "address": {"city": "CURTIS", "state": "MI", "street": "W17194 MAIN ST", "postcode": "49820"}}},
{"geometry": {"type": "Point", "coordinates": [-85.7441256931, 46.2057248665]}, "type": "Feature", "properties": {"collection_times": [{"days": "Mon-Fri", "time": "3:30pm"}, {"days": "Sat", "time": "12:45pm"}, {"days": "Sun", "time": "Closed"}], "id": "4982000001", "name": "USPS COLLECTION BOX - PO LOBBY", "address": {"city": "CURTIS", "state": "MI", "street": "W17194 MAIN ST", "postcode": "49820"}}},
{"geometry": {"type": "Point", "coordinates": [-87.6008685843, 45.4617224425]}, "type": "Feature", "properties": {"collection_times": [{"days": "Mon-Fri", "time": "3:45pm"}, {"days": "Sat", "time": "9:45am"}, {"days": "Sun", "time": "Closed"}], "id": "4982100000", "name": "USPS COLLECTION BOX - BLUE BOX", "address": {"city": "DAGGETT", "state": "MI", "street": "125 W SCHOOL RD", "postcode": "49821"}}},
{"geometry": {"type": "Point", "coordinates": [-87.5992041506, 45.4616828752]}, "type": "Feature", "properties": {"collection_times": [{"days": "Mon-Fri", "time": "3:45pm"}, {"days": "Sat", "time": "9:45am"}, {"days": "Sun", "time": "Closed"}], "id": "4982100001", "name": "USPS COLLECTION BOX - PO LOBBY", "address": {"city": "DAGGETT", "state": "MI", "street": "125 W SCHOOL RD", "postcode": "49821"}}},
{"geometry": {"type": "Point", "coordinates": [-87.0695524173, 46.4929597291]}, "type": "Feature", "properties": {"collection_times": [{"days": "Mon-Fri", "time": "3:00pm"}, {"days": "Sat", "time": "11:00am"}, {"days": "Sun", "time": "Closed"}], "id": "4982200000", "name": "USPS COLLECTION BOX - BLUE BOX", "address": {"city": "DEERTON", "state": "MI", "street": "E1014 STATE HIGHWAY M28", "postcode": "49822"}}},
{"geometry": {"type": "Point", "coordinates": [-87.0695524173, 46.4929597291]}, "type": "Feature", "properties": {"collection_times": [{"days": "Mon-Fri", "time": "3:00pm"}, {"days": "Sat", "time": "11:00am"}, {"days": "Sun", "time": "Closed"}], "id": "4982200001", "name": "USPS COLLECTION BOX - PO LOBBY", "address": {"city": "DEERTON", "state": "MI", "street": "E1014 STATE HIGHWAY M28", "postcode": "49822"}}},
{"geometry": {"type": "Point", "coordinates": [-87.0044221039, 46.3687389155]}, "type": "Feature", "properties": {"collection_times": [{"days": "Mon-Fri", "time": "3:30pm"}, {"days": "Sat", "time": "10:30am"}, {"days": "Sun", "time": "Closed"}], "id": "4982500000", "name": "USPS COLLECTION BOX - BLUE BOX", "address": {"city": "EBEN JUNCTION", "state": "MI", "street": "E2895 STATE HIGHWAY M94", "postcode": "49825"}}},
{"geometry": {"type": "Point", "coordinates": [-87.0044221039, 46.3687389155]}, "type": "Feature", "properties": {"collection_times": [{"days": "Mon-Fri", "time": "3:30pm"}, {"days": "Sat", "time": "10:30am"}, {"days": "Sun", "time": "Closed"}], "id": "4982500001", "name": "USPS COLLECTION BOX - PO LOBBY", "address": {"city": "EBEN JUNCTION", "state": "MI", "street": "E2895 STATE HIGHWAY M94", "postcode": "49825"}}},
{"geometry": {"type": "Point", "coordinates": [-85.5714481678, 46.1166889842]}, "type": "Feature", "properties": {"collection_times": [{"days": "Mon-Fri", "time": "4:00pm"}, {"days": "Sat", "time": "12:45pm"}, {"days": "Sun", "time": "Closed"}], "id": "4982700000", "name": "USPS COLLECTION BOX - BLUE BOX", "address": {"city": "ENGADINE", "state": "MI", "street": "104 MELVILLE ST", "postcode": "49827"}}},
{"geometry": {"type": "Point", "coordinates": [-85.5714481678, 46.1166889842]}, "type": "Feature", "properties": {"collection_times": [{"days": "Mon-Fri", "time": "4:00pm"}, {"days": "Sat", "time": "12:45pm"}, {"days": "Sun", "time": "Closed"}], "id": "4982700001", "name": "USPS COLLECTION BOX - PO LOBBY", "address": {"city": "ENGADINE", "state": "MI", "street": "104 MELVILLE ST", "postcode": "49827"}}},
{"geometry": {"type": "Point", "coordinates": [-87.0829937687, 45.7468004094]}, "type": "Feature", "properties": {"collection_times": [{"days": "Mon-Fri", "time": "4:30pm"}, {"days": "Sat", "time": "2:30pm"}, {"days": "Sun", "time": "Closed"}], "id": "4982900000", "name": "USPS COLLECTION BOX - BLUE BOX", "address": {"city": "ESCANABA", "state": "MI", "street": "2525 1ST AVE N", "postcode": "49829"}}},
{"geometry": {"type": "Point", "coordinates": [-87.0979463262, 45.7456967399]}, "type": "Feature", "properties": {"collection_times": [{"days": "Mon-Sat", "time": "10:00am"}, {"days": "Sun", "time": "Closed"}], "id": "4982900003", "name": "USPS COLLECTION BOX - BLUE BOX", "address": {"city": "ESCANABA", "state": "MI", "street": "3401 LUDINGTON ST", "postcode": "49829"}}},
{"geometry": {"type": "Point", "coordinates": [-87.0831361337, 45.7374371837]}, "type": "Feature", "properties": {"collection_times": [{"days": "Mon-Fri", "time": "3:00pm"}, {"days": "Sat-Sun", "time": "Closed"}], "id": "4982900004", "name": "USPS COLLECTION BOX - BLUE BOX", "address": {"city": "ESCANABA", "state": "MI", "street": "2500 7TH AVE S", "postcode": "49829"}}},
{"geometry": {"type": "Point", "coordinates": [-87.0539065273, 45.745651361]}, "type": "Feature", "properties": {"collection_times": [{"days": "Mon-Fri", "time": "3:30pm"}, {"days": "Sat", "time": "12:00pm"}, {"days": "Sun", "time": "Closed"}], "id": "4982900006", "name": "USPS COLLECTION BOX - BLUE BOX", "address": {"city": "ESCANABA", "state": "MI", "street": "519 LUDINGTON ST", "postcode": "49829"}}},
{"geometry": {"type": "Point", "coordinates": [-87.0539065273, 45.745651361]}, "type": "Feature", "properties": {"collection_times": [{"days": "Mon-Fri", "time": "3:30pm"}, {"days": "Sat", "time": "12:00pm"}, {"days": "Sun", "time": "Closed"}], "id": "4982900007", "name": "USPS COLLECTION BOX - BLUE BOX", "address": {"city": "ESCANABA", "state": "MI", "street": "519 LUDINGTON ST", "postcode": "49829"}}},
{"geometry": {"type": "Point", "coordinates": [-87.0777698757, 45.7523784797]}, "type": "Feature", "properties": {"collection_times": [{"days": "Mon-Sat", "time": "9:00am"}, {"days": "Sun", "time": "Closed"}], "id": "4982900008", "name": "USPS COLLECTION BOX - BLUE BOX", "address": {"city": "ESCANABA", "state": "MI", "street": "601 N LINCOLN RD", "postcode": "49829"}}},
{"geometry": {"type": "Point", "coordinates": [-87.0507072858, 45.7456611158]}, "type": "Feature", "properties": {"collection_times": [{"days": "Mon-Fri", "time": "3:30pm"}, {"days": "Sat", "time": "12:00pm"}, {"days": "Sun", "time": "Closed"}], "id": "4982900009", "name": "USPS COLLECTION BOX - BLUE BOX", "address": {"city": "ESCANABA", "state": "MI", "street": "305 LUDINGTON ST", "postcode": "49829"}}},
{"geometry": {"type": "Point", "coordinates": [-87.0507072858, 45.7456611158]}, "type": "Feature", "properties": {"collection_times": [{"days": "Mon-Fri", "time": "3:30pm"}, {"days": "Sat", "time": "12:00pm"}, {"days": "Sun", "time": "Closed"}], "id": "4982900010", "name": "USPS COLLECTION BOX - BLUE BOX", "address": {"city": "ESCANABA", "state": "MI", "street": "305 LUDINGTON ST", "postcode": "49829"}}},
{"geometry": {"type": "Point", "coordinates": [-87.0569102918, 45.7457796799]}, "type": "Feature", "properties": {"collection_times": [{"days": "Mon-Fri", "time": "3:30pm"}, {"days": "Sat", "time": "12:00pm"}, {"days": "Sun", "time": "Closed"}], "id": "4982900012", "name": "USPS COLLECTION BOX - BLUE BOX", "address": {"city": "ESCANABA", "state": "MI", "street": "720 LUDINGTON ST", "postcode": "49829"}}},
{"geometry": {"type": "Point", "coordinates": [-87.0903730456, 45.7290233364]}, "type": "Feature", "properties": {"collection_times": [{"days": "Mon-Sat", "time": "12:00pm"}, {"days": "Sun", "time": "Closed"}], "id": "4982900021", "name": "USPS COLLECTION BOX - BLUE BOX", "address": {"city": "ESCANABA", "state": "MI", "street": "1600 S 30TH ST", "postcode": "49829"}}},
{"geometry": {"type": "Point", "coordinates": [-87.0796118636, 45.7495122948]}, "type": "Feature", "properties": {"collection_times": [{"days": "Mon-Sat", "time": "10:00am"}, {"days": "Sun", "time": "Closed"}], "id": "4982900026", "name": "USPS COLLECTION BOX - BLUE BOX", "address": {"city": "ESCANABA", "state": "MI", "street": "412 N LINCOLN RD", "postcode": "49829"}}},
{"geometry": {"type": "Point", "coordinates": [-87.0792069258, 45.7509658201]}, "type": "Feature", "properties": {"collection_times": [{"days": "Mon-Sat", "time": "10:00am"}, {"days": "Sun", "time": "Closed"}], "id": "4982900027", "name": "USPS COLLECTION BOX - BLUE BOX", "address": {"city": "ESCANABA", "state": "MI", "street": "501 N LINCOLN RD", "postcode": "49829"}}},
{"geometry": {"type": "Point", "coordinates": [-87.0520887648, 45.7457703559]}, "type": "Feature", "properties": {"collection_times": [{"days": "Mon-Fri", "time": "3:30pm"}, {"days": "Sat", "time": "12:00pm"}, {"days": "Sun", "time": "Closed"}], "id": "4982900028", "name": "USPS COLLECTION BOX - BLUE BOX", "address": {"city": "ESCANABA", "state": "MI", "street": "400 LUDINGTON ST", "postcode": "49829"}}},
{"geometry": {"type": "Point", "coordinates": [-87.088710905, 45.7427604888]}, "type": "Feature", "properties": {"collection_times": [{"days": "Mon-Sat", "time": "9:00am"}, {"days": "Sun", "time": "Closed"}], "id": "4982900032", "name": "USPS COLLECTION BOX - BLUE BOX", "address": {"city": "ESCANABA", "state": "MI", "street": "2900 3RD AVE S", "postcode": "49829"}}},
{"geometry": {"type": "Point", "coordinates": [-87.0979463262, 45.7456967399]}, "type": "Feature", "properties": {"collection_times": [{"days": "Mon-Sat", "time": "10:00am"}, {"days": "Sun", "time": "Closed"}], "id": "4982900035", "name": "USPS COLLECTION BOX - BLUE BOX", "address": {"city": "ESCANABA", "state": "MI", "street": "3401 LUDINGTON ST", "postcode": "49829"}}},
{"geometry": {"type": "Point", "coordinates": [-87.0829937687, 45.7468004094]}, "type": "Feature", "properties": {"collection_times": [{"days": "Mon-Fri", "time": "5:30pm"}, {"days": "Sat", "time": "3:00pm"}, {"days": "Sun", "time": "Closed"}], "id": "4982900039", "name": "USPS COLLECTION BOX - PO LOBBY", "address": {"city": "ESCANABA", "state": "MI", "street": "2525 1ST AVE N", "postcode": "49829"}}},
{"geometry": {"type": "Point", "coordinates": [-87.0831361337, 45.7374371837]}, "type": "Feature", "properties": {"collection_times": [{"days": "Mon-Fri", "time": "3:00pm"}, {"days": "Sat-Sun", "time": "Closed"}], "id": "4982900043", "name": "USPS COLLECTION BOX - BLUE BOX", "address": {"city": "ESCANABA", "state": "MI", "street": "2500 7TH AVE S", "postcode": "49829"}}},
{"geometry": {"type": "Point", "coordinates": [-87.0520887648, 45.7457703559]}, "type": "Feature", "properties": {"collection_times": [{"days": "Mon-Fri", "time": "3:30pm"}, {"days": "Sat", "time": "12:00pm"}, {"days": "Sun", "time": "Closed"}], "id": "4982900044", "name": "USPS COLLECTION BOX - BLUE BOX", "address": {"city": "ESCANABA", "state": "MI", "street": "400 LUDINGTON ST", "postcode": "49829"}}},
{"geometry": {"type": "Point", "coordinates": [-87.099287256, 45.745801303]}, "type": "Feature", "properties": {"collection_times": [{"days": "Mon-Sat", "time": "10:00am"}, {"days": "Sun", "time": "Closed"}], "id": "4982900045", "name": "USPS COLLECTION BOX - BLUE BOX", "address": {"city": "ESCANABA", "state": "MI", "street": "3500 LUDINGTON ST", "postcode": "49829"}}},
{"geometry": {"type": "Point", "coordinates": [-87.8281783202, 45.9965278964]}, "type": "Feature", "properties": {"collection_times": [{"days": "Mon-Fri", "time": "3:45pm"}, {"days": "Sat", "time": "9:45am"}, {"days": "Sun", "time": "Closed"}], "id": "4983100000", "name": "USPS COLLECTION BOX - BLUE BOX", "address": {"city": "FELCH", "state": "MI", "street": "W4243 STATE HIGHWAY M69", "postcode": "49831"}}},
{"geometry": {"type": "Point", "coordinates": [-87.8281783202, 45.9965278964]}, "type": "Feature", "properties": {"collection_times": [{"days": "Mon-Fri", "time": "11:45am"}, {"days": "Sat", "time": "9:45am"}, {"days": "Sun", "time": "Closed"}], "id": "4983100001", "name": "USPS COLLECTION BOX - PO LOBBY", "address": {"city": "FELCH", "state": "MI", "street": "W4243 STATE HIGHWAY M69", "postcode": "49831"}}},
{"geometry": {"type": "Point", "coordinates": [-87.342093337, 46.287964987]}, "type": "Feature", "properties": {"collection_times": [{"days": "Mon-Fri", "time": "3:30pm"}, {"days": "Sat", "time": "9:30am"}, {"days": "Sun", "time": "Closed"}], "id": "4983300000", "name": "USPS COLLECTION BOX - BLUE BOX", "address": {"city": "LITTLE LAKE", "state": "MI", "street": "1673 STATE HIGHWAY M35 E", "postcode": "49833"}}},
{"geometry": {"type": "Point", "coordinates": [-87.342093337, 46.287964987]}, "type": "Feature", "properties": {"collection_times": [{"days": "Mon-Fri", "time": "3:30pm"}, {"days": "Sat", "time": "9:30am"}, {"days": "Sun", "time": "Closed"}], "id": "4983300001", "name": "USPS COLLECTION BOX - PO LOBBY", "address": {"city": "LITTLE LAKE", "state": "MI", "street": "1673 STATE HIGHWAY M35 E", "postcode": "49833"}}},
{"geometry": {"type": "Point", "coordinates": [-86.5516865474, 45.7747344868]}, "type": "Feature", "properties": {"collection_times": [{"days": "Mon-Fri", "time": "1:45pm"}, {"days": "Sat", "time": "11:00am"}, {"days": "Sun", "time": "Closed"}], "id": "4983500000", "name": "USPS COLLECTION BOX - BLUE BOX", "address": {"city": "GARDEN", "state": "MI", "street": "6353 STATE ST", "postcode": "49835"}}},
{"geometry": {"type": "Point", "coordinates": [-86.5516865474, 45.7747344868]}, "type": "Feature", "properties": {"collection_times": [{"days": "Mon-Fri", "time": "1:45pm"}, {"days": "Sat", "time": "11:00am"}, {"days": "Sun", "time": "Closed"}], "id": "4983500001", "name": "USPS COLLECTION BOX - PO LOBBY", "address": {"city": "GARDEN", "state": "MI", "street": "6353 STATE ST", "postcode": "49835"}}},
{"geometry": {"type": "Point", "coordinates": [-85.9229304979, 46.2431699361]}, "type": "Feature", "properties": {"collection_times": [{"days": "Mon-Fri", "time": "3:30pm"}, {"days": "Sat", "time": "12:00pm"}, {"days": "Sun", "time": "Closed"}], "id": "4983600000", "name": "USPS COLLECTION BOX - BLUE BOX", "address": {"city": "GERMFASK", "state": "MI", "street": "1220 KNAGGS ST", "postcode": "49836"}}},
{"geometry": {"type": "Point", "coordinates": [-85.9229304979, 46.2431699361]}, "type": "Feature", "properties": {"collection_times": [{"days": "Mon-Fri", "time": "12:45pm"}, {"days": "Sat", "time": "12:00pm"}, {"days": "Sun", "time": "Closed"}], "id": "4983600001", "name": "USPS COLLECTION BOX - PO LOBBY", "address": {"city": "GERMFASK", "state": "MI", "street": "1220 KNAGGS ST", "postcode": "49836"}}},
{"geometry": {"type": "Point", "coordinates": [-87.0920774353, 45.8700192228]}, "type": "Feature", "properties": {"collection_times": [{"days": "Mon-Sat", "time": "10:00am"}, {"days": "Sun", "time": "Closed"}], "id": "4983700010", "name": "USPS COLLECTION BOX - BLUE BOX", "address": {"city": "GLADSTONE", "state": "MI", "street": "6287 HWY M-35", "postcode": "49837"}}},
{"geometry": {"type": "Point", "coordinates": [-87.0222469959, 45.8471677778]}, "type": "Feature", "properties": {"collection_times": [{"days": "Mon-Fri", "time": "4:00pm"}, {"days": "Sat", "time": "11:30am"}, {"days": "Sun", "time": "Closed"}], "id": "4983700014", "name": "USPS COLLECTION BOX - PO LOBBY", "address": {"city": "GLADSTONE", "state": "MI", "street": "1003 DELTA AVE", "postcode": "49837"}}},
{"geometry": {"type": "Point", "coordinates": [-87.0376464428, 45.8355944932]}, "type": "Feature", "properties": {"collection_times": [{"days": "Mon-Sat", "time": "10:00am"}, {"days": "Sun", "time": "Closed"}], "id": "4983700016", "name": "USPS COLLECTION BOX - BLUE BOX", "address": {"city": "GLADSTONE", "state": "MI", "street": "2009 LAKE SHORE DR", "postcode": "49837"}}},
{"geometry": {"type": "Point", "coordinates": [-87.041832954, 45.8404928214]}, "type": "Feature", "properties": {"collection_times": [{"days": "Mon-Sat", "time": "11:00am"}, {"days": "Sun", "time": "Closed"}], "id": "4983700017", "name": "USPS COLLECTION BOX - BLUE BOX", "address": {"city": "GLADSTONE", "state": "MI", "street": "2821 S HILL RD", "postcode": "49837"}}},
{"geometry": {"type": "Point", "coordinates": [-87.0222469959, 45.8471677778]}, "type": "Feature", "properties": {"collection_times": [{"days": "Mon-Fri", "time": "5:00pm"}, {"days": "Sat", "time": "3:00pm"}, {"days": "Sun", "time": "Closed"}], "id": "4983700020", "name": "USPS COLLECTION BOX - BLUE BOX", "address": {"city": "GLADSTONE", "state": "MI", "street": "1003 DELTA AVE", "postcode": "49837"}}},
{"geometry": {"type": "Point", "coordinates": [-85.6964885586, 46.0944991522]}, "type": "Feature", "properties": {"collection_times": [{"days": "Mon-Fri", "time": "4:00pm"}, {"days": "Sat", "time": "11:00am"}, {"days": "Sun", "time": "Closed"}], "id": "4983800000", "name": "USPS COLLECTION BOX - BLUE BOX", "address": {"city": "GOULD CITY", "state": "MI", "street": "N6116 S GOULD CITY RD", "postcode": "49838"}}},
{"geometry": {"type": "Point", "coordinates": [-85.6964885586, 46.0944991522]}, "type": "Feature", "properties": {"collection_times": [{"days": "Mon-Fri", "time": "4:00pm"}, {"days": "Sat", "time": "11:00am"}, {"days": "Sun", "time": "Closed"}], "id": "4983800001", "name": "USPS COLLECTION BOX - PO LOBBY", "address": {"city": "GOULD CITY", "state": "MI", "street": "N6116 S GOULD CITY RD", "postcode": "49838"}}},
{"geometry": {"type": "Point", "coordinates": [-86.0638671037, 46.5814867621]}, "type": "Feature", "properties": {"collection_times": [{"days": "Mon-Fri", "time": "3:45pm"}, {"days": "Sat", "time": "12:45pm"}, {"days": "Sun", "time": "Closed"}], "id": "4983900000", "name": "USPS COLLECTION BOX - BLUE BOX", "address": {"city": "GRAND MARAIS", "state": "MI", "street": "1 GRAND MARAIS AVE", "postcode": "49839"}}},
{"geometry": {"type": "Point", "coordinates": [-86.0638671037, 46.5814867621]}, "type": "Feature", "properties": {"collection_times": [{"days": "Mon-Fri", "time": "3:45pm"}, {"days": "Sat", "time": "12:45pm"}, {"days": "Sun", "time": "Closed"}], "id": "4983900001", "name": "USPS COLLECTION BOX - PO LOBBY", "address": {"city": "GRAND MARAIS", "state": "MI", "street": "1 GRAND MARAIS AVE", "postcode": "49839"}}},
{"geometry": {"type": "Point", "coordinates": [-85.9903865287, 46.0533075933]}, "type": "Feature", "properties": {"collection_times": [{"days": "Mon-Fri", "time": "12:00pm"}, {"days": "Sat", "time": "11:30am"}, {"days": "Sun", "time": "Closed"}], "id": "4984000000", "name": "USPS COLLECTION BOX - BLUE BOX", "address": {"city": "GULLIVER", "state": "MI", "street": "2926W US HIGHWAY 2", "postcode": "49840"}}},
{"geometry": {"type": "Point", "coordinates": [-85.9903865287, 46.0533075933]}, "type": "Feature", "properties": {"collection_times": [{"days": "Mon-Fri", "time": "12:00pm"}, {"days": "Sat", "time": "11:30am"}, {"days": "Sun", "time": "Closed"}], "id": "4984000001", "name": "USPS COLLECTION BOX - PO LOBBY", "address": {"city": "GULLIVER", "state": "MI", "street": "2926W US HIGHWAY 2", "postcode": "49840"}}},
{"geometry": {"type": "Point", "coordinates": [-87.4340007134, 46.2774324266]}, "type": "Feature", "properties": {"collection_times": [{"days": "Mon-Fri", "time": "4:00pm"}, {"days": "Sat", "time": "12:00pm"}, {"days": "Sun", "time": "Closed"}], "id": "4984100000", "name": "USPS COLLECTION BOX - BLUE BOX", "address": {"city": "GWINN", "state": "MI", "street": "95 N PINE ST", "postcode": "49841"}}},
{"geometry": {"type": "Point", "coordinates": [-87.4340044002, 46.2774006382]}, "type": "Feature", "properties": {"collection_times": [{"days": "Mon-Fri", "time": "4:30pm"}, {"days": "Sat", "time": "12:30pm"}, {"days": "Sun", "time": "Closed"}], "id": "4984100002", "name": "USPS COLLECTION BOX - PO LOBBY", "address": {"city": "GWINN", "state": "MI", "street": "95 N PINE ST", "postcode": "49841"}}},
{"geometry": {"type": "Point", "coordinates": [-87.384452699, 46.351898598]}, "type": "Feature", "properties": {"collection_times": [{"days": "Mon-Sat", "time": "9:00am"}, {"days": "Sun", "time": "Closed"}], "id": "4984100004", "name": "USPS COLLECTION BOX - BLUE BOX", "address": {"city": "GWINN", "state": "MI", "street": "225 AIRPORT AVE", "postcode": "49841"}}},
{"geometry": {"type": "Point", "coordinates": [-87.3449501726, 45.7031608101]}, "type": "Feature", "properties": {"collection_times": [{"days": "Mon-Fri", "time": "4:00pm"}, {"days": "Sat", "time": "10:15am"}, {"days": "Sun", "time": "Closed"}], "id": "4984500001", "name": "USPS COLLECTION BOX - BLUE BOX", "address": {"city": "HARRIS", "state": "MI", "street": "W555 US HIGHWAY 2 41", "postcode": "49845"}}},
{"geometry": {"type": "Point", "coordinates": [-87.3449501726, 45.7031608101]}, "type": "Feature", "properties": {"collection_times": [{"days": "Mon-Fri", "time": "4:15pm"}, {"days": "Sat", "time": "10:15am"}, {"days": "Sun", "time": "Closed"}], "id": "4984500002", "name": "USPS COLLECTION BOX - PO LOBBY", "address": {"city": "HARRIS", "state": "MI", "street": "W555 US HIGHWAY 2 41", "postcode": "49845"}}},
{"geometry": {"type": "Point", "coordinates": [-87.601925499, 45.710067743]}, "type": "Feature", "properties": {"collection_times": [{"days": "Mon-Fri", "time": "4:00pm"}, {"days": "Sat", "time": "10:00am"}, {"days": "Sun", "time": "Closed"}], "id": "4984700000", "name": "USPS COLLECTION BOX - BLUE BOX", "address": {"city": "HERMANSVILLE", "state": "MI", "street": "W5444 2ND ST", "postcode": "49847"}}},
{"geometry": {"type": "Point", "coordinates": [-87.601925499, 45.710067743]}, "type": "Feature", "properties": {"collection_times": [{"days": "Mon-Fri", "time": "4:15pm"}, {"days": "Sat", "time": "10:15am"}, {"days": "Sun", "time": "Closed"}], "id": "4984700001", "name": "USPS COLLECTION BOX - PO LOBBY", "address": {"city": "HERMANSVILLE", "state": "MI", "street": "W5444 2ND ST", "postcode": "49847"}}},
{"geometry": {"type": "Point", "coordinates": [-87.610508862, 45.3769623321]}, "type": "Feature", "properties": {"collection_times": [{"days": "Mon-Fri", "time": "3:45pm"}, {"days": "Sat", "time": "10:15am"}, {"days": "Sun", "time": "Closed"}], "id": "4984800000", "name": "USPS COLLECTION BOX - BLUE BOX", "address": {"city": "INGALLS", "state": "MI", "street": "N7303 US HIGHWAY 41", "postcode": "49848"}}},
{"geometry": {"type": "Point", "coordinates": [-87.610508862, 45.3769623321]}, "type": "Feature", "properties": {"collection_times": [{"days": "Mon-Fri", "time": "3:45pm"}, {"days": "Sat", "time": "10:15am"}, {"days": "Sun", "time": "Closed"}], "id": "4984800001", "name": "USPS COLLECTION BOX - PO LOBBY", "address": {"city": "INGALLS", "state": "MI", "street": "N7303 US HIGHWAY 41", "postcode": "49848"}}},
{"geometry": {"type": "Point", "coordinates": [-87.668694165, 46.4892531386]}, "type": "Feature", "properties": {"collection_times": [{"days": "Mon-Fri", "time": "3:00pm"}, {"days": "Sat", "time": "9:30am"}, {"days": "Sun", "time": "Closed"}], "id": "4984900002", "name": "USPS COLLECTION BOX - BLUE BOX", "address": {"city": "ISHPEMING", "state": "MI", "street": "219 S MAIN ST", "postcode": "49849"}}},
{"geometry": {"type": "Point", "coordinates": [-87.6800539102, 46.5006287113]}, "type": "Feature", "properties": {"collection_times": [{"days": "Mon-Sat", "time": "12:00pm"}, {"days": "Sun", "time": "Closed"}], "id": "4984900006", "name": "USPS COLLECTION BOX - BLUE BOX", "address": {"city": "ISHPEMING", "state": "MI", "street": "830 CARP RIVER LN", "postcode": "49849"}}},
{"geometry": {"type": "Point", "coordinates": [-87.714254643, 46.4876360391]}, "type": "Feature", "properties": {"collection_times": [{"days": "Mon-Sat", "time": "9:30am"}, {"days": "Sun", "time": "Closed"}], "id": "4984900007", "name": "USPS COLLECTION BOX - BLUE BOX", "address": {"city": "ISHPEMING", "state": "MI", "street": "170 N DAISY ST", "postcode": "49849"}}},
{"geometry": {"type": "Point", "coordinates": [-87.6658914904, 46.5013248878]}, "type": "Feature", "properties": {"collection_times": [{"days": "Mon-Sat", "time": "2:30pm"}, {"days": "Sun", "time": "Closed"}], "id": "4984900008", "name": "USPS COLLECTION BOX - BLUE BOX", "address": {"city": "ISHPEMING", "state": "MI", "street": "1419 N 2ND ST", "postcode": "49849"}}},
{"geometry": {"type": "Point", "coordinates": [-87.6683903589, 46.490596496]}, "type": "Feature", "properties": {"collection_times": [{"days": "Mon-Fri", "time": "5:00pm"}, {"days": "Sat", "time": "4:00pm"}, {"days": "Sun", "time": "Closed"}], "id": "4984900014", "name": "USPS COLLECTION BOX - BLUE BOX", "address": {"city": "ISHPEMING", "state": "MI", "street": "101 BANK ST", "postcode": "49849"}}},
{"geometry": {"type": "Point", "coordinates": [-87.6683903589, 46.490596496]}, "type": "Feature", "properties": {"collection_times": [{"days": "Mon-Fri", "time": "5:00pm"}, {"days": "Sat", "time": "4:00pm"}, {"days": "Sun", "time": "Closed"}], "id": "4984900015", "name": "USPS COLLECTION BOX - BLUE BOX", "address": {"city": "ISHPEMING", "state": "MI", "street": "101 BANK ST", "postcode": "49849"}}},
{"geometry": {"type": "Point", "coordinates": [-87.666398237, 46.4909602282]}, "type": "Feature", "properties": {"collection_times": [{"days": "Mon-Fri", "time": "5:00pm"}, {"days": "Sat", "time": "4:00pm"}, {"days": "Sun", "time": "Closed"}], "id": "4984900017", "name": "USPS COLLECTION BOX - BLUE BOX", "address": {"city": "ISHPEMING", "state": "MI", "street": "211 N 2ND ST", "postcode": "49849"}}},
{"geometry": {"type": "Point", "coordinates": [-87.6829256967, 46.4984689913]}, "type": "Feature", "properties": {"collection_times": [{"days": "Mon-Sat", "time": "9:00am"}, {"days": "Sun", "time": "Closed"}], "id": "4984900018", "name": "USPS COLLECTION BOX - BLUE BOX", "address": {"city": "ISHPEMING", "state": "MI", "street": "900 US HIGHWAY 41 W", "postcode": "49849"}}},
{"geometry": {"type": "Point", "coordinates": [-87.666398237, 46.4909602282]}, "type": "Feature", "properties": {"collection_times": [{"days": "Mon-Fri", "time": "5:00pm"}, {"days": "Sat", "time": "4:15pm"}, {"days": "Sun", "time": "Closed"}], "id": "4984900021", "name": "USPS COLLECTION BOX - PO LOBBY", "address": {"city": "ISHPEMING", "state": "MI", "street": "211 N 2ND ST", "postcode": "49849"}}},
{"geometry": {"type": "Point", "coordinates": [-85.74341147, 46.3774028625]}, "type": "Feature", "properties": {"collection_times": [{"days": "Mon-Fri", "time": "4:15pm"}, {"days": "Sat", "time": "1:30pm"}, {"days": "Sun", "time": "Closed"}], "id": "4985300000", "name": "USPS COLLECTION BOX - BLUE BOX", "address": {"city": "MCMILLAN", "state": "MI", "street": "22579 STATE HIGHWAY M28", "postcode": "49853"}}},
{"geometry": {"type": "Point", "coordinates": [-85.74341147, 46.3774028625]}, "type": "Feature", "properties": {"collection_times": [{"days": "Mon-Fri", "time": "4:15pm"}, {"days": "Sat", "time": "1:30pm"}, {"days": "Sun", "time": "Closed"}], "id": "4985300001", "name": "USPS COLLECTION BOX - PO LOBBY", "address": {"city": "MCMILLAN", "state": "MI", "street": "22579 STATE HIGHWAY M28", "postcode": "49853"}}},
{"geometry": {"type": "Point", "coordinates": [-86.2463540568, 45.9574789246]}, "type": "Feature", "properties": {"collection_times": [{"days": "Mon-Sat", "time": "2:30pm"}, {"days": "Sun", "time": "Closed"}], "id": "4985400000", "name": "USPS COLLECTION BOX - BLUE BOX", "address": {"city": "MANISTIQUE", "state": "MI", "street": "130 S CEDAR ST", "postcode": "49854"}}},
{"geometry": {"type": "Point", "coordinates": [-86.2466059884, 45.9553192644]}, "type": "Feature", "properties": {"collection_times": [{"days": "Mon-Sat", "time": "4:30pm"}, {"days": "Sun", "time": "Closed"}], "id": "4985400001", "name": "USPS COLLECTION BOX - BLUE BOX", "address": {"city": "MANISTIQUE", "state": "MI", "street": "301 S CEDAR ST", "postcode": "49854"}}},
{"geometry": {"type": "Point", "coordinates": [-86.2535654503, 45.9632458891]}, "type": "Feature", "properties": {"collection_times": [{"days": "Mon-Sat", "time": "2:30pm"}, {"days": "Sun", "time": "Closed"}], "id": "4985400004", "name": "USPS COLLECTION BOX - BLUE BOX", "address": {"city": "MANISTIQUE", "state": "MI", "street": "231 DEER ST", "postcode": "49854"}}},
{"geometry": {"type": "Point", "coordinates": [-86.2444101901, 45.9566452955]}, "type": "Feature", "properties": {"collection_times": [{"days": "Mon-Sat", "time": "2:30pm"}, {"days": "Sun", "time": "Closed"}], "id": "4985400007", "name": "USPS COLLECTION BOX - BLUE BOX", "address": {"city": "MANISTIQUE", "state": "MI", "street": "300 WALNUT ST", "postcode": "49854"}}},
{"geometry": {"type": "Point", "coordinates": [-86.2466059884, 45.9553192644]}, "type": "Feature", "properties": {"collection_times": [{"days": "Mon-Sat", "time": "4:30pm"}, {"days": "Sun", "time": "Closed"}], "id": "4985400008", "name": "USPS COLLECTION BOX - PO LOBBY", "address": {"city": "MANISTIQUE", "state": "MI", "street": "301 S CEDAR ST", "postcode": "49854"}}},
{"geometry": {"type": "Point", "coordinates": [-87.3954545947, 46.5436459841]}, "type": "Feature", "properties": {"collection_times": [{"days": "Mon-Sat", "time": "5:15pm"}, {"days": "Sun", "time": "Closed"}], "id": "4985500000", "name": "USPS COLLECTION BOX - BLUE BOX", "address": {"city": "MARQUETTE", "state": "MI", "street": "202 W WASHINGTON ST", "postcode": "49855"}}},
{"geometry": {"type": "Point", "coordinates": [-87.3948866836, 46.5556408062]}, "type": "Feature", "properties": {"collection_times": [{"days": "Mon-Sat", "time": "1:00pm"}, {"days": "Sun", "time": "Closed"}], "id": "4985500005", "name": "USPS COLLECTION BOX - BLUE BOX", "address": {"city": "MARQUETTE", "state": "MI", "street": "1300 N 3RD ST", "postcode": "49855"}}},
{"geometry": {"type": "Point", "coordinates": [-87.3946851798, 46.5524723819]}, "type": "Feature", "properties": {"collection_times": [{"days": "Mon-Sat", "time": "1:00pm"}, {"days": "Sun", "time": "Closed"}], "id": "4985500006", "name": "USPS COLLECTION BOX - BLUE BOX", "address": {"city": "MARQUETTE", "state": "MI", "street": "1015 N 3RD ST", "postcode": "49855"}}},
{"geometry": {"type": "Point", "coordinates": [-87.3968884961, 46.5412799713]}, "type": "Feature", "properties": {"collection_times": [{"days": "Mon-Fri", "time": "12:30pm"}, {"days": "Sat", "time": "12:00pm"}, {"days": "Sun", "time": "Closed"}], "id": "4985500007", "name": "USPS COLLECTION BOX - BLUE BOX", "address": {"city": "MARQUETTE", "state": "MI", "street": "234 W BARAGA AVE", "postcode": "49855"}}},
{"geometry": {"type": "Point", "coordinates": [-87.3996530333, 46.5470964221]}, "type": "Feature", "properties": {"collection_times": [{"days": "Mon-Sat", "time": "10:00am"}, {"days": "Sun", "time": "Closed"}], "id": "4985500009", "name": "USPS COLLECTION BOX - BLUE BOX", "address": {"city": "MARQUETTE", "state": "MI", "street": "445 W MICHIGAN ST", "postcode": "49855"}}},
{"geometry": {"type": "Point", "coordinates": [-87.426341974, 46.5462893231]}, "type": "Feature", "properties": {"collection_times": [{"days": "Mon-Fri", "time": "2:30pm"}, {"days": "Sat", "time": "12:00pm"}, {"days": "Sun", "time": "Closed"}], "id": "4985500013", "name": "USPS COLLECTION BOX - BLUE BOX", "address": {"city": "MARQUETTE", "state": "MI", "street": "1502 W WASHINGTON ST", "postcode": "49855"}}},
{"geometry": {"type": "Point", "coordinates": [-87.4619522483, 46.5494602849]}, "type": "Feature", "properties": {"collection_times": [{"days": "Mon-Fri", "time": "2:00pm"}, {"days": "Sat", "time": "12:00pm"}, {"days": "Sun", "time": "Closed"}], "id": "4985500014", "name": "USPS COLLECTION BOX - BLUE BOX", "address": {"city": "MARQUETTE", "state": "MI", "street": "3020 US HIGHWAY 41 W", "postcode": "49855"}}},
{"geometry": {"type": "Point", "coordinates": [-87.4373703526, 46.5446923294]}, "type": "Feature", "properties": {"collection_times": [{"days": "Mon-Sat", "time": "11:00am"}, {"days": "Sun", "time": "Closed"}], "id": "4985500015", "name": "USPS COLLECTION BOX - BLUE BOX", "address": {"city": "MARQUETTE", "state": "MI", "street": "200 WHETSTONE RD", "postcode": "49855"}}},
{"geometry": {"type": "Point", "coordinates": [-87.4315428236, 46.5475381804]}, "type": "Feature", "properties": {"collection_times": [{"days": "Mon-Fri", "time": "2:00pm"}, {"days": "Sat", "time": "12:00pm"}, {"days": "Sun", "time": "Closed"}], "id": "4985500016", "name": "USPS COLLECTION BOX - BLUE BOX", "address": {"city": "MARQUETTE", "state": "MI", "street": "2025 US HIGHWAY 41 W", "postcode": "49855"}}},
{"geometry": {"type": "Point", "coordinates": [-87.3928619633, 46.5431622099]}, "type": "Feature", "properties": {"collection_times": [{"days": "Mon-Fri", "time": "2:00pm"}, {"days": "Sat", "time": "12:00pm"}, {"days": "Sun", "time": "Closed"}], "id": "4985500018", "name": "USPS COLLECTION BOX - BLUE BOX", "address": {"city": "MARQUETTE", "state": "MI", "street": "101 W WASHINGTON ST", "postcode": "49855"}}},
{"geometry": {"type": "Point", "coordinates": [-87.3968091578, 46.5352828282]}, "type": "Feature", "properties": {"collection_times": [{"days": "Mon-Sat", "time": "10:00am"}, {"days": "Sun", "time": "Closed"}], "id": "4985500025", "name": "USPS COLLECTION BOX - BLUE BOX", "address": {"city": "MARQUETTE", "state": "MI", "street": "1013 CHAMPION ST", "postcode": "49855"}}},
{"geometry": {"type": "Point", "coordinates": [-87.4160995088, 46.5568762941]}, "type": "Feature", "properties": {"collection_times": [{"days": "Mon-Fri", "time": "2:30pm"}, {"days": "Sat", "time": "9:30am"}, {"days": "Sun", "time": "Closed"}], "id": "4985500032", "name": "USPS COLLECTION BOX - BLUE BOX", "address": {"city": "MARQUETTE", "state": "MI", "street": "1414 W FAIR AVE", "postcode": "49855"}}},
{"geometry": {"type": "Point", "coordinates": [-87.4097382873, 46.5270790944]}, "type": "Feature", "properties": {"collection_times": [{"days": "Mon-Sat", "time": "10:30am"}, {"days": "Sun", "time": "Closed"}], "id": "4985500034", "name": "USPS COLLECTION BOX - BLUE BOX", "address": {"city": "MARQUETTE", "state": "MI", "street": "777 PIONEER RD TRLR PARK", "postcode": "49855"}}},
{"geometry": {"type": "Point", "coordinates": [-87.3275172284, 46.4710802832]}, "type": "Feature", "properties": {"collection_times": [{"days": "Mon-Sat", "time": "10:30am"}, {"days": "Sun", "time": "Closed"}], "id": "4985500036", "name": "USPS COLLECTION BOX - BLUE BOX", "address": {"city": "MARQUETTE", "state": "MI", "street": "6000 US HIGHWAY 41 S", "postcode": "49855"}}},
{"geometry": {"type": "Point", "coordinates": [-87.4259422859, 46.5484492272]}, "type": "Feature", "properties": {"collection_times": [{"days": "Mon-Sat", "time": "11:00am"}, {"days": "Sun", "time": "Closed"}], "id": "4985500038", "name": "USPS COLLECTION BOX - BLUE BOX", "address": {"city": "MARQUETTE", "state": "MI", "street": "1536 W RIDGE ST", "postcode": "49855"}}},
{"geometry": {"type": "Point", "coordinates": [-87.3962012699, 46.5566477025]}, "type": "Feature", "properties": {"collection_times": [{"days": "Mon-Fri", "time": "1:00pm"}, {"days": "Sat", "time": "12:00pm"}, {"days": "Sun", "time": "Closed"}], "id": "4985500041", "name": "USPS COLLECTION BOX - BLUE BOX", "address": {"city": "MARQUETTE", "state": "MI", "street": "1401 PRESQUE ISLE AVE", "postcode": "49855"}}},
{"geometry": {"type": "Point", "coordinates": [-87.4657075822, 46.5494014457]}, "type": "Feature", "properties": {"collection_times": [{"days": "Mon-Fri", "time": "2:00pm"}, {"days": "Sat", "time": "12:00pm"}, {"days": "Sun", "time": "Closed"}], "id": "4985500044", "name": "USPS COLLECTION BOX - BLUE BOX", "address": {"city": "MARQUETTE", "state": "MI", "street": "3166 US HIGHWAY 41 W", "postcode": "49855"}}},
{"geometry": {"type": "Point", "coordinates": [-87.467162992, 46.5492738943]}, "type": "Feature", "properties": {"collection_times": [{"days": "Mon-Fri", "time": "2:00pm"}, {"days": "Sat", "time": "12:00pm"}, {"days": "Sun", "time": "Closed"}], "id": "4985500045", "name": "USPS COLLECTION BOX - BLUE BOX", "address": {"city": "MARQUETTE", "state": "MI", "street": "3225 US HIGHWAY 41 W", "postcode": "49855"}}},
{"geometry": {"type": "Point", "coordinates": [-87.3946611712, 46.5417332916]}, "type": "Feature", "properties": {"collection_times": [{"days": "Mon-Fri", "time": "2:00pm"}, {"days": "Sat", "time": "12:00pm"}, {"days": "Sun", "time": "Closed"}], "id": "4985500048", "name": "USPS COLLECTION BOX - BLUE BOX", "address": {"city": "MARQUETTE", "state": "MI", "street": "145 W SPRING ST", "postcode": "49855"}}},
{"geometry": {"type": "Point", "coordinates": [-87.3959160389, 46.5436671393]}, "type": "Feature", "properties": {"collection_times": [{"days": "Mon-Sat", "time": "5:15pm"}, {"days": "Sun", "time": "Closed"}], "id": "4985500051", "name": "USPS COLLECTION BOX - PO LOBBY", "address": {"city": "MARQUETTE", "state": "MI", "street": "202 W WASHINGTON ST", "postcode": "49855"}}},
{"geometry": {"type": "Point", "coordinates": [-87.4000258151, 46.5389187432]}, "type": "Feature", "properties": {"collection_times": [{"days": "Mon-Sat", "time": "12:00pm"}, {"days": "Sun", "time": "Closed"}], "id": "4985500054", "name": "USPS COLLECTION BOX - BLUE BOX", "address": {"city": "MARQUETTE", "state": "MI", "street": "580 W COLLEGE AVE", "postcode": "49855"}}},
{"geometry": {"type": "Point", "coordinates": [-87.3990732842, 46.5536591025]}, "type": "Feature", "properties": {"collection_times": [{"days": "Mon-Sat", "time": "1:00pm"}, {"days": "Sun", "time": "Closed"}], "id": "4985500055", "name": "USPS COLLECTION BOX - BLUE BOX", "address": {"city": "MARQUETTE", "state": "MI", "street": "418 W MAGNETIC ST", "postcode": "49855"}}},
{"geometry": {"type": "Point", "coordinates": [-87.4254849818, 46.4642432063]}, "type": "Feature", "properties": {"collection_times": [{"days": "Mon-Sat", "time": "11:30am"}, {"days": "Sun", "time": "Closed"}], "id": "4985500056", "name": "USPS COLLECTION BOX - BLUE BOX", "address": {"city": "MARQUETTE", "state": "MI", "street": "301 COUNTY RD 553", "postcode": "49855"}}},
{"geometry": {"type": "Point", "coordinates": [-87.3946611712, 46.5417332916]}, "type": "Feature", "properties": {"collection_times": [{"days": "Mon-Fri", "time": "2:00pm"}, {"days": "Sat", "time": "12:00pm"}, {"days": "Sun", "time": "Closed"}], "id": "4985500057", "name": "USPS COLLECTION BOX - BLUE BOX", "address": {"city": "MARQUETTE", "state": "MI", "street": "145 W SPRING ST", "postcode": "49855"}}},
{"geometry": {"type": "Point", "coordinates": [-87.3946611712, 46.5417332916]}, "type": "Feature", "properties": {"collection_times": [{"days": "Mon-Fri", "time": "2:00pm"}, {"days": "Sat", "time": "12:00pm"}, {"days": "Sun", "time": "Closed"}], "id": "4985500058", "name": "USPS COLLECTION BOX - BLUE BOX", "address": {"city": "MARQUETTE", "state": "MI", "street": "145 W SPRING ST", "postcode": "49855"}}},
{"geometry": {"type": "Point", "coordinates": [-87.3946611712, 46.5417332916]}, "type": "Feature", "properties": {"collection_times": [{"days": "Mon-Fri", "time": "2:00pm"}, {"days": "Sat", "time": "12:00pm"}, {"days": "Sun", "time": "Closed"}], "id": "4985500060", "name": "USPS COLLECTION BOX - BLUE BOX", "address": {"city": "MARQUETTE", "state": "MI", "street": "145 W SPRING ST", "postcode": "49855"}}},
{"geometry": {"type": "Point", "coordinates": [-87.3934563112, 46.5415701073]}, "type": "Feature", "properties": {"collection_times": [{"days": "Mon-Fri", "time": "2:00pm"}, {"days": "Sat", "time": "12:30pm"}, {"days": "Sun", "time": "Closed"}], "id": "4985500061", "name": "USPS COLLECTION BOX - BLUE BOX", "address": {"city": "MARQUETTE", "state": "MI", "street": "300 S FRONT ST", "postcode": "49855"}}},
{"geometry": {"type": "Point", "coordinates": [-87.6181723678, 45.1061291433]}, "type": "Feature", "properties": {"collection_times": [{"days": "Mon-Sat", "time": "11:00am"}, {"days": "Sun", "time": "Closed"}], "id": "4985800001", "name": "USPS COLLECTION BOX - BLUE BOX", "address": {"city": "MENOMINEE", "state": "MI", "street": "1401 8TH AVE", "postcode": "49858"}}},
{"geometry": {"type": "Point", "coordinates": [-87.6223648659, 45.1115321583]}, "type": "Feature", "properties": {"collection_times": [{"days": "Mon-Sat", "time": "1:00pm"}, {"days": "Sun", "time": "Closed"}], "id": "4985800006", "name": "USPS COLLECTION BOX - BLUE BOX", "address": {"city": "MENOMINEE", "state": "MI", "street": "1301 14TH AVE", "postcode": "49858"}}},
{"geometry": {"type": "Point", "coordinates": [-87.6183186623, 45.1218409817]}, "type": "Feature", "properties": {"collection_times": [{"days": "Mon-Sat", "time": "11:00am"}, {"days": "Sun", "time": "Closed"}], "id": "4985800009", "name": "USPS COLLECTION BOX - BLUE BOX", "address": {"city": "MENOMINEE", "state": "MI", "street": "2529 13TH ST", "postcode": "49858"}}},
{"geometry": {"type": "Point", "coordinates": [-87.6180714487, 45.1291770001]}, "type": "Feature", "properties": {"collection_times": [{"days": "Mon-Sat", "time": "11:00am"}, {"days": "Sun", "time": "Closed"}], "id": "4985800010", "name": "USPS COLLECTION BOX - BLUE BOX", "address": {"city": "MENOMINEE", "state": "MI", "street": "3309 13TH ST", "postcode": "49858"}}},
{"geometry": {"type": "Point", "coordinates": [-87.6122675914, 45.1369256085]}, "type": "Feature", "properties": {"collection_times": [{"days": "Mon-Sat", "time": "11:00am"}, {"days": "Sun", "time": "Closed"}], "id": "4985800012", "name": "USPS COLLECTION BOX - BLUE BOX", "address": {"city": "MENOMINEE", "state": "MI", "street": "4100 10TH ST", "postcode": "49858"}}},
{"geometry": {"type": "Point", "coordinates": [-87.6133172351, 45.1215208003]}, "type": "Feature", "properties": {"collection_times": [{"days": "Mon-Sat", "time": "10:30am"}, {"days": "Sun", "time": "Closed"}], "id": "4985800014", "name": "USPS COLLECTION BOX - BLUE BOX", "address": {"city": "MENOMINEE", "state": "MI", "street": "2511 10TH ST", "postcode": "49858"}}},
{"geometry": {"type": "Point", "coordinates": [-87.6090882914, 45.1113582117]}, "type": "Feature", "properties": {"collection_times": [{"days": "Mon-Sat", "time": "10:00am"}, {"days": "Sun", "time": "Closed"}], "id": "4985800015", "name": "USPS COLLECTION BOX - BLUE BOX", "address": {"city": "MENOMINEE", "state": "MI", "street": "1401 1ST ST", "postcode": "49858"}}},
{"geometry": {"type": "Point", "coordinates": [-87.6125447754, 45.1077153089]}, "type": "Feature", "properties": {"collection_times": [{"days": "Mon-Sat", "time": "11:00am"}, {"days": "Sun", "time": "Closed"}], "id": "4985800021", "name": "USPS COLLECTION BOX - BLUE BOX", "address": {"city": "MENOMINEE", "state": "MI", "street": "839 10TH AVE", "postcode": "49858"}}},
{"geometry": {"type": "Point", "coordinates": [-87.615994464, 45.106048793]}, "type": "Feature", "properties": {"collection_times": [{"days": "Mon-Fri", "time": "5:00pm"}, {"days": "Sat", "time": "2:45pm"}, {"days": "Sun", "time": "Closed"}], "id": "4985800023", "name": "USPS COLLECTION BOX - BLUE BOX", "address": {"city": "MENOMINEE", "state": "MI", "street": "801 11TH ST", "postcode": "49858"}}},
{"geometry": {"type": "Point", "coordinates": [-87.6162587365, 45.1064915214]}, "type": "Feature", "properties": {"collection_times": [{"days": "Mon-Fri", "time": "5:00pm"}, {"days": "Sat", "time": "2:45pm"}, {"days": "Sun", "time": "Closed"}], "id": "4985800026", "name": "USPS COLLECTION BOX - PO LOBBY", "address": {"city": "MENOMINEE", "state": "MI", "street": "801 11TH ST", "postcode": "49858"}}},
{"geometry": {"type": "Point", "coordinates": [-87.6162587365, 45.1064915214]}, "type": "Feature", "properties": {"collection_times": [{"days": "Mon-Fri", "time": "5:00pm"}, {"days": "Sat", "time": "2:45pm"}, {"days": "Sun", "time": "Closed"}], "id": "4985800027", "name": "USPS COLLECTION BOX - PO LOBBY", "address": {"city": "MENOMINEE", "state": "MI", "street": "801 11TH ST", "postcode": "49858"}}},
{"geometry": {"type": "Point", "coordinates": [-88.1085934437, 46.5357980371]}, "type": "Feature", "properties": {"collection_times": [{"days": "Mon-Fri", "time": "4:00pm"}, {"days": "Sat", "time": "10:15am"}, {"days": "Sun", "time": "Closed"}], "id": "4986100000", "name": "USPS COLLECTION BOX - BLUE BOX", "address": {"city": "MICHIGAMME", "state": "MI", "street": "113 MAIN ST", "postcode": "49861"}}},
{"geometry": {"type": "Point", "coordinates": [-88.1085934437, 46.5357980371]}, "type": "Feature", "properties": {"collection_times": [{"days": "Mon-Fri", "time": "4:00pm"}, {"days": "Sat", "time": "10:15am"}, {"days": "Sun", "time": "Closed"}], "id": "4986100001", "name": "USPS COLLECTION BOX - PO LOBBY", "address": {"city": "MICHIGAMME", "state": "MI", "street": "113 MAIN ST", "postcode": "49861"}}},
{"geometry": {"type": "Point", "coordinates": [-86.6558809249, 46.4104396918]}, "type": "Feature", "properties": {"collection_times": [{"days": "Mon-Fri", "time": "4:45pm"}, {"days": "Sat", "time": "4:00pm"}, {"days": "Sun", "time": "Closed"}], "id": "4986200000", "name": "USPS COLLECTION BOX - BLUE BOX", "address": {"city": "MUNISING", "state": "MI", "street": "220 ELM AVE", "postcode": "49862"}}},
{"geometry": {"type": "Point", "coordinates": [-86.6535808534, 46.4098650613]}, "type": "Feature", "properties": {"collection_times": [{"days": "Mon-Sat", "time": "10:30am"}, {"days": "Sun", "time": "Closed"}], "id": "4986200003", "name": "USPS COLLECTION BOX - BLUE BOX", "address": {"city": "MUNISING", "state": "MI", "street": "221 E SUPERIOR ST", "postcode": "49862"}}},
{"geometry": {"type": "Point", "coordinates": [-86.7408849543, 46.3022433353]}, "type": "Feature", "properties": {"collection_times": [{"days": "Mon-Sat", "time": "2:30pm"}, {"days": "Sun", "time": "Closed"}], "id": "4986200004", "name": "USPS COLLECTION BOX - BLUE BOX", "address": {"city": "MUNISING", "state": "MI", "street": "425 E HWY M-28", "postcode": "49862"}}},
{"geometry": {"type": "Point", "coordinates": [-86.6583765669, 46.4083352129]}, "type": "Feature", "properties": {"collection_times": [{"days": "Mon-Sat", "time": "2:30pm"}, {"days": "Sun", "time": "Closed"}], "id": "4986200007", "name": "USPS COLLECTION BOX - BLUE BOX", "address": {"city": "MUNISING", "state": "MI", "street": "101 COURT ST", "postcode": "49862"}}},
{"geometry": {"type": "Point", "coordinates": [-86.6558809249, 46.4104396918]}, "type": "Feature", "properties": {"collection_times": [{"days": "Mon-Fri", "time": "4:45pm"}, {"days": "Sat", "time": "4:00pm"}, {"days": "Sun", "time": "Closed"}], "id": "4986200008", "name": "USPS COLLECTION BOX - PO LOBBY", "address": {"city": "MUNISING", "state": "MI", "street": "220 ELM AVE", "postcode": "49862"}}},
{"geometry": {"type": "Point", "coordinates": [-87.5530994392, 45.5867772058]}, "type": "Feature", "properties": {"collection_times": [{"days": "Mon-Fri", "time": "3:00pm"}, {"days": "Sat", "time": "9:45am"}, {"days": "Sun", "time": "Closed"}], "id": "4986300000", "name": "USPS COLLECTION BOX - BLUE BOX", "address": {"city": "NADEAU", "state": "MI", "street": "N13755 1ST ST", "postcode": "49863"}}},
{"geometry": {"type": "Point", "coordinates": [-87.6035278805, 46.5111224188]}, "type": "Feature", "properties": {"collection_times": [{"days": "Mon-Sat", "time": "2:00pm"}, {"days": "Sun", "time": "Closed"}], "id": "4986600006", "name": "USPS COLLECTION BOX - BLUE BOX", "address": {"city": "NEGAUNEE", "state": "MI", "street": "490 US HIGHWAY 41", "postcode": "49866"}}},
{"geometry": {"type": "Point", "coordinates": [-87.6116491373, 46.4998069408]}, "type": "Feature", "properties": {"collection_times": [{"days": "Mon-Fri", "time": "5:00pm"}, {"days": "Sat", "time": "11:00am"}, {"days": "Sun", "time": "Closed"}], "id": "4986600008", "name": "USPS COLLECTION BOX - BLUE BOX", "address": {"city": "NEGAUNEE", "state": "MI", "street": "319 W CASE ST", "postcode": "49866"}}},
{"geometry": {"type": "Point", "coordinates": [-87.6116491373, 46.4998069408]}, "type": "Feature", "properties": {"collection_times": [{"days": "Mon-Fri", "time": "5:00pm"}, {"days": "Sat", "time": "11:00am"}, {"days": "Sun", "time": "Closed"}], "id": "4986600009", "name": "USPS COLLECTION BOX - BLUE BOX", "address": {"city": "NEGAUNEE", "state": "MI", "street": "319 W CASE ST", "postcode": "49866"}}},
{"geometry": {"type": "Point", "coordinates": [-87.611569996, 46.4998630025]}, "type": "Feature", "properties": {"collection_times": [{"days": "Mon-Fri", "time": "5:00pm"}, {"days": "Sat", "time": "11:00am"}, {"days": "Sun", "time": "Closed"}], "id": "4986600010", "name": "USPS COLLECTION BOX - PO LOBBY", "address": {"city": "NEGAUNEE", "state": "MI", "street": "304 W CASE ST", "postcode": "49866"}}},
{"geometry": {"type": "Point", "coordinates": [-85.5079553825, 46.3549863607]}, "type": "Feature", "properties": {"collection_times": [{"days": "Mon-Fri", "time": "4:00pm"}, {"days": "Sat", "time": "12:30pm"}, {"days": "Sun", "time": "Closed"}], "id": "4986800000", "name": "USPS COLLECTION BOX - BLUE BOX", "address": {"city": "NEWBERRY", "state": "MI", "street": "216 E JOHN ST", "postcode": "49868"}}},
{"geometry": {"type": "Point", "coordinates": [-85.5157046459, 46.3528144025]}, "type": "Feature", "properties": {"collection_times": [{"days": "Mon-Sat", "time": "2:30pm"}, {"days": "Sun", "time": "Closed"}], "id": "4986800001", "name": "USPS COLLECTION BOX - BLUE BOX", "address": {"city": "NEWBERRY", "state": "MI", "street": "502 W HARRIE ST", "postcode": "49868"}}},
{"geometry": {"type": "Point", "coordinates": [-85.5079553825, 46.3549863607]}, "type": "Feature", "properties": {"collection_times": [{"days": "Mon-Fri", "time": "4:00pm"}, {"days": "Sat", "time": "12:30pm"}, {"days": "Sun", "time": "Closed"}], "id": "4986800002", "name": "USPS COLLECTION BOX - BLUE BOX", "address": {"city": "NEWBERRY", "state": "MI", "street": "216 E JOHN ST", "postcode": "49868"}}},
{"geometry": {"type": "Point", "coordinates": [-85.5098811544, 46.353635177]}, "type": "Feature", "properties": {"collection_times": [{"days": "Mon-Sat", "time": "2:30pm"}, {"days": "Sun", "time": "Closed"}], "id": "4986800003", "name": "USPS COLLECTION BOX - BLUE BOX", "address": {"city": "NEWBERRY", "state": "MI", "street": "414 NEWBERRY AVE", "postcode": "49868"}}},
{"geometry": {"type": "Point", "coordinates": [-85.5096103331, 46.3342535761]}, "type": "Feature", "properties": {"collection_times": [{"days": "Mon-Sat", "time": "2:30pm"}, {"days": "Sun", "time": "Closed"}], "id": "4986800004", "name": "USPS COLLECTION BOX - BLUE BOX", "address": {"city": "NEWBERRY", "state": "MI", "street": "7296 STATE HIGHWAY M123", "postcode": "49868"}}},
{"geometry": {"type": "Point", "coordinates": [-85.5079553825, 46.3549863607]}, "type": "Feature", "properties": {"collection_times": [{"days": "Mon-Fri", "time": "4:00pm"}, {"days": "Sat", "time": "12:30pm"}, {"days": "Sun", "time": "Closed"}], "id": "4986800005", "name": "USPS COLLECTION BOX - PO LOBBY", "address": {"city": "NEWBERRY", "state": "MI", "street": "216 E JOHN ST", "postcode": "49868"}}},
{"geometry": {"type": "Point", "coordinates": [-87.9073306438, 45.7851611923]}, "type": "Feature", "properties": {"collection_times": [{"days": "Mon-Fri", "time": "4:30pm"}, {"days": "Sat", "time": "10:00am"}, {"days": "Sun", "time": "Closed"}], "id": "4987000000", "name": "USPS COLLECTION BOX - BLUE BOX", "address": {"city": "NORWAY", "state": "MI", "street": "520 MAIN ST", "postcode": "49870"}}},
{"geometry": {"type": "Point", "coordinates": [-87.9051674645, 45.7893574994]}, "type": "Feature", "properties": {"collection_times": [{"days": "Mon-Sat", "time": "12:00pm"}, {"days": "Sun", "time": "Closed"}], "id": "4987000002", "name": "USPS COLLECTION BOX - BLUE BOX", "address": {"city": "NORWAY", "state": "MI", "street": "1102 E 7TH AVE", "postcode": "49870"}}},
{"geometry": {"type": "Point", "coordinates": [-87.9074875378, 45.7866750564]}, "type": "Feature", "properties": {"collection_times": [{"days": "Mon-Sat", "time": "1:00pm"}, {"days": "Sun", "time": "Closed"}], "id": "4987000005", "name": "USPS COLLECTION BOX - BLUE BOX", "address": {"city": "NORWAY", "state": "MI", "street": "645 MAIN ST", "postcode": "49870"}}},
{"geometry": {"type": "Point", "coordinates": [-87.9073306438, 45.7851611923]}, "type": "Feature", "properties": {"collection_times": [{"days": "Mon-Fri", "time": "4:30pm"}, {"days": "Sat", "time": "10:00am"}, {"days": "Sun", "time": "Closed"}], "id": "4987000009", "name": "USPS COLLECTION BOX - PO LOBBY", "address": {"city": "NORWAY", "state": "MI", "street": "520 MAIN ST", "postcode": "49870"}}},
{"geometry": {"type": "Point", "coordinates": [-87.9073306438, 45.7851611923]}, "type": "Feature", "properties": {"collection_times": [{"days": "Mon-Fri", "time": "4:30pm"}, {"days": "Sat", "time": "10:00am"}, {"days": "Sun", "time": "Closed"}], "id": "4987000010", "name": "USPS COLLECTION BOX - PO LOBBY", "address": {"city": "NORWAY", "state": "MI", "street": "520 MAIN ST", "postcode": "49870"}}},
{"geometry": {"type": "Point", "coordinates": [-87.5933948921, 46.4408618841]}, "type": "Feature", "properties": {"collection_times": [{"days": "Mon-Fri", "time": "4:30pm"}, {"days": "Sat", "time": "2:00pm"}, {"days": "Sun", "time": "Closed"}], "id": "4987100000", "name": "USPS COLLECTION BOX - BLUE BOX", "address": {"city": "PALMER", "state": "MI", "street": "100 NICHOLAS AVE", "postcode": "49871"}}},
{"geometry": {"type": "Point", "coordinates": [-87.5933948921, 46.4408618841]}, "type": "Feature", "properties": {"collection_times": [{"days": "Mon-Fri", "time": "4:30pm"}, {"days": "Sat", "time": "2:00pm"}, {"days": "Sun", "time": "Closed"}], "id": "4987100001", "name": "USPS COLLECTION BOX - PO LOBBY", "address": {"city": "PALMER", "state": "MI", "street": "100 NICHOLAS AVE", "postcode": "49871"}}},
{"geometry": {"type": "Point", "coordinates": [-87.0710682873, 45.9776408459]}, "type": "Feature", "properties": {"collection_times": [{"days": "Mon-Fri", "time": "4:00pm"}, {"days": "Sat", "time": "10:45am"}, {"days": "Sun", "time": "Closed"}], "id": "4987200000", "name": "USPS COLLECTION BOX - BLUE BOX", "address": {"city": "PERKINS", "state": "MI", "street": "11892 STATE HIGHWAY M35", "postcode": "49872"}}},
{"geometry": {"type": "Point", "coordinates": [-87.0710682873, 45.9776408459]}, "type": "Feature", "properties": {"collection_times": [{"days": "Mon-Fri", "time": "4:00pm"}, {"days": "Sat", "time": "10:45am"}, {"days": "Sun", "time": "Closed"}], "id": "4987200001", "name": "USPS COLLECTION BOX - PO LOBBY", "address": {"city": "PERKINS", "state": "MI", "street": "11892 STATE HIGHWAY M35", "postcode": "49872"}}},
{"geometry": {"type": "Point", "coordinates": [-87.5218322235, 45.8617658826]}, "type": "Feature", "properties": {"collection_times": [{"days": "Mon-Fri", "time": "3:15pm"}, {"days": "Sat", "time": "10:45am"}, {"days": "Sun", "time": "Closed"}], "id": "4987300000", "name": "USPS COLLECTION BOX - BLUE BOX", "address": {"city": "PERRONVILLE", "state": "MI", "street": "W625 STATE HIGHWAY M69", "postcode": "49873"}}},
{"geometry": {"type": "Point", "coordinates": [-87.5218322235, 45.8617658826]}, "type": "Feature", "properties": {"collection_times": [{"days": "Mon-Fri", "time": "12:00pm"}, {"days": "Sat", "time": "10:45am"}, {"days": "Sun", "time": "Closed"}], "id": "4987300001", "name": "USPS COLLECTION BOX - PO LOBBY", "address": {"city": "PERRONVILLE", "state": "MI", "street": "W625 STATE HIGHWAY M69", "postcode": "49873"}}},
{"geometry": {"type": "Point", "coordinates": [-87.518296865, 45.684306541]}, "type": "Feature", "properties": {"collection_times": [{"days": "Mon-Fri", "time": "3:45pm"}, {"days": "Sat", "time": "10:00am"}, {"days": "Sun", "time": "Closed"}], "id": "4987400000", "name": "USPS COLLECTION BOX - BLUE BOX", "address": {"city": "POWERS", "state": "MI", "street": "W3804 US HIGHWAY 2/41", "postcode": "49874"}}},
{"geometry": {"type": "Point", "coordinates": [-87.518296865, 45.684306541]}, "type": "Feature", "properties": {"collection_times": [{"days": "Mon-Fri", "time": "3:00pm"}, {"days": "Sat", "time": "10:00am"}, {"days": "Sun", "time": "Closed"}], "id": "4987400001", "name": "USPS COLLECTION BOX - PO LOBBY", "address": {"city": "POWERS", "state": "MI", "street": "W3804 US HIGHWAY 2/41", "postcode": "49874"}}},
{"geometry": {"type": "Point", "coordinates": [-87.9883510947, 45.8058348922]}, "type": "Feature", "properties": {"collection_times": [{"days": "Mon-Fri", "time": "4:15pm"}, {"days": "Sat", "time": "10:00am"}, {"days": "Sun", "time": "Closed"}], "id": "4987600000", "name": "USPS COLLECTION BOX - BLUE BOX", "address": {"city": "QUINNESEC", "state": "MI", "street": "1214 QUINNESEC ST", "postcode": "49876"}}},
{"geometry": {"type": "Point", "coordinates": [-87.9883510947, 45.8058348922]}, "type": "Feature", "properties": {"collection_times": [{"days": "Mon-Fri", "time": "4:15pm"}, {"days": "Sat", "time": "10:00am"}, {"days": "Sun", "time": "Closed"}], "id": "4987600001", "name": "USPS COLLECTION BOX - PO LOBBY", "address": {"city": "QUINNESEC", "state": "MI", "street": "1214 QUINNESEC ST", "postcode": "49876"}}},
{"geometry": {"type": "Point", "coordinates": [-86.9671648411, 45.9253548986]}, "type": "Feature", "properties": {"collection_times": [{"days": "Mon-Fri", "time": "4:00pm"}, {"days": "Sat", "time": "11:30am"}, {"days": "Sun", "time": "Closed"}], "id": "4987800000", "name": "USPS COLLECTION BOX - BLUE BOX", "address": {"city": "RAPID RIVER", "state": "MI", "street": "10467 S MAIN ST", "postcode": "49878"}}},
{"geometry": {"type": "Point", "coordinates": [-86.9761206844, 45.9266357418]}, "type": "Feature", "properties": {"collection_times": [{"days": "Mon-Sat", "time": "9:45am"}, {"days": "Sun", "time": "Closed"}], "id": "4987800001", "name": "USPS COLLECTION BOX - BLUE BOX", "address": {"city": "RAPID RIVER", "state": "MI", "street": "7668 US HIGHWAY 2", "postcode": "49878"}}},
{"geometry": {"type": "Point", "coordinates": [-86.9671648411, 45.9253548986]}, "type": "Feature", "properties": {"collection_times": [{"days": "Mon-Fri", "time": "4:00pm"}, {"days": "Sat", "time": "11:30am"}, {"days": "Sun", "time": "Closed"}], "id": "4987800002", "name": "USPS COLLECTION BOX - PO LOBBY", "address": {"city": "RAPID RIVER", "state": "MI", "street": "10467 S MAIN ST", "postcode": "49878"}}},
{"geometry": {"type": "Point", "coordinates": [-88.045917191, 46.3750258892]}, "type": "Feature", "properties": {"collection_times": [{"days": "Mon-Fri", "time": "4:00pm"}, {"days": "Sat", "time": "10:00am"}, {"days": "Sun", "time": "Closed"}], "id": "4987900000", "name": "USPS COLLECTION BOX - BLUE BOX", "address": {"city": "REPUBLIC", "state": "MI", "street": "415 2ND ST", "postcode": "49879"}}},
{"geometry": {"type": "Point", "coordinates": [-88.045917191, 46.3750258892]}, "type": "Feature", "properties": {"collection_times": [{"days": "Mon-Fri", "time": "4:00pm"}, {"days": "Sat", "time": "10:00am"}, {"days": "Sun", "time": "Closed"}], "id": "4987900001", "name": "USPS COLLECTION BOX - PO LOBBY", "address": {"city": "REPUBLIC", "state": "MI", "street": "415 2ND ST", "postcode": "49879"}}},
{"geometry": {"type": "Point", "coordinates": [-87.1667268721, 46.0686423255]}, "type": "Feature", "properties": {"collection_times": [{"days": "Mon-Fri", "time": "4:00pm"}, {"days": "Sat", "time": "10:00am"}, {"days": "Sun", "time": "Closed"}], "id": "4988000000", "name": "USPS COLLECTION BOX - BLUE BOX", "address": {"city": "ROCK", "state": "MI", "street": "3980 W MAPLE RIDGE 37TH RD", "postcode": "49880"}}},
{"geometry": {"type": "Point", "coordinates": [-87.1667268721, 46.0686423255]}, "type": "Feature", "properties": {"collection_times": [{"days": "Mon-Fri", "time": "11:15am"}, {"days": "Sat", "time": "10:00am"}, {"days": "Sun", "time": "Closed"}], "id": "4988000001", "name": "USPS COLLECTION BOX - PO LOBBY", "address": {"city": "ROCK", "state": "MI", "street": "3980 W MAPLE RIDGE 37TH RD", "postcode": "49880"}}},
{"geometry": {"type": "Point", "coordinates": [-88.078826435, 46.088376814]}, "type": "Feature", "properties": {"collection_times": [{"days": "Mon-Fri", "time": "4:00pm"}, {"days": "Sat", "time": "10:30am"}, {"days": "Sun", "time": "Closed"}], "id": "4988100000", "name": "USPS COLLECTION BOX - BLUE BOX", "address": {"city": "SAGOLA", "state": "MI", "street": "302 1ST ST", "postcode": "49881"}}},
{"geometry": {"type": "Point", "coordinates": [-88.078826435, 46.088376814]}, "type": "Feature", "properties": {"collection_times": [{"days": "Mon-Fri", "time": "4:00pm"}, {"days": "Sat", "time": "10:30am"}, {"days": "Sun", "time": "Closed"}], "id": "4988100001", "name": "USPS COLLECTION BOX - PO LOBBY", "address": {"city": "SAGOLA", "state": "MI", "street": "302 1ST ST", "postcode": "49881"}}},
{"geometry": {"type": "Point", "coordinates": [-86.051878104, 46.4213306935]}, "type": "Feature", "properties": {"collection_times": [{"days": "Mon-Fri", "time": "4:30pm"}, {"days": "Sat", "time": "10:45am"}, {"days": "Sun", "time": "Closed"}], "id": "4988300000", "name": "USPS COLLECTION BOX - BLUE BOX", "address": {"city": "SENEY", "state": "MI", "street": "10790N GRAND ST", "postcode": "49883"}}},
{"geometry": {"type": "Point", "coordinates": [-86.051878104, 46.4213306935]}, "type": "Feature", "properties": {"collection_times": [{"days": "Mon-Fri", "time": "11:45am"}, {"days": "Sat", "time": "10:45am"}, {"days": "Sun", "time": "Closed"}], "id": "4988300001", "name": "USPS COLLECTION BOX - PO LOBBY", "address": {"city": "SENEY", "state": "MI", "street": "10790N GRAND ST", "postcode": "49883"}}},
{"geometry": {"type": "Point", "coordinates": [-86.4490969155, 46.3989448049]}, "type": "Feature", "properties": {"collection_times": [{"days": "Mon-Fri", "time": "4:30pm"}, {"days": "Sat", "time": "10:30am"}, {"days": "Sun", "time": "Closed"}], "id": "4988400000", "name": "USPS COLLECTION BOX - BLUE BOX", "address": {"city": "SHINGLETON", "state": "MI", "street": "E12503 STATE HIGHWAY M28", "postcode": "49884"}}},
{"geometry": {"type": "Point", "coordinates": [-86.4490969155, 46.3989448049]}, "type": "Feature", "properties": {"collection_times": [{"days": "Mon-Fri", "time": "4:30pm"}, {"days": "Sat", "time": "10:30am"}, {"days": "Sun", "time": "Closed"}], "id": "4988400001", "name": "USPS COLLECTION BOX - PO LOBBY", "address": {"city": "SHINGLETON", "state": "MI", "street": "E12503 STATE HIGHWAY M28", "postcode": "49884"}}},
{"geometry": {"type": "Point", "coordinates": [-87.2382635196, 46.374851636]}, "type": "Feature", "properties": {"collection_times": [{"days": "Mon-Fri", "time": "4:00pm"}, {"days": "Sat", "time": "11:00am"}, {"days": "Sun", "time": "Closed"}], "id": "4988500000", "name": "USPS COLLECTION BOX - BLUE BOX", "address": {"city": "SKANDIA", "state": "MI", "street": "224 KREIGER DR", "postcode": "49885"}}},
{"geometry": {"type": "Point", "coordinates": [-87.1990388956, 46.3477689162]}, "type": "Feature", "properties": {"collection_times": [{"days": "Mon-Fri", "time": "4:00pm"}, {"days": "Sat", "time": "11:00am"}, {"days": "Sun", "time": "Closed"}], "id": "4988500003", "name": "USPS COLLECTION BOX - PO LOBBY", "address": {"city": "SKANDIA", "state": "MI", "street": "224 KREIGER DR", "postcode": "49885"}}},
{"geometry": {"type": "Point", "coordinates": [-87.512725082, 45.696787475]}, "type": "Feature", "properties": {"collection_times": [{"days": "Mon-Fri", "time": "3:45pm"}, {"days": "Sat", "time": "8:45am"}, {"days": "Sun", "time": "Closed"}], "id": "4988600000", "name": "USPS COLLECTION BOX - BLUE BOX", "address": {"city": "SPALDING", "state": "MI", "street": "N16118 CEDAR ST", "postcode": "49886"}}},
{"geometry": {"type": "Point", "coordinates": [-87.512725082, 45.696787475]}, "type": "Feature", "properties": {"collection_times": [{"days": "Mon-Fri", "time": "3:45pm"}, {"days": "Sat", "time": "8:45am"}, {"days": "Sun", "time": "Closed"}], "id": "4988600001", "name": "USPS COLLECTION BOX - PO LOBBY", "address": {"city": "SPALDING", "state": "MI", "street": "N16118 CEDAR ST", "postcode": "49886"}}},
{"geometry": {"type": "Point", "coordinates": [-87.6107193435, 45.4152111837]}, "type": "Feature", "properties": {"collection_times": [{"days": "Mon-Fri", "time": "3:45pm"}, {"days": "Sat", "time": "11:00am"}, {"days": "Sun", "time": "Closed"}], "id": "4988700000", "name": "USPS COLLECTION BOX - BLUE BOX", "address": {"city": "STEPHENSON", "state": "MI", "street": "W520 SAMUEL ST", "postcode": "49887"}}},
{"geometry": {"type": "Point", "coordinates": [-87.6107193435, 45.4152111837]}, "type": "Feature", "properties": {"collection_times": [{"days": "Mon-Fri", "time": "3:45pm"}, {"days": "Sat", "time": "11:00am"}, {"days": "Sun", "time": "Closed"}], "id": "4988700002", "name": "USPS COLLECTION BOX - PO LOBBY", "address": {"city": "STEPHENSON", "state": "MI", "street": "W520 SAMUEL ST", "postcode": "49887"}}},
{"geometry": {"type": "Point", "coordinates": [-86.9759066921, 46.1949586237]}, "type": "Feature", "properties": {"collection_times": [{"days": "Mon-Fri", "time": "4:15pm"}, {"days": "Sat", "time": "11:15am"}, {"days": "Sun", "time": "Closed"}], "id": "4989100000", "name": "USPS COLLECTION BOX - BLUE BOX", "address": {"city": "TRENARY", "state": "MI", "street": "E2993 STATE HIGHWAY M67", "postcode": "49891"}}},
{"geometry": {"type": "Point", "coordinates": [-86.9759066921, 46.1949586237]}, "type": "Feature", "properties": {"collection_times": [{"days": "Mon-Fri", "time": "12:00pm"}, {"days": "Sat", "time": "11:15am"}, {"days": "Sun", "time": "Closed"}], "id": "4989100001", "name": "USPS COLLECTION BOX - PO LOBBY", "address": {"city": "TRENARY", "state": "MI", "street": "E2993 STATE HIGHWAY M67", "postcode": "49891"}}},
{"geometry": {"type": "Point", "coordinates": [-87.8703261206, 45.7824809052]}, "type": "Feature", "properties": {"collection_times": [{"days": "Mon-Fri", "time": "4:00pm"}, {"days": "Sat", "time": "9:45am"}, {"days": "Sun", "time": "Closed"}], "id": "4989200000", "name": "USPS COLLECTION BOX - BLUE BOX", "address": {"city": "VULCAN", "state": "MI", "street": "W4994 CENTRAL AVE", "postcode": "49892"}}},
{"geometry": {"type": "Point", "coordinates": [-87.8703261206, 45.7824809052]}, "type": "Feature", "properties": {"collection_times": [{"days": "Mon-Fri", "time": "4:15pm"}, {"days": "Sat", "time": "9:45am"}, {"days": "Sun", "time": "Closed"}], "id": "4989200001", "name": "USPS COLLECTION BOX - PO LOBBY", "address": {"city": "VULCAN", "state": "MI", "street": "W4994 CENTRAL AVE", "postcode": "49892"}}},
{"geometry": {"type": "Point", "coordinates": [-87.6148495805, 45.3282953239]}, "type": "Feature", "properties": {"collection_times": [{"days": "Mon-Fri", "time": "4:15pm"}, {"days": "Sat", "time": "10:00am"}, {"days": "Sun", "time": "Closed"}], "id": "4989300000", "name": "USPS COLLECTION BOX - BLUE BOX", "address": {"city": "WALLACE", "state": "MI", "street": "N5965 US HIGHWAY 41", "postcode": "49893"}}},
{"geometry": {"type": "Point", "coordinates": [-87.6148495805, 45.3282953239]}, "type": "Feature", "properties": {"collection_times": [{"days": "Mon-Fri", "time": "4:15pm"}, {"days": "Sat", "time": "10:00am"}, {"days": "Sun", "time": "Closed"}], "id": "4989300001", "name": "USPS COLLECTION BOX - PO LOBBY", "address": {"city": "WALLACE", "state": "MI", "street": "N5965 US HIGHWAY 41", "postcode": "49893"}}},
{"geometry": {"type": "Point", "coordinates": [-87.0815341895, 45.7771078388]}, "type": "Feature", "properties": {"collection_times": [{"days": "Mon-Fri", "time": "4:30pm"}, {"days": "Sat", "time": "11:00am"}, {"days": "Sun", "time": "Closed"}], "id": "4989400000", "name": "USPS COLLECTION BOX - BLUE BOX", "address": {"city": "WELLS", "state": "MI", "street": "5659 MAIN ST", "postcode": "49894"}}},
{"geometry": {"type": "Point", "coordinates": [-87.0815341895, 45.7771078388]}, "type": "Feature", "properties": {"collection_times": [{"days": "Mon-Fri", "time": "4:30pm"}, {"days": "Sat", "time": "11:00am"}, {"days": "Sun", "time": "Closed"}], "id": "4989400001", "name": "USPS COLLECTION BOX - PO LOBBY", "address": {"city": "WELLS", "state": "MI", "street": "5659 MAIN ST", "postcode": "49894"}}},
{"geometry": {"type": "Point", "coordinates": [-86.614299271, 46.381243253]}, "type": "Feature", "properties": {"collection_times": [{"days": "Mon-Fri", "time": "3:00pm"}, {"days": "Sat", "time": "10:30am"}, {"days": "Sun", "time": "Closed"}], "id": "4989500000", "name": "USPS COLLECTION BOX - BLUE BOX", "address": {"city": "WETMORE", "state": "MI", "street": "E9714 STATE HIGHWAY M28", "postcode": "49895"}}},
{"geometry": {"type": "Point", "coordinates": [-86.614299271, 46.381243253]}, "type": "Feature", "properties": {"collection_times": [{"days": "Mon-Fri", "time": "3:00pm"}, {"days": "Sat", "time": "10:30am"}, {"days": "Sun", "time": "Closed"}], "id": "4989500001", "name": "USPS COLLECTION BOX - PO LOBBY", "address": {"city": "WETMORE", "state": "MI", "street": "E9714 STATE HIGHWAY M28", "postcode": "49895"}}},
{"geometry": {"type": "Point", "coordinates": [-87.436624372, 45.705286199]}, "type": "Feature", "properties": {"collection_times": [{"days": "Mon-Fri", "time": "3:45pm"}, {"days": "Sat", "time": "9:30am"}, {"days": "Sun", "time": "Closed"}], "id": "4989600000", "name": "USPS COLLECTION BOX - BLUE BOX", "address": {"city": "WILSON", "state": "MI", "street": "W2261 US HIGHWAY 2 41", "postcode": "49896"}}},
{"geometry": {"type": "Point", "coordinates": [-87.436624372, 45.705286199]}, "type": "Feature", "properties": {"collection_times": [{"days": "Mon-Fri", "time": "3:45pm"}, {"days": "Sat", "time": "9:30am"}, {"days": "Sun", "time": "Closed"}], "id": "4989600001", "name": "USPS COLLECTION BOX - PO LOBBY", "address": {"city": "WILSON", "state": "MI", "street": "W2261 US HIGHWAY 2 41", "postcode": "49896"}}}
]}
