{"type": "FeatureCollection", "features": [
{"geometry": {"type": "Point", "coordinates": [-88.396588107, 47.296938014]}, "type": "Feature", "properties": {"collection_times": [{"days": "Mon-Fri", "time": "3:30pm"}, {"days": "Sat", "time": "11:30am"}, {"days": "Sun", "time": "Closed"}], "id": "4990100000", "name": "USPS COLLECTION BOX - BLUE BOX", "address": {"city": "AHMEEK", "state": "MI", "street": "2 VIVIAN ST", "postcode": "49901"}}},
{"geometry": {"type": "Point", "coordinates": [-88.396588107, 47.296938014]}, "type": "Feature", "properties": {"collection_times": [{"days": "Mon-Fri", "time": "2:00pm"}, {"days": "Sat", "time": "11:30am"}, {"days": "Sun", "time": "Closed"}], "id": "4990100001", "name": "USPS COLLECTION BOX - PO LOBBY", "address": {"city": "AHMEEK", "state": "MI", "street": "2 VIVIAN ST", "postcode": "49901"}}},
{"geometry": {"type": "Point", "coordinates": [-88.3780810983, 46.0435368548]}, "type": "Feature", "properties": {"collection_times": [{"days": "Mon-Fri", "time": "4:00pm"}, {"days": "Sat", "time": "9:15am"}, {"days": "Sun", "time": "Closed"}], "id": "4990200000", "name": "USPS COLLECTION BOX - BLUE BOX", "address": {"city": "ALPHA", "state": "MI", "street": "405 MAIN ST", "postcode": "49902"}}},
{"geometry": {"type": "Point", "coordinates": [-88.3780810983, 46.0435368548]}, "type": "Feature", "properties": {"collection_times": [{"days": "Mon-Fri", "time": "4:00pm"}, {"days": "Sat", "time": "9:15am"}, {"days": "Sun", "time": "Closed"}], "id": "4990200001", "name": "USPS COLLECTION BOX - PO LOBBY", "address": {"city": "ALPHA", "state": "MI", "street": "405 MAIN ST", "postcode": "49902"}}},
{"geometry": {"type": "Point", "coordinates": [-88.447115655, 46.234236507]}, "type": "Feature", "properties": {"collection_times": [{"days": "Mon-Fri", "time": "4:15pm"}, {"days": "Sat", "time": "9:45am"}, {"days": "Sun", "time": "Closed"}], "id": "4990300000", "name": "USPS COLLECTION BOX - BLUE BOX", "address": {"city": "AMASA", "state": "MI", "street": "209 MAPLE AVE", "postcode": "49903"}}},
{"geometry": {"type": "Point", "coordinates": [-88.447115655, 46.234236507]}, "type": "Feature", "properties": {"collection_times": [{"days": "Mon-Fri", "time": "4:15pm"}, {"days": "Sat", "time": "9:45am"}, {"days": "Sun", "time": "Closed"}], "id": "4990300001", "name": "USPS COLLECTION BOX - PO LOBBY", "address": {"city": "AMASA", "state": "MI", "street": "209 MAPLE AVE", "postcode": "49903"}}},
{"geometry": {"type": "Point", "coordinates": [-88.6264995766, 47.0975497341]}, "type": "Feature", "properties": {"collection_times": [{"days": "Mon-Fri", "time": "4:00pm"}, {"days": "Sat", "time": "10:45am"}, {"days": "Sun", "time": "Closed"}], "id": "4990500000", "name": "USPS COLLECTION BOX - BLUE BOX", "address": {"city": "ATLANTIC MINE", "state": "MI", "street": "46920 ERICKSON DR", "postcode": "49905"}}},
{"geometry": {"type": "Point", "coordinates": [-88.6264995766, 47.0975497341]}, "type": "Feature", "properties": {"collection_times": [{"days": "Mon-Fri", "time": "1:00pm"}, {"days": "Sat", "time": "10:45am"}, {"days": "Sun", "time": "Closed"}], "id": "4990500001", "name": "USPS COLLECTION BOX - PO LOBBY", "address": {"city": "ATLANTIC MINE", "state": "MI", "street": "46920 ERICKSON DR", "postcode": "49905"}}},
{"geometry": {"type": "Point", "coordinates": [-88.476595508, 46.7876364]}, "type": "Feature", "properties": {"collection_times": [{"days": "Mon-Fri", "time": "4:15pm"}, {"days": "Sat", "time": "11:45am"}, {"days": "Sun", "time": "Closed"}], "id": "4990800000", "name": "USPS COLLECTION BOX - BLUE BOX", "address": {"city": "BARAGA", "state": "MI", "street": "404 US HIGHWAY 41 N", "postcode": "49908"}}},
{"geometry": {"type": "Point", "coordinates": [-88.5090689518, 46.812720024]}, "type": "Feature", "properties": {"collection_times": [{"days": "Mon-Fri", "time": "12:00pm"}, {"days": "Sat-Sun", "time": "Closed"}], "id": "4990800001", "name": "USPS COLLECTION BOX - BLUE BOX", "address": {"city": "BARAGA", "state": "MI", "street": "16449 MICHIGAN AVE", "postcode": "49908"}}},
{"geometry": {"type": "Point", "coordinates": [-88.4872349708, 46.7782139164]}, "type": "Feature", "properties": {"collection_times": [{"days": "Mon-Fri", "time": "12:15pm"}, {"days": "Sat", "time": "12:00pm"}, {"days": "Sun", "time": "Closed"}], "id": "4990800002", "name": "USPS COLLECTION BOX - BLUE BOX", "address": {"city": "BARAGA", "state": "MI", "street": "204 US HIGHWAY 41 N", "postcode": "49908"}}},
{"geometry": {"type": "Point", "coordinates": [-88.476595508, 46.7876364]}, "type": "Feature", "properties": {"collection_times": [{"days": "Mon-Fri", "time": "4:30pm"}, {"days": "Sat", "time": "12:00pm"}, {"days": "Sun", "time": "Closed"}], "id": "4990800004", "name": "USPS COLLECTION BOX - PO LOBBY", "address": {"city": "BARAGA", "state": "MI", "street": "404 US HIGHWAY 41 N", "postcode": "49908"}}},
{"geometry": {"type": "Point", "coordinates": [-88.476595508, 46.7876364]}, "type": "Feature", "properties": {"collection_times": [{"days": "Mon-Fri", "time": "4:30pm"}, {"days": "Sat", "time": "12:00pm"}, {"days": "Sun", "time": "Closed"}], "id": "4990800005", "name": "USPS COLLECTION BOX - PO LOBBY", "address": {"city": "BARAGA", "state": "MI", "street": "404 US HIGHWAY 41 N", "postcode": "49908"}}},
{"geometry": {"type": "Point", "coordinates": [-89.5679834014, 46.590759819]}, "type": "Feature", "properties": {"collection_times": [{"days": "Mon-Fri", "time": "4:45pm"}, {"days": "Sat", "time": "10:45am"}, {"days": "Sun", "time": "Closed"}], "id": "4991000000", "name": "USPS COLLECTION BOX - BLUE BOX", "address": {"city": "BERGLAND", "state": "MI", "street": "107 PINE ST", "postcode": "49910"}}},
{"geometry": {"type": "Point", "coordinates": [-89.5679834014, 46.590759819]}, "type": "Feature", "properties": {"collection_times": [{"days": "Mon-Fri", "time": "4:45pm"}, {"days": "Sat", "time": "10:45am"}, {"days": "Sun", "time": "Closed"}], "id": "4991000001", "name": "USPS COLLECTION BOX - PO LOBBY", "address": {"city": "BERGLAND", "state": "MI", "street": "107 PINE ST", "postcode": "49910"}}},
{"geometry": {"type": "Point", "coordinates": [-90.0504397505, 46.4801198632]}, "type": "Feature", "properties": {"collection_times": [{"days": "Mon-Fri", "time": "4:00pm"}, {"days": "Sat", "time": "11:00am"}, {"days": "Sun", "time": "Closed"}], "id": "4991100000", "name": "USPS COLLECTION BOX - BLUE BOX", "address": {"city": "BESSEMER", "state": "MI", "street": "212 S SOPHIE ST", "postcode": "49911"}}},
{"geometry": {"type": "Point", "coordinates": [-90.0519935699, 46.4811865323]}, "type": "Feature", "properties": {"collection_times": [{"days": "Mon-Sat", "time": "9:30am"}, {"days": "Sun", "time": "Closed"}], "id": "4991100001", "name": "USPS COLLECTION BOX - BLUE BOX", "address": {"city": "BESSEMER", "state": "MI", "street": "117 E LEAD ST", "postcode": "49911"}}},
{"geometry": {"type": "Point", "coordinates": [-90.0524414219, 46.4820381898]}, "type": "Feature", "properties": {"collection_times": [{"days": "Mon-Fri", "time": "1:45pm"}, {"days": "Sat-Sun", "time": "Closed"}], "id": "4991100004", "name": "USPS COLLECTION BOX - BLUE BOX", "address": {"city": "BESSEMER", "state": "MI", "street": "200 N MOORE ST", "postcode": "49911"}}},
{"geometry": {"type": "Point", "coordinates": [-90.0504397505, 46.4801198632]}, "type": "Feature", "properties": {"collection_times": [{"days": "Mon-Fri", "time": "4:30pm"}, {"days": "Sat", "time": "11:00am"}, {"days": "Sun", "time": "Closed"}], "id": "4991100010", "name": "USPS COLLECTION BOX - PO LOBBY", "address": {"city": "BESSEMER", "state": "MI", "street": "212 S SOPHIE ST", "postcode": "49911"}}},
{"geometry": {"type": "Point", "coordinates": [-89.1958991594, 46.482451444]}, "type": "Feature", "properties": {"collection_times": [{"days": "Mon-Fri", "time": "4:15pm"}, {"days": "Sat", "time": "10:30am"}, {"days": "Sun", "time": "Closed"}], "id": "4991200001", "name": "USPS COLLECTION BOX - BLUE BOX", "address": {"city": "BRUCE CROSSING", "state": "MI", "street": "13944 US HIGHWAY 45", "postcode": "49912"}}},
{"geometry": {"type": "Point", "coordinates": [-89.1958991594, 46.482451444]}, "type": "Feature", "properties": {"collection_times": [{"days": "Mon-Fri", "time": "4:15pm"}, {"days": "Sat", "time": "10:30am"}, {"days": "Sun", "time": "Closed"}], "id": "4991200002", "name": "USPS COLLECTION BOX - PO LOBBY", "address": {"city": "BRUCE CROSSING", "state": "MI", "street": "13944 US HIGHWAY 45", "postcode": "49912"}}},
{"geometry": {"type": "Point", "coordinates": [-88.4536940254, 47.2445358651]}, "type": "Feature", "properties": {"collection_times": [{"days": "Mon-Sat", "time": "4:30pm"}, {"days": "Sun", "time": "Closed"}], "id": "4991300000", "name": "USPS COLLECTION BOX - BLUE BOX", "address": {"city": "CALUMET", "state": "MI", "street": "201 6TH ST", "postcode": "49913"}}},
{"geometry": {"type": "Point", "coordinates": [-88.4424394718, 47.2368630803]}, "type": "Feature", "properties": {"collection_times": [{"days": "Mon-Fri", "time": "3:45pm"}, {"days": "Sat", "time": "2:30pm"}, {"days": "Sun", "time": "Closed"}], "id": "4991300009", "name": "USPS COLLECTION BOX - BLUE BOX", "address": {"city": "CALUMET", "state": "MI", "street": "73 3RD ST", "postcode": "49913"}}},
{"geometry": {"type": "Point", "coordinates": [-88.4525966423, 47.2453561726]}, "type": "Feature", "properties": {"collection_times": [{"days": "Mon-Sat", "time": "9:45am"}, {"days": "Sun", "time": "Closed"}], "id": "4991300011", "name": "USPS COLLECTION BOX - BLUE BOX", "address": {"city": "CALUMET", "state": "MI", "street": "200 5TH ST", "postcode": "49913"}}},
{"geometry": {"type": "Point", "coordinates": [-88.4536940254, 47.2445358651]}, "type": "Feature", "properties": {"collection_times": [{"days": "Mon-Fri", "time": "5:00pm"}, {"days": "Sat", "time": "4:30pm"}, {"days": "Sun", "time": "Closed"}], "id": "4991300016", "name": "USPS COLLECTION BOX - PO LOBBY", "address": {"city": "CALUMET", "state": "MI", "street": "201 6TH ST", "postcode": "49913"}}},
{"geometry": {"type": "Point", "coordinates": [-88.4424394718, 47.2368630803]}, "type": "Feature", "properties": {"collection_times": [{"days": "Mon-Fri", "time": "3:45pm"}, {"days": "Sat", "time": "2:30pm"}, {"days": "Sun", "time": "Closed"}], "id": "4991300017", "name": "USPS COLLECTION BOX - PO LOBBY", "address": {"city": "CALUMET", "state": "MI", "street": "73 3RD ST", "postcode": "49913"}}},
{"geometry": {"type": "Point", "coordinates": [-88.628925128, 46.0650127193]}, "type": "Feature", "properties": {"collection_times": [{"days": "Mon-Fri", "time": "3:30pm"}, {"days": "Sat", "time": "11:00am"}, {"days": "Sun", "time": "Closed"}], "id": "4991500000", "name": "USPS COLLECTION BOX - BLUE BOX", "address": {"city": "CASPIAN", "state": "MI", "street": "300 E CASPIAN AVE", "postcode": "49915"}}},
{"geometry": {"type": "Point", "coordinates": [-88.628925128, 46.0650127193]}, "type": "Feature", "properties": {"collection_times": [{"days": "Mon-Fri", "time": "3:30pm"}, {"days": "Sat", "time": "11:00am"}, {"days": "Sun", "time": "Closed"}], "id": "4991500001", "name": "USPS COLLECTION BOX - PO LOBBY", "address": {"city": "CASPIAN", "state": "MI", "street": "300 E CASPIAN AVE", "postcode": "49915"}}},
{"geometry": {"type": "Point", "coordinates": [-88.628925128, 46.0650127193]}, "type": "Feature", "properties": {"collection_times": [{"days": "Mon-Fri", "time": "3:30pm"}, {"days": "Sat", "time": "11:00am"}, {"days": "Sun", "time": "Closed"}], "id": "4991500002", "name": "USPS COLLECTION BOX - PO LOBBY", "address": {"city": "CASPIAN", "state": "MI", "street": "300 E CASPIAN AVE", "postcode": "49915"}}},
{"geometry": {"type": "Point", "coordinates": [-88.5268817758, 47.0207521394]}, "type": "Feature", "properties": {"collection_times": [{"days": "Mon-Fri", "time": "4:45pm"}, {"days": "Sat", "time": "12:00pm"}, {"days": "Sun", "time": "Closed"}], "id": "4991600000", "name": "USPS COLLECTION BOX - BLUE BOX", "address": {"city": "CHASSELL", "state": "MI", "street": "41951 WILSON MEMORIAL DR", "postcode": "49916"}}},
{"geometry": {"type": "Point", "coordinates": [-88.5268817758, 47.0207521394]}, "type": "Feature", "properties": {"collection_times": [{"days": "Mon-Fri", "time": "4:45pm"}, {"days": "Sat", "time": "12:00pm"}, {"days": "Sun", "time": "Closed"}], "id": "4991600001", "name": "USPS COLLECTION BOX - PO LOBBY", "address": {"city": "CHASSELL", "state": "MI", "street": "41951 WILSON MEMORIAL DR", "postcode": "49916"}}},
{"geometry": {"type": "Point", "coordinates": [-88.388104314, 47.284761788]}, "type": "Feature", "properties": {"collection_times": [{"days": "Mon-Fri", "time": "3:45pm"}, {"days": "Sat", "time": "11:30am"}, {"days": "Sun", "time": "Closed"}], "id": "4991700000", "name": "USPS COLLECTION BOX - BLUE BOX", "address": {"city": "COPPER CITY", "state": "MI", "street": "212 MOHAWK ST", "postcode": "49917"}}},
{"geometry": {"type": "Point", "coordinates": [-88.388104314, 47.284761788]}, "type": "Feature", "properties": {"collection_times": [{"days": "Mon-Fri", "time": "3:45pm"}, {"days": "Sat", "time": "11:30am"}, {"days": "Sun", "time": "Closed"}], "id": "4991700001", "name": "USPS COLLECTION BOX - PO LOBBY", "address": {"city": "COPPER CITY", "state": "MI", "street": "212 MOHAWK ST", "postcode": "49917"}}},
{"geometry": {"type": "Point", "coordinates": [-88.5262686207, 46.5499767822]}, "type": "Feature", "properties": {"collection_times": [{"days": "Mon-Fri", "time": "4:00pm"}, {"days": "Sat", "time": "12:00pm"}, {"days": "Sun", "time": "Closed"}], "id": "4991900000", "name": "USPS COLLECTION BOX - BLUE BOX", "address": {"city": "COVINGTON", "state": "MI", "street": "25387 US HIGHWAY 141", "postcode": "49919"}}},
{"geometry": {"type": "Point", "coordinates": [-88.5262686207, 46.5499767822]}, "type": "Feature", "properties": {"collection_times": [{"days": "Mon-Fri", "time": "3:15pm"}, {"days": "Sat", "time": "12:00pm"}, {"days": "Sun", "time": "Closed"}], "id": "4991900001", "name": "USPS COLLECTION BOX - PO LOBBY", "address": {"city": "COVINGTON", "state": "MI", "street": "25387 US HIGHWAY 141", "postcode": "49919"}}},
{"geometry": {"type": "Point", "coordinates": [-88.334148309, 46.09672867]}, "type": "Feature", "properties": {"collection_times": [{"days": "Mon-Fri", "time": "4:30pm"}, {"days": "Sat", "time": "11:00am"}, {"days": "Sun", "time": "Closed"}], "id": "4992000000", "name": "USPS COLLECTION BOX - BLUE BOX", "address": {"city": "CRYSTAL FALLS", "state": "MI", "street": "501 SUPERIOR AVE", "postcode": "49920"}}},
{"geometry": {"type": "Point", "coordinates": [-88.3505506324, 46.0973198722]}, "type": "Feature", "properties": {"collection_times": [{"days": "Mon-Sat", "time": "9:00am"}, {"days": "Sun", "time": "Closed"}], "id": "4992000008", "name": "USPS COLLECTION BOX - BLUE BOX", "address": {"city": "CRYSTAL FALLS", "state": "MI", "street": "1363 US HIGHWAY 2", "postcode": "49920"}}},
{"geometry": {"type": "Point", "coordinates": [-88.334148309, 46.09672867]}, "type": "Feature", "properties": {"collection_times": [{"days": "Mon-Fri", "time": "4:30pm"}, {"days": "Sat", "time": "11:00am"}, {"days": "Sun", "time": "Closed"}], "id": "4992000011", "name": "USPS COLLECTION BOX - PO LOBBY", "address": {"city": "CRYSTAL FALLS", "state": "MI", "street": "501 SUPERIOR AVE", "postcode": "49920"}}},
{"geometry": {"type": "Point", "coordinates": [-88.5045593801, 47.1223346524]}, "type": "Feature", "properties": {"collection_times": [{"days": "Mon-Fri", "time": "4:30pm"}, {"days": "Sat", "time": "11:45am"}, {"days": "Sun", "time": "Closed"}], "id": "4992200000", "name": "USPS COLLECTION BOX - BLUE BOX", "address": {"city": "DOLLAR BAY", "state": "MI", "street": "48694 MAIN ST", "postcode": "49922"}}},
{"geometry": {"type": "Point", "coordinates": [-88.5045593801, 47.1223346524]}, "type": "Feature", "properties": {"collection_times": [{"days": "Mon-Fri", "time": "4:30pm"}, {"days": "Sat", "time": "11:45am"}, {"days": "Sun", "time": "Closed"}], "id": "4992200001", "name": "USPS COLLECTION BOX - PO LOBBY", "address": {"city": "DOLLAR BAY", "state": "MI", "street": "48694 MAIN ST", "postcode": "49922"}}},
{"geometry": {"type": "Point", "coordinates": [-89.2816670721, 46.5295414884]}, "type": "Feature", "properties": {"collection_times": [{"days": "Mon-Fri", "time": "4:30pm"}, {"days": "Sat", "time": "10:30am"}, {"days": "Sun", "time": "Closed"}], "id": "4992500000", "name": "USPS COLLECTION BOX - BLUE BOX", "address": {"city": "EWEN", "state": "MI", "street": "106 S CEDAR ST", "postcode": "49925"}}},
{"geometry": {"type": "Point", "coordinates": [-89.2816670721, 46.5295414884]}, "type": "Feature", "properties": {"collection_times": [{"days": "Mon-Fri", "time": "4:30pm"}, {"days": "Sat", "time": "10:45am"}, {"days": "Sun", "time": "Closed"}], "id": "4992500001", "name": "USPS COLLECTION BOX - PO LOBBY", "address": {"city": "EWEN", "state": "MI", "street": "106 S CEDAR ST", "postcode": "49925"}}},
{"geometry": {"type": "Point", "coordinates": [-88.6018634411, 46.0590735258]}, "type": "Feature", "properties": {"collection_times": [{"days": "Mon-Fri", "time": "4:00pm"}, {"days": "Sat", "time": "9:45am"}, {"days": "Sun", "time": "Closed"}], "id": "4992700000", "name": "USPS COLLECTION BOX - BLUE BOX", "address": {"city": "GAASTRA", "state": "MI", "street": "12 2ND ST", "postcode": "49927"}}},
{"geometry": {"type": "Point", "coordinates": [-88.6018634411, 46.0590735258]}, "type": "Feature", "properties": {"collection_times": [{"days": "Mon-Fri", "time": "4:00pm"}, {"days": "Sat", "time": "9:45am"}, {"days": "Sun", "time": "Closed"}], "id": "4992700001", "name": "USPS COLLECTION BOX - PO LOBBY", "address": {"city": "GAASTRA", "state": "MI", "street": "12 2ND ST", "postcode": "49927"}}},
{"geometry": {"type": "Point", "coordinates": [-89.1007832859, 46.7832003738]}, "type": "Feature", "properties": {"collection_times": [{"days": "Mon-Fri", "time": "4:30pm"}, {"days": "Sat", "time": "10:30am"}, {"days": "Sun", "time": "Closed"}], "id": "4992900000", "name": "USPS COLLECTION BOX - BLUE BOX", "address": {"city": "GREENLAND", "state": "MI", "street": "311 PLANK RD", "postcode": "49929"}}},
{"geometry": {"type": "Point", "coordinates": [-89.1007832859, 46.7832003738]}, "type": "Feature", "properties": {"collection_times": [{"days": "Mon-Fri", "time": "4:30pm"}, {"days": "Sat", "time": "10:30am"}, {"days": "Sun", "time": "Closed"}], "id": "4992900001", "name": "USPS COLLECTION BOX - PO LOBBY", "address": {"city": "GREENLAND", "state": "MI", "street": "311 PLANK RD", "postcode": "49929"}}},
{"geometry": {"type": "Point", "coordinates": [-88.5847708644, 47.1266559188]}, "type": "Feature", "properties": {"collection_times": [{"days": "Mon-Sat", "time": "11:30am"}, {"days": "Sun", "time": "Closed"}], "id": "4993000000", "name": "USPS COLLECTION BOX - BLUE BOX", "address": {"city": "HANCOCK", "state": "MI", "street": "400 QUINCY ST", "postcode": "49930"}}},
{"geometry": {"type": "Point", "coordinates": [-88.5787269752, 47.1262514104]}, "type": "Feature", "properties": {"collection_times": [{"days": "Mon-Sat", "time": "10:45am"}, {"days": "Sun", "time": "Closed"}], "id": "4993000003", "name": "USPS COLLECTION BOX - BLUE BOX", "address": {"city": "HANCOCK", "state": "MI", "street": "100 HANCOCK ST", "postcode": "49930"}}},
{"geometry": {"type": "Point", "coordinates": [-88.5838598262, 47.1414302232]}, "type": "Feature", "properties": {"collection_times": [{"days": "Mon-Sat", "time": "9:30am"}, {"days": "Sun", "time": "Closed"}], "id": "4993000005", "name": "USPS COLLECTION BOX - BLUE BOX", "address": {"city": "HANCOCK", "state": "MI", "street": "500 CAMPUS DR", "postcode": "49930"}}},
{"geometry": {"type": "Point", "coordinates": [-88.5819510305, 47.1259246415]}, "type": "Feature", "properties": {"collection_times": [{"days": "Mon-Sat", "time": "11:30am"}, {"days": "Sun", "time": "Closed"}], "id": "4993000008", "name": "USPS COLLECTION BOX - BLUE BOX", "address": {"city": "HANCOCK", "state": "MI", "street": "235 HANCOCK ST", "postcode": "49930"}}},
{"geometry": {"type": "Point", "coordinates": [-88.5917922274, 47.1311447793]}, "type": "Feature", "properties": {"collection_times": [{"days": "Mon-Sat", "time": "2:30pm"}, {"days": "Sun", "time": "Closed"}], "id": "4993000009", "name": "USPS COLLECTION BOX - BLUE BOX", "address": {"city": "HANCOCK", "state": "MI", "street": "801 MARKET ST", "postcode": "49930"}}},
{"geometry": {"type": "Point", "coordinates": [-88.5810336237, 47.1269072097]}, "type": "Feature", "properties": {"collection_times": [{"days": "Mon-Fri", "time": "5:00pm"}, {"days": "Sat", "time": "11:30am"}, {"days": "Sun", "time": "Closed"}], "id": "4993000020", "name": "USPS COLLECTION BOX - BLUE BOX", "address": {"city": "HANCOCK", "state": "MI", "street": "214 QUINCY ST", "postcode": "49930"}}},
{"geometry": {"type": "Point", "coordinates": [-88.5811520435, 47.1267902647]}, "type": "Feature", "properties": {"collection_times": [{"days": "Mon-Fri", "time": "5:00pm"}, {"days": "Sat", "time": "11:30am"}, {"days": "Sun", "time": "Closed"}], "id": "4993000022", "name": "USPS COLLECTION BOX - BLUE BOX", "address": {"city": "HANCOCK", "state": "MI", "street": "221 QUINCY ST", "postcode": "49930"}}},
{"geometry": {"type": "Point", "coordinates": [-88.5811520435, 47.1267902647]}, "type": "Feature", "properties": {"collection_times": [{"days": "Mon-Fri", "time": "5:00pm"}, {"days": "Sat", "time": "11:30am"}, {"days": "Sun", "time": "Closed"}], "id": "4993000023", "name": "USPS COLLECTION BOX - PO LOBBY", "address": {"city": "HANCOCK", "state": "MI", "street": "221 QUINCY ST", "postcode": "49930"}}},
{"geometry": {"type": "Point", "coordinates": [-88.5943535112, 47.1130297856]}, "type": "Feature", "properties": {"collection_times": [{"days": "Mon-Sat", "time": "2:30pm"}, {"days": "Sun", "time": "Closed"}], "id": "4993100001", "name": "USPS COLLECTION BOX - BLUE BOX", "address": {"city": "HOUGHTON", "state": "MI", "street": "901 W SHARON AVE", "postcode": "49931"}}},
{"geometry": {"type": "Point", "coordinates": [-88.5489976064, 47.117754297]}, "type": "Feature", "properties": {"collection_times": [{"days": "Mon-Sat", "time": "9:15am"}, {"days": "Sun", "time": "Closed"}], "id": "4993100003", "name": "USPS COLLECTION BOX - BLUE BOX", "address": {"city": "HOUGHTON", "state": "MI", "street": "1503 TOWNSEND DR", "postcode": "49931"}}},
{"geometry": {"type": "Point", "coordinates": [-88.5858839403, 47.1089083658]}, "type": "Feature", "properties": {"collection_times": [{"days": "Mon-Sat", "time": "9:15am"}, {"days": "Sun", "time": "Closed"}], "id": "4993100006", "name": "USPS COLLECTION BOX - BLUE BOX", "address": {"city": "HOUGHTON", "state": "MI", "street": "995 RAZORBACK DR", "postcode": "49931"}}},
{"geometry": {"type": "Point", "coordinates": [-88.5546562427, 47.1196870106]}, "type": "Feature", "properties": {"collection_times": [{"days": "Mon-Sat", "time": "1:30pm"}, {"days": "Sun", "time": "Closed"}], "id": "4993100007", "name": "USPS COLLECTION BOX - BLUE BOX", "address": {"city": "HOUGHTON", "state": "MI", "street": "300 PEARL ST", "postcode": "49931"}}},
{"geometry": {"type": "Point", "coordinates": [-88.5693174961, 47.1203805659]}, "type": "Feature", "properties": {"collection_times": [{"days": "Mon-Sat", "time": "2:30pm"}, {"days": "Sun", "time": "Closed"}], "id": "4993100012", "name": "USPS COLLECTION BOX - BLUE BOX", "address": {"city": "HOUGHTON", "state": "MI", "street": "401 E HOUGHTON AVE", "postcode": "49931"}}},
{"geometry": {"type": "Point", "coordinates": [-88.5830108662, 47.1097180815]}, "type": "Feature", "properties": {"collection_times": [{"days": "Mon-Sat", "time": "12:00pm"}, {"days": "Sun", "time": "Closed"}], "id": "4993100014", "name": "USPS COLLECTION BOX - BLUE BOX", "address": {"city": "HOUGHTON", "state": "MI", "street": "47401 STATE HIGHWAY M26", "postcode": "49931"}}},
{"geometry": {"type": "Point", "coordinates": [-88.5802116722, 47.1207783984]}, "type": "Feature", "properties": {"collection_times": [{"days": "Mon-Sat", "time": "2:30pm"}, {"days": "Sun", "time": "Closed"}], "id": "4993100016", "name": "USPS COLLECTION BOX - BLUE BOX", "address": {"city": "HOUGHTON", "state": "MI", "street": "1000 MEMORIAL RD", "postcode": "49931"}}},
{"geometry": {"type": "Point", "coordinates": [-88.5702806587, 47.1219037978]}, "type": "Feature", "properties": {"collection_times": [{"days": "Mon-Sat", "time": "10:30am"}, {"days": "Sun", "time": "Closed"}], "id": "4993100019", "name": "USPS COLLECTION BOX - BLUE BOX", "address": {"city": "HOUGHTON", "state": "MI", "street": "326 SHELDEN AVE", "postcode": "49931"}}},
{"geometry": {"type": "Point", "coordinates": [-88.5678039431, 47.1217986115]}, "type": "Feature", "properties": {"collection_times": [{"days": "Mon-Sat", "time": "9:30am"}, {"days": "Sun", "time": "Closed"}], "id": "4993100020", "name": "USPS COLLECTION BOX - BLUE BOX", "address": {"city": "HOUGHTON", "state": "MI", "street": "525 SHELDEN AVE", "postcode": "49931"}}},
{"geometry": {"type": "Point", "coordinates": [-88.5656362728, 47.1218606473]}, "type": "Feature", "properties": {"collection_times": [{"days": "Mon-Fri", "time": "5:00pm"}, {"days": "Sat", "time": "4:15pm"}, {"days": "Sun", "time": "Closed"}], "id": "4993100022", "name": "USPS COLLECTION BOX - BLUE BOX", "address": {"city": "HOUGHTON", "state": "MI", "street": "701 SHELDEN AVE", "postcode": "49931"}}},
{"geometry": {"type": "Point", "coordinates": [-88.5656362728, 47.1218606473]}, "type": "Feature", "properties": {"collection_times": [{"days": "Mon-Fri", "time": "5:00pm"}, {"days": "Sat", "time": "4:15pm"}, {"days": "Sun", "time": "Closed"}], "id": "4993100024", "name": "USPS COLLECTION BOX - PO LOBBY", "address": {"city": "HOUGHTON", "state": "MI", "street": "701 SHELDEN AVE", "postcode": "49931"}}},
{"geometry": {"type": "Point", "coordinates": [-88.568050916, 47.1218098853]}, "type": "Feature", "properties": {"collection_times": [{"days": "Mon-Sat", "time": "2:30pm"}, {"days": "Sun", "time": "Closed"}], "id": "4993100027", "name": "USPS COLLECTION BOX - BLUE BOX", "address": {"city": "HOUGHTON", "state": "MI", "street": "105 HURON ST", "postcode": "49931"}}},
{"geometry": {"type": "Point", "coordinates": [-88.5865903431, 47.112941727]}, "type": "Feature", "properties": {"collection_times": [{"days": "Mon-Sat", "time": "9:15am"}, {"days": "Sun", "time": "Closed"}], "id": "4993100030", "name": "USPS COLLECTION BOX - BLUE BOX", "address": {"city": "HOUGHTON", "state": "MI", "street": "903 RAZORBACK DR", "postcode": "49931"}}},
{"geometry": {"type": "Point", "coordinates": [-88.4329506744, 47.1705647052]}, "type": "Feature", "properties": {"collection_times": [{"days": "Mon-Fri", "time": "4:30pm"}, {"days": "Sat", "time": "11:00am"}, {"days": "Sun", "time": "Closed"}], "id": "4993400000", "name": "USPS COLLECTION BOX - BLUE BOX", "address": {"city": "HUBBELL", "state": "MI", "street": "52210 DUNCAN AVE", "postcode": "49934"}}},
{"geometry": {"type": "Point", "coordinates": [-88.4329506744, 47.1705647052]}, "type": "Feature", "properties": {"collection_times": [{"days": "Mon-Fri", "time": "4:30pm"}, {"days": "Sat", "time": "11:00am"}, {"days": "Sun", "time": "Closed"}], "id": "4993400002", "name": "USPS COLLECTION BOX - PO LOBBY", "address": {"city": "HUBBELL", "state": "MI", "street": "52210 DUNCAN AVE", "postcode": "49934"}}},
{"geometry": {"type": "Point", "coordinates": [-88.6416069017, 46.0914414335]}, "type": "Feature", "properties": {"collection_times": [{"days": "Mon-Fri", "time": "5:00pm"}, {"days": "Sat", "time": "2:30pm"}, {"days": "Sun", "time": "Closed"}], "id": "4993500001", "name": "USPS COLLECTION BOX - BLUE BOX", "address": {"city": "IRON RIVER", "state": "MI", "street": "425 W GENESEE ST", "postcode": "49935"}}},
{"geometry": {"type": "Point", "coordinates": [-88.6416069017, 46.0914414335]}, "type": "Feature", "properties": {"collection_times": [{"days": "Mon-Fri", "time": "5:00pm"}, {"days": "Sat", "time": "2:30pm"}, {"days": "Sun", "time": "Closed"}], "id": "4993500003", "name": "USPS COLLECTION BOX - BLUE BOX", "address": {"city": "IRON RIVER", "state": "MI", "street": "425 W GENESEE ST", "postcode": "49935"}}},
{"geometry": {"type": "Point", "coordinates": [-88.6414547607, 46.0922328392]}, "type": "Feature", "properties": {"collection_times": [{"days": "Mon-Sat", "time": "2:30pm"}, {"days": "Sun", "time": "Closed"}], "id": "4993500005", "name": "USPS COLLECTION BOX - BLUE BOX", "address": {"city": "IRON RIVER", "state": "MI", "street": "433 N 3RD AVE", "postcode": "49935"}}},
{"geometry": {"type": "Point", "coordinates": [-88.6462166338, 46.0906234101]}, "type": "Feature", "properties": {"collection_times": [{"days": "Mon-Sat", "time": "9:00am"}, {"days": "Sun", "time": "Closed"}], "id": "4993500008", "name": "USPS COLLECTION BOX - BLUE BOX", "address": {"city": "IRON RIVER", "state": "MI", "street": "706 W MAPLE ST", "postcode": "49935"}}},
{"geometry": {"type": "Point", "coordinates": [-88.6374989774, 46.0914146918]}, "type": "Feature", "properties": {"collection_times": [{"days": "Mon-Sat", "time": "9:00am"}, {"days": "Sun", "time": "Closed"}], "id": "4993500009", "name": "USPS COLLECTION BOX - BLUE BOX", "address": {"city": "IRON RIVER", "state": "MI", "street": "131 W GENESEE ST", "postcode": "49935"}}},
{"geometry": {"type": "Point", "coordinates": [-88.7612043017, 46.2152344612]}, "type": "Feature", "properties": {"collection_times": [{"days": "Mon-Fri", "time": "2:00pm"}, {"days": "Sat", "time": "1:00pm"}, {"days": "Sun", "time": "Closed"}], "id": "4993500012", "name": "USPS COLLECTION BOX - BLUE BOX", "address": {"city": "IRON RIVER", "state": "MI", "street": "833 RIVERSIDE PLZ", "postcode": "49935"}}},
{"geometry": {"type": "Point", "coordinates": [-88.6429403677, 46.0915026915]}, "type": "Feature", "properties": {"collection_times": [{"days": "Mon-Fri", "time": "5:00pm"}, {"days": "Sat", "time": "3:00pm"}, {"days": "Sun", "time": "Closed"}], "id": "4993500017", "name": "USPS COLLECTION BOX - PO LOBBY", "address": {"city": "IRON RIVER", "state": "MI", "street": "425 W GENESEE ST", "postcode": "49935"}}},
{"geometry": {"type": "Point", "coordinates": [-90.1583960717, 46.4654099401]}, "type": "Feature", "properties": {"collection_times": [{"days": "Mon-Fri", "time": "4:30pm"}, {"days": "Sat", "time": "4:00pm"}, {"days": "Sun", "time": "Closed"}], "id": "4993800002", "name": "USPS COLLECTION BOX - BLUE BOX", "address": {"city": "IRONWOOD", "state": "MI", "street": "100 E AYER ST", "postcode": "49938"}}},
{"geometry": {"type": "Point", "coordinates": [-90.1698076684, 46.4538908015]}, "type": "Feature", "properties": {"collection_times": [{"days": "Mon-Sat", "time": "2:30pm"}, {"days": "Sun", "time": "Closed"}], "id": "4993800006", "name": "USPS COLLECTION BOX - BLUE BOX", "address": {"city": "IRONWOOD", "state": "MI", "street": "100 E AURORA ST", "postcode": "49938"}}},
{"geometry": {"type": "Point", "coordinates": [-90.1650005704, 46.4561605496]}, "type": "Feature", "properties": {"collection_times": [{"days": "Mon-Sat", "time": "3:00pm"}, {"days": "Sun", "time": "Closed"}], "id": "4993800013", "name": "USPS COLLECTION BOX - BLUE BOX", "address": {"city": "IRONWOOD", "state": "MI", "street": "213 S MARQUETTE ST", "postcode": "49938"}}},
{"geometry": {"type": "Point", "coordinates": [-90.145277774, 46.4633346049]}, "type": "Feature", "properties": {"collection_times": [{"days": "Mon-Sat", "time": "9:45am"}, {"days": "Sun", "time": "Closed"}], "id": "4993800018", "name": "USPS COLLECTION BOX - BLUE BOX", "address": {"city": "IRONWOOD", "state": "MI", "street": "1400 E CLOVERLAND DR", "postcode": "49938"}}},
{"geometry": {"type": "Point", "coordinates": [-90.1421132576, 46.464590759]}, "type": "Feature", "properties": {"collection_times": [{"days": "Mon-Sat", "time": "9:30am"}, {"days": "Sun", "time": "Closed"}], "id": "4993800026", "name": "USPS COLLECTION BOX - BLUE BOX", "address": {"city": "IRONWOOD", "state": "MI", "street": "211 ROOSEVELT ST", "postcode": "49938"}}},
{"geometry": {"type": "Point", "coordinates": [-90.1583960717, 46.4654099401]}, "type": "Feature", "properties": {"collection_times": [{"days": "Mon-Fri", "time": "4:30pm"}, {"days": "Sat", "time": "4:00pm"}, {"days": "Sun", "time": "Closed"}], "id": "4993800029", "name": "USPS COLLECTION BOX - PO LOBBY", "address": {"city": "IRONWOOD", "state": "MI", "street": "100 E AYER ST", "postcode": "49938"}}},
{"geometry": {"type": "Point", "coordinates": [-90.1706369108, 46.454598149]}, "type": "Feature", "properties": {"collection_times": [{"days": "Mon-Fri", "time": "4:30pm"}, {"days": "Sat", "time": "4:00pm"}, {"days": "Sun", "time": "Closed"}], "id": "4993800031", "name": "USPS COLLECTION BOX - BLUE BOX", "address": {"city": "IRONWOOD", "state": "MI", "street": "100 E AYER ST", "postcode": "49938"}}},
{"geometry": {"type": "Point", "coordinates": [-88.4091415127, 47.1920398491]}, "type": "Feature", "properties": {"collection_times": [{"days": "Mon-Fri", "time": "4:45pm"}, {"days": "Sat", "time": "11:45am"}, {"days": "Sun", "time": "Closed"}], "id": "4994500000", "name": "USPS COLLECTION BOX - BLUE BOX", "address": {"city": "LAKE LINDEN", "state": "MI", "street": "600 CALUMET ST", "postcode": "49945"}}},
{"geometry": {"type": "Point", "coordinates": [-88.420965883, 47.1793796782]}, "type": "Feature", "properties": {"collection_times": [{"days": "Mon-Sat", "time": "10:00am"}, {"days": "Sun", "time": "Closed"}], "id": "4994500005", "name": "USPS COLLECTION BOX - BLUE BOX", "address": {"city": "LAKE LINDEN", "state": "MI", "street": "53115 STATE HIGHWAY M26", "postcode": "49945"}}},
{"geometry": {"type": "Point", "coordinates": [-88.4091415127, 47.1920398491]}, "type": "Feature", "properties": {"collection_times": [{"days": "Mon-Fri", "time": "4:45pm"}, {"days": "Sat", "time": "11:45am"}, {"days": "Sun", "time": "Closed"}], "id": "4994500007", "name": "USPS COLLECTION BOX - PO LOBBY", "address": {"city": "LAKE LINDEN", "state": "MI", "street": "600 CALUMET ST", "postcode": "49945"}}},
{"geometry": {"type": "Point", "coordinates": [-88.4509111472, 46.7536834565]}, "type": "Feature", "properties": {"collection_times": [{"days": "Mon-Sat", "time": "10:15am"}, {"days": "Sun", "time": "Closed"}], "id": "4994600000", "name": "USPS COLLECTION BOX - BLUE BOX", "address": {"city": "LANSE", "state": "MI", "street": "110 6TH ST", "postcode": "49946"}}},
{"geometry": {"type": "Point", "coordinates": [-88.4464997293, 46.7521542897]}, "type": "Feature", "properties": {"collection_times": [{"days": "Mon-Sat", "time": "10:15am"}, {"days": "Sun", "time": "Closed"}], "id": "4994600002", "name": "USPS COLLECTION BOX - BLUE BOX", "address": {"city": "LANSE", "state": "MI", "street": "650 E BROAD ST", "postcode": "49946"}}},
{"geometry": {"type": "Point", "coordinates": [-88.4545332047, 46.7576954022]}, "type": "Feature", "properties": {"collection_times": [{"days": "Mon-Fri", "time": "3:00pm"}, {"days": "Sat", "time": "2:00pm"}, {"days": "Sun", "time": "Closed"}], "id": "4994600003", "name": "USPS COLLECTION BOX - BLUE BOX", "address": {"city": "LANSE", "state": "MI", "street": "1 N MAIN ST", "postcode": "49946"}}},
{"geometry": {"type": "Point", "coordinates": [-88.4534046698, 46.7569662518]}, "type": "Feature", "properties": {"collection_times": [{"days": "Mon-Sat", "time": "9:45am"}, {"days": "Sun", "time": "Closed"}], "id": "4994600004", "name": "USPS COLLECTION BOX - BLUE BOX", "address": {"city": "LANSE", "state": "MI", "street": "120 E BROAD ST", "postcode": "49946"}}},
{"geometry": {"type": "Point", "coordinates": [-88.4448768296, 46.7653746891]}, "type": "Feature", "properties": {"collection_times": [{"days": "Mon-Sat", "time": "10:45am"}, {"days": "Sun", "time": "Closed"}], "id": "4994600006", "name": "USPS COLLECTION BOX - BLUE BOX", "address": {"city": "LANSE", "state": "MI", "street": "801 N MAIN ST", "postcode": "49946"}}},
{"geometry": {"type": "Point", "coordinates": [-88.453815182, 46.7583206717]}, "type": "Feature", "properties": {"collection_times": [{"days": "Mon-Fri", "time": "4:30pm"}, {"days": "Sat", "time": "11:30am"}, {"days": "Sun", "time": "Closed"}], "id": "4994600008", "name": "USPS COLLECTION BOX - BLUE BOX", "address": {"city": "LANSE", "state": "MI", "street": "120 N MAIN ST", "postcode": "49946"}}},
{"geometry": {"type": "Point", "coordinates": [-88.453815182, 46.7583206717]}, "type": "Feature", "properties": {"collection_times": [{"days": "Mon-Fri", "time": "4:30pm"}, {"days": "Sat", "time": "11:30am"}, {"days": "Sun", "time": "Closed"}], "id": "4994600009", "name": "USPS COLLECTION BOX - PO LOBBY", "address": {"city": "LANSE", "state": "MI", "street": "120 N MAIN ST", "postcode": "49946"}}},
{"geometry": {"type": "Point", "coordinates": [-88.4414315962, 46.7668333277]}, "type": "Feature", "properties": {"collection_times": [{"days": "Mon-Fri", "time": "2:00pm"}, {"days": "Sat", "time": "1:30pm"}, {"days": "Sun", "time": "Closed"}], "id": "4994600010", "name": "USPS COLLECTION BOX - BLUE BOX", "address": {"city": "LANSE", "state": "MI", "street": "230 MEADOR ST", "postcode": "49946"}}},
{"geometry": {"type": "Point", "coordinates": [-88.4538963861, 46.7582328128]}, "type": "Feature", "properties": {"collection_times": [{"days": "Mon-Fri", "time": "3:00pm"}, {"days": "Sat", "time": "2:00pm"}, {"days": "Sun", "time": "Closed"}], "id": "4994600012", "name": "USPS COLLECTION BOX - BLUE BOX", "address": {"city": "LANSE", "state": "MI", "street": "1 W RIVER ST", "postcode": "49946"}}},
{"geometry": {"type": "Point", "coordinates": [-88.4484026542, 46.7508057046]}, "type": "Feature", "properties": {"collection_times": [{"days": "Mon-Sat", "time": "10:30am"}, {"days": "Sun", "time": "Closed"}], "id": "4994600013", "name": "USPS COLLECTION BOX - BLUE BOX", "address": {"city": "LANSE", "state": "MI", "street": "118 US HIGHWAY 41", "postcode": "49946"}}},
{"geometry": {"type": "Point", "coordinates": [-89.6957354517, 46.3816639797]}, "type": "Feature", "properties": {"collection_times": [{"days": "Mon-Fri", "time": "4:15pm"}, {"days": "Sat", "time": "10:30am"}, {"days": "Sun", "time": "Closed"}], "id": "4994700000", "name": "USPS COLLECTION BOX - BLUE BOX", "address": {"city": "MARENISCO", "state": "MI", "street": "306 HALL ST", "postcode": "49947"}}},
{"geometry": {"type": "Point", "coordinates": [-89.6957354517, 46.3816639797]}, "type": "Feature", "properties": {"collection_times": [{"days": "Mon-Fri", "time": "4:15pm"}, {"days": "Sat", "time": "10:45am"}, {"days": "Sun", "time": "Closed"}], "id": "4994700002", "name": "USPS COLLECTION BOX - PO LOBBY", "address": {"city": "MARENISCO", "state": "MI", "street": "306 HALL ST", "postcode": "49947"}}},
{"geometry": {"type": "Point", "coordinates": [-89.076750972, 46.7593681642]}, "type": "Feature", "properties": {"collection_times": [{"days": "Mon-Fri", "time": "4:30pm"}, {"days": "Sat", "time": "10:30am"}, {"days": "Sun", "time": "Closed"}], "id": "4994800000", "name": "USPS COLLECTION BOX - BLUE BOX", "address": {"city": "MASS CITY", "state": "MI", "street": "1315 ADVENTURE AVE", "postcode": "49948"}}},
{"geometry": {"type": "Point", "coordinates": [-89.076750972, 46.7593681642]}, "type": "Feature", "properties": {"collection_times": [{"days": "Mon-Fri", "time": "4:30pm"}, {"days": "Sat", "time": "10:30am"}, {"days": "Sun", "time": "Closed"}], "id": "4994800001", "name": "USPS COLLECTION BOX - PO LOBBY", "address": {"city": "MASS CITY", "state": "MI", "street": "1315 ADVENTURE AVE", "postcode": "49948"}}},
{"geometry": {"type": "Point", "coordinates": [-88.3636729415, 47.3046506664]}, "type": "Feature", "properties": {"collection_times": [{"days": "Mon-Fri", "time": "3:45pm"}, {"days": "Sat", "time": "12:30pm"}, {"days": "Sun", "time": "Closed"}], "id": "4995000000", "name": "USPS COLLECTION BOX - BLUE BOX", "address": {"city": "MOHAWK", "state": "MI", "street": "78 MOHAWK ST", "postcode": "49950"}}},
{"geometry": {"type": "Point", "coordinates": [-88.3636729415, 47.3046506664]}, "type": "Feature", "properties": {"collection_times": [{"days": "Mon-Fri", "time": "3:45pm"}, {"days": "Sat", "time": "12:45pm"}, {"days": "Sun", "time": "Closed"}], "id": "4995000001", "name": "USPS COLLECTION BOX - PO LOBBY", "address": {"city": "MOHAWK", "state": "MI", "street": "78 MOHAWK ST", "postcode": "49950"}}},
{"geometry": {"type": "Point", "coordinates": [-88.795918555, 46.764951932]}, "type": "Feature", "properties": {"collection_times": [{"days": "Mon-Sat", "time": "8:00am"}, {"days": "Sun", "time": "Closed"}], "id": "4995200000", "name": "USPS COLLECTION BOX - BLUE BOX", "address": {"city": "NISULA", "state": "MI", "street": "9350 STATE HIGHWAY M38", "postcode": "49952"}}},
{"geometry": {"type": "Point", "coordinates": [-88.795918555, 46.764951932]}, "type": "Feature", "properties": {"collection_times": [{"days": "Mon-Sat", "time": "9:35am"}, {"days": "Sun", "time": "Closed"}], "id": "4995200001", "name": "USPS COLLECTION BOX - PO LOBBY", "address": {"city": "NISULA", "state": "MI", "street": "9350 STATE HIGHWAY M38", "postcode": "49952"}}},
{"geometry": {"type": "Point", "coordinates": [-89.315420664, 46.8713015869]}, "type": "Feature", "properties": {"collection_times": [{"days": "Mon-Fri", "time": "4:45pm"}, {"days": "Sat", "time": "1:00pm"}, {"days": "Sun", "time": "Closed"}], "id": "4995300001", "name": "USPS COLLECTION BOX - BLUE BOX", "address": {"city": "ONTONAGON", "state": "MI", "street": "207 COPPER ST", "postcode": "49953"}}},
{"geometry": {"type": "Point", "coordinates": [-89.2980236469, 46.8620965644]}, "type": "Feature", "properties": {"collection_times": [{"days": "Mon-Sat", "time": "10:30am"}, {"days": "Sun", "time": "Closed"}], "id": "4995300003", "name": "USPS COLLECTION BOX - BLUE BOX", "address": {"city": "ONTONAGON", "state": "MI", "street": "751 GREENLAND RD", "postcode": "49953"}}},
{"geometry": {"type": "Point", "coordinates": [-89.2986495052, 46.8623463891]}, "type": "Feature", "properties": {"collection_times": [{"days": "Mon-Fri", "time": "10:30am"}, {"days": "Sat-Sun", "time": "Closed"}], "id": "4995300004", "name": "USPS COLLECTION BOX - BLUE BOX", "address": {"city": "ONTONAGON", "state": "MI", "street": "725 GREENLAND RD", "postcode": "49953"}}},
{"geometry": {"type": "Point", "coordinates": [-89.3092581407, 46.8697675092]}, "type": "Feature", "properties": {"collection_times": [{"days": "Mon-Sat", "time": "11:00am"}, {"days": "Sun", "time": "Closed"}], "id": "4995300006", "name": "USPS COLLECTION BOX - BLUE BOX", "address": {"city": "ONTONAGON", "state": "MI", "street": "114 N 4TH ST", "postcode": "49953"}}},
{"geometry": {"type": "Point", "coordinates": [-89.315420664, 46.8713015869]}, "type": "Feature", "properties": {"collection_times": [{"days": "Mon-Fri", "time": "4:45pm"}, {"days": "Sat", "time": "1:00pm"}, {"days": "Sun", "time": "Closed"}], "id": "4995300008", "name": "USPS COLLECTION BOX - PO LOBBY", "address": {"city": "ONTONAGON", "state": "MI", "street": "207 COPPER ST", "postcode": "49953"}}},
{"geometry": {"type": "Point", "coordinates": [-88.6725373714, 47.0465627669]}, "type": "Feature", "properties": {"collection_times": [{"days": "Mon-Fri", "time": "3:30pm"}, {"days": "Sat", "time": "10:30am"}, {"days": "Sun", "time": "Closed"}], "id": "4995500000", "name": "USPS COLLECTION BOX - BLUE BOX", "address": {"city": "PAINESDALE", "state": "MI", "street": "43012 GOODELL AVE", "postcode": "49955"}}},
{"geometry": {"type": "Point", "coordinates": [-88.6725373714, 47.0465627669]}, "type": "Feature", "properties": {"collection_times": [{"days": "Mon-Fri", "time": "1:00pm"}, {"days": "Sat", "time": "10:30am"}, {"days": "Sun", "time": "Closed"}], "id": "4995500002", "name": "USPS COLLECTION BOX - PO LOBBY", "address": {"city": "PAINESDALE", "state": "MI", "street": "43012 GOODELL AVE", "postcode": "49955"}}},
{"geometry": {"type": "Point", "coordinates": [-88.636274409, 46.813488708]}, "type": "Feature", "properties": {"collection_times": [{"days": "Mon-Fri", "time": "4:00pm"}, {"days": "Sat", "time": "10:30am"}, {"days": "Sun", "time": "Closed"}], "id": "4995800000", "name": "USPS COLLECTION BOX - BLUE BOX", "address": {"city": "PELKIE", "state": "MI", "street": "15370 PELKIE RD", "postcode": "49958"}}},
{"geometry": {"type": "Point", "coordinates": [-88.636274409, 46.813488708]}, "type": "Feature", "properties": {"collection_times": [{"days": "Mon-Fri", "time": "12:00pm"}, {"days": "Sat", "time": "10:30am"}, {"days": "Sun", "time": "Closed"}], "id": "4995800001", "name": "USPS COLLECTION BOX - PO LOBBY", "address": {"city": "PELKIE", "state": "MI", "street": "15370 PELKIE RD", "postcode": "49958"}}},
{"geometry": {"type": "Point", "coordinates": [-90.0105474491, 46.4710169662]}, "type": "Feature", "properties": {"collection_times": [{"days": "Mon-Fri", "time": "4:30pm"}, {"days": "Sat", "time": "10:30am"}, {"days": "Sun", "time": "Closed"}], "id": "4995900000", "name": "USPS COLLECTION BOX - BLUE BOX", "address": {"city": "RAMSAY", "state": "MI", "street": "17 MILL ST", "postcode": "49959"}}},
{"geometry": {"type": "Point", "coordinates": [-90.0105474491, 46.4710169662]}, "type": "Feature", "properties": {"collection_times": [{"days": "Mon-Fri", "time": "4:30pm"}, {"days": "Sat", "time": "10:30am"}, {"days": "Sun", "time": "Closed"}], "id": "4995900001", "name": "USPS COLLECTION BOX - PO LOBBY", "address": {"city": "RAMSAY", "state": "MI", "street": "17 MILL ST", "postcode": "49959"}}},
{"geometry": {"type": "Point", "coordinates": [-89.1793484348, 46.7368401589]}, "type": "Feature", "properties": {"collection_times": [{"days": "Mon-Fri", "time": "4:30pm"}, {"days": "Sat", "time": "10:30am"}, {"days": "Sun", "time": "Closed"}], "id": "4996000000", "name": "USPS COLLECTION BOX - BLUE BOX", "address": {"city": "ROCKLAND", "state": "MI", "street": "86 NATIONAL AVE", "postcode": "49960"}}},
{"geometry": {"type": "Point", "coordinates": [-89.1793484348, 46.7368401589]}, "type": "Feature", "properties": {"collection_times": [{"days": "Mon-Fri", "time": "4:00pm"}, {"days": "Sat", "time": "10:30am"}, {"days": "Sun", "time": "Closed"}], "id": "4996000001", "name": "USPS COLLECTION BOX - PO LOBBY", "address": {"city": "ROCKLAND", "state": "MI", "street": "86 NATIONAL AVE", "postcode": "49960"}}},
{"geometry": {"type": "Point", "coordinates": [-89.1793881224, 46.7363297231]}, "type": "Feature", "properties": {"collection_times": [{"days": "Mon-Sat", "time": "10:30am"}, {"days": "Sun", "time": "Closed"}], "id": "4996000002", "name": "USPS COLLECTION BOX - BLUE BOX", "address": {"city": "ROCKLAND", "state": "MI", "street": "86 NATIONAL AVE", "postcode": "49960"}}},
{"geometry": {"type": "Point", "coordinates": [-88.7081550309, 46.5066658829]}, "type": "Feature", "properties": {"collection_times": [{"days": "Mon-Fri", "time": "4:15pm"}, {"days": "Sat", "time": "10:30am"}, {"days": "Sun", "time": "Closed"}], "id": "4996100000", "name": "USPS COLLECTION BOX - BLUE BOX", "address": {"city": "SIDNAW", "state": "MI", "street": "13640 E STATE HIGHWAY M28", "postcode": "49961"}}},
{"geometry": {"type": "Point", "coordinates": [-88.7081550309, 46.5066658829]}, "type": "Feature", "properties": {"collection_times": [{"days": "Mon-Fri", "time": "4:15pm"}, {"days": "Sat", "time": "10:30am"}, {"days": "Sun", "time": "Closed"}], "id": "4996100001", "name": "USPS COLLECTION BOX - PO LOBBY", "address": {"city": "SIDNAW", "state": "MI", "street": "13640 E STATE HIGHWAY M28", "postcode": "49961"}}},
{"geometry": {"type": "Point", "coordinates": [-88.1534194682, 46.8313252038]}, "type": "Feature", "properties": {"collection_times": [{"days": "Mon-Fri", "time": "12:00pm"}, {"days": "Sat", "time": "11:30am"}, {"days": "Sun", "time": "Closed"}], "id": "4996200000", "name": "USPS COLLECTION BOX - BLUE BOX", "address": {"city": "SKANEE", "state": "MI", "street": "13120 TOWN RD", "postcode": "49962"}}},
{"geometry": {"type": "Point", "coordinates": [-88.1534194682, 46.8313252038]}, "type": "Feature", "properties": {"collection_times": [{"days": "Mon-Fri", "time": "12:00pm"}, {"days": "Sat", "time": "11:30am"}, {"days": "Sun", "time": "Closed"}], "id": "4996200001", "name": "USPS COLLECTION BOX - PO LOBBY", "address": {"city": "SKANEE", "state": "MI", "street": "13120 TOWN RD", "postcode": "49962"}}},
{"geometry": {"type": "Point", "coordinates": [-88.640566781, 47.07065921]}, "type": "Feature", "properties": {"collection_times": [{"days": "Mon-Fri", "time": "4:00pm"}, {"days": "Sat", "time": "11:00am"}, {"days": "Sun", "time": "Closed"}], "id": "4996300000", "name": "USPS COLLECTION BOX - BLUE BOX", "address": {"city": "SOUTH RANGE", "state": "MI", "street": "5 BALTIC AVE", "postcode": "49963"}}},
{"geometry": {"type": "Point", "coordinates": [-88.640566781, 47.07065921]}, "type": "Feature", "properties": {"collection_times": [{"days": "Mon-Fri", "time": "4:00pm"}, {"days": "Sat", "time": "11:00am"}, {"days": "Sun", "time": "Closed"}], "id": "4996300001", "name": "USPS COLLECTION BOX - PO LOBBY", "address": {"city": "SOUTH RANGE", "state": "MI", "street": "5 BALTIC AVE", "postcode": "49963"}}},
{"geometry": {"type": "Point", "coordinates": [-88.6333724235, 46.0858420111]}, "type": "Feature", "properties": {"collection_times": [{"days": "Mon-Fri", "time": "4:15pm"}, {"days": "Sat", "time": "11:00am"}, {"days": "Sun", "time": "Closed"}], "id": "4996400000", "name": "USPS COLLECTION BOX - BLUE BOX", "address": {"city": "STAMBAUGH", "state": "MI", "street": "201 WASHINGTON AVE", "postcode": "49964"}}},
{"geometry": {"type": "Point", "coordinates": [-88.6333724235, 46.0858420111]}, "type": "Feature", "properties": {"collection_times": [{"days": "Mon-Fri", "time": "4:30pm"}, {"days": "Sat", "time": "11:15am"}, {"days": "Sun", "time": "Closed"}], "id": "4996400001", "name": "USPS COLLECTION BOX - PO LOBBY", "address": {"city": "STAMBAUGH", "state": "MI", "street": "201 WASHINGTON AVE", "postcode": "49964"}}},
{"geometry": {"type": "Point", "coordinates": [-88.8519455781, 46.939051965]}, "type": "Feature", "properties": {"collection_times": [{"days": "Mon-Fri", "time": "3:30pm"}, {"days": "Sat", "time": "10:30am"}, {"days": "Sun", "time": "Closed"}], "id": "4996500000", "name": "USPS COLLECTION BOX - BLUE BOX", "address": {"city": "TOIVOLA", "state": "MI", "street": "19 STATE HIGHWAY M26", "postcode": "49965"}}},
{"geometry": {"type": "Point", "coordinates": [-88.8519455781, 46.939051965]}, "type": "Feature", "properties": {"collection_times": [{"days": "Mon-Fri", "time": "1:00pm"}, {"days": "Sat", "time": "10:30am"}, {"days": "Sun", "time": "Closed"}], "id": "4996500002", "name": "USPS COLLECTION BOX - PO LOBBY", "address": {"city": "TOIVOLA", "state": "MI", "street": "19 STATE HIGHWAY M26", "postcode": "49965"}}},
{"geometry": {"type": "Point", "coordinates": [-88.8519455781, 46.939051965]}, "type": "Feature", "properties": {"collection_times": [{"days": "Mon-Fri", "time": "11:00am"}, {"days": "Sat", "time": "10:30am"}, {"days": "Sun", "time": "Closed"}], "id": "4996500004", "name": "USPS COLLECTION BOX - BLUE BOX", "address": {"city": "TOIVOLA", "state": "MI", "street": "32850 N HWY M-26", "postcode": "49965"}}},
{"geometry": {"type": "Point", "coordinates": [-89.0122319006, 46.4826360929]}, "type": "Feature", "properties": {"collection_times": [{"days": "Mon-Fri", "time": "4:30pm"}, {"days": "Sat", "time": "10:00am"}, {"days": "Sun", "time": "Closed"}], "id": "4996700000", "name": "USPS COLLECTION BOX - BLUE BOX", "address": {"city": "TROUT CREEK", "state": "MI", "street": "153 DIVISION ST", "postcode": "49967"}}},
{"geometry": {"type": "Point", "coordinates": [-89.0122319006, 46.4826360929]}, "type": "Feature", "properties": {"collection_times": [{"days": "Mon-Fri", "time": "4:30pm"}, {"days": "Sat", "time": "10:00am"}, {"days": "Sun", "time": "Closed"}], "id": "4996700001", "name": "USPS COLLECTION BOX - PO LOBBY", "address": {"city": "TROUT CREEK", "state": "MI", "street": "153 DIVISION ST", "postcode": "49967"}}},
{"geometry": {"type": "Point", "coordinates": [-89.0122319006, 46.4826360929]}, "type": "Feature", "properties": {"collection_times": [{"days": "Mon-Fri", "time": "4:30pm"}, {"days": "Sat", "time": "10:00am"}, {"days": "Sun", "time": "Closed"}], "id": "4996700002", "name": "USPS COLLECTION BOX - PO LOBBY", "address": {"city": "TROUT CREEK", "state": "MI", "street": "153 DIVISION ST", "postcode": "49967"}}},
{"geometry": {"type": "Point", "coordinates": [-89.9423000811, 46.474784938]}, "type": "Feature", "properties": {"collection_times": [{"days": "Mon-Fri", "time": "4:00pm"}, {"days": "Sat", "time": "2:45pm"}, {"days": "Sun", "time": "Closed"}], "id": "4996800000", "name": "USPS COLLECTION BOX - BLUE BOX", "address": {"city": "WAKEFIELD", "state": "MI", "street": "409 HANCOCK ST", "postcode": "49968"}}},
{"geometry": {"type": "Point", "coordinates": [-89.9411029681, 46.4732166295]}, "type": "Feature", "properties": {"collection_times": [{"days": "Mon-Fri", "time": "9:30am"}, {"days": "Sat", "time": "9:45am"}, {"days": "Sun", "time": "Closed"}], "id": "4996800002", "name": "USPS COLLECTION BOX - BLUE BOX", "address": {"city": "WAKEFIELD", "state": "MI", "street": "501 SUNDAY LAKE ST", "postcode": "49968"}}},
{"geometry": {"type": "Point", "coordinates": [-89.9286784516, 46.4736268902]}, "type": "Feature", "properties": {"collection_times": [{"days": "Mon-Fri", "time": "11:00am"}, {"days": "Sat", "time": "11:45am"}, {"days": "Sun", "time": "Closed"}], "id": "4996800003", "name": "USPS COLLECTION BOX - BLUE BOX", "address": {"city": "WAKEFIELD", "state": "MI", "street": "1410 E PIERCE ST", "postcode": "49968"}}},
{"geometry": {"type": "Point", "coordinates": [-89.932578696, 46.4765588483]}, "type": "Feature", "properties": {"collection_times": [{"days": "Mon-Sat", "time": "2:00pm"}, {"days": "Sun", "time": "Closed"}], "id": "4996800005", "name": "USPS COLLECTION BOX - BLUE BOX", "address": {"city": "WAKEFIELD", "state": "MI", "street": "1110 US HIGHWAY 2", "postcode": "49968"}}},
{"geometry": {"type": "Point", "coordinates": [-89.9566893442, 46.4772494621]}, "type": "Feature", "properties": {"collection_times": [{"days": "Mon-Sat", "time": "10:30am"}, {"days": "Sun", "time": "Closed"}], "id": "4996800007", "name": "USPS COLLECTION BOX - BLUE BOX", "address": {"city": "WAKEFIELD", "state": "MI", "street": "905 PUTNAM ST", "postcode": "49968"}}},
{"geometry": {"type": "Point", "coordinates": [-89.9318802098, 46.4466933836]}, "type": "Feature", "properties": {"collection_times": [{"days": "Mon-Fri", "time": "10:45am"}, {"days": "Sat", "time": "11:15am"}, {"days": "Sun", "time": "Closed"}], "id": "4996800009", "name": "USPS COLLECTION BOX - BLUE BOX", "address": {"city": "WAKEFIELD", "state": "MI", "street": "506 OLSON AVE", "postcode": "49968"}}},
{"geometry": {"type": "Point", "coordinates": [-89.9423000811, 46.474784938]}, "type": "Feature", "properties": {"collection_times": [{"days": "Mon-Fri", "time": "4:15pm"}, {"days": "Sat", "time": "2:30pm"}, {"days": "Sun", "time": "Closed"}], "id": "4996800011", "name": "USPS COLLECTION BOX - PO LOBBY", "address": {"city": "WAKEFIELD", "state": "MI", "street": "409 HANCOCK ST", "postcode": "49968"}}},
{"geometry": {"type": "Point", "coordinates": [-89.2140326385, 46.2460143477]}, "type": "Feature", "properties": {"collection_times": [{"days": "Mon-Fri", "time": "4:00pm"}, {"days": "Sat", "time": "10:30am"}, {"days": "Sun", "time": "Closed"}], "id": "4996900000", "name": "USPS COLLECTION BOX - BLUE BOX", "address": {"city": "WATERSMEET", "state": "MI", "street": "N4708 MAIN ST", "postcode": "49969"}}},
{"geometry": {"type": "Point", "coordinates": [-89.2140326385, 46.2460143477]}, "type": "Feature", "properties": {"collection_times": [{"days": "Mon-Fri", "time": "4:00pm"}, {"days": "Sat", "time": "10:30am"}, {"days": "Sun", "time": "Closed"}], "id": "4996900001", "name": "USPS COLLECTION BOX - PO LOBBY", "address": {"city": "WATERSMEET", "state": "MI", "street": "N4708 MAIN ST", "postcode": "49969"}}},
{"geometry": {"type": "Point", "coordinates": [-88.6336490648, 46.5064641315]}, "type": "Feature", "properties": {"collection_times": [{"days": "Mon-Fri", "time": "4:00pm"}, {"days": "Sat", "time": "9:45am"}, {"days": "Sun", "time": "Closed"}], "id": "4997000000", "name": "USPS COLLECTION BOX - BLUE BOX", "address": {"city": "WATTON", "state": "MI", "street": "1 STATE HIGHWAY M28", "postcode": "49970"}}},
{"geometry": {"type": "Point", "coordinates": [-88.6336490648, 46.5064641315]}, "type": "Feature", "properties": {"collection_times": [{"days": "Mon-Fri", "time": "4:00pm"}, {"days": "Sat", "time": "9:45am"}, {"days": "Sun", "time": "Closed"}], "id": "4997000001", "name": "USPS COLLECTION BOX - PO LOBBY", "address": {"city": "WATTON", "state": "MI", "street": "1 STATE HIGHWAY M28", "postcode": "49970"}}},
{"geometry": {"type": "Point", "coordinates": [-89.5737364766, 46.7547568914]}, "type": "Feature", "properties": {"collection_times": [{"days": "Mon-Fri", "time": "4:30pm"}, {"days": "Sat", "time": "11:45am"}, {"days": "Sun", "time": "Closed"}], "id": "4997100000", "name": "USPS COLLECTION BOX - BLUE BOX", "address": {"city": "WHITE PINE", "state": "MI", "street": "303 MINERAL RIVER PLZ", "postcode": "49971"}}},
{"geometry": {"type": "Point", "coordinates": [-89.5737364766, 46.7547568914]}, "type": "Feature", "properties": {"collection_times": [{"days": "Mon-Fri", "time": "4:30pm"}, {"days": "Sat", "time": "11:45am"}, {"days": "Sun", "time": "Closed"}], "id": "4997100001", "name": "USPS COLLECTION BOX - PO LOBBY", "address": {"city": "WHITE PINE", "state": "MI", "street": "303 MINERAL RIVER PLZ", "postcode": "49971"}}}
]}
