{"type": "FeatureCollection", "features": [
{"geometry": {"type": "Point", "coordinates": [-96.8278182791, 32.9660086722]}, "type": "Feature", "properties": {"collection_times": [{"days": "Mon-Fri", "time": "5:00pm"}, {"days": "Sat", "time": "1:00pm"}, {"days": "Sun", "time": "Closed"}], "id": "7500100002", "name": "USPS COLLECTION BOX - PO LOBBY", "address": {"city": "ADDISON", "state": "TX", "street": "4900 AIRPORT PKWY", "postcode": "75001"}}},
{"geometry": {"type": "Point", "coordinates": [-96.8278182791, 32.9660086722]}, "type": "Feature", "properties": {"collection_times": [{"days": "Mon-Fri", "time": "5:00pm"}, {"days": "Sat", "time": "1:00pm"}, {"days": "Sun", "time": "Closed"}], "id": "7500106043", "name": "USPS COLLECTION BOX - BLUE BOX", "address": {"city": "ADDISON", "state": "TX", "street": "4900 AIRPORT PKWY", "postcode": "75001"}}},
{"geometry": {"type": "Point", "coordinates": [-96.8278182791, 32.9660086722]}, "type": "Feature", "properties": {"collection_times": [{"days": "Mon-Fri", "time": "5:00pm"}, {"days": "Sat", "time": "1:00pm"}, {"days": "Sun", "time": "Closed"}], "id": "7500106045", "name": "USPS COLLECTION BOX - BLUE BOX", "address": {"city": "ADDISON", "state": "TX", "street": "4900 AIRPORT PKWY", "postcode": "75001"}}},
{"geometry": {"type": "Point", "coordinates": [-96.8278182791, 32.9660086722]}, "type": "Feature", "properties": {"collection_times": [{"days": "Mon-Fri", "time": "5:00pm"}, {"days": "Sat", "time": "1:00pm"}, {"days": "Sun", "time": "Closed"}], "id": "7500106048", "name": "USPS COLLECTION BOX - PO LOBBY", "address": {"city": "ADDISON", "state": "TX", "street": "4900 AIRPORT PKWY", "postcode": "75001"}}},
{"geometry": {"type": "Point", "coordinates": [-96.8544384047, 32.9530481738]}, "type": "Feature", "properties": {"collection_times": [{"days": "Mon-Sat", "time": "1:00pm"}, {"days": "Sun", "time": "Closed"}], "id": "7500106083", "name": "USPS COLLECTION BOX - BLUE BOX", "address": {"city": "ADDISON", "state": "TX", "street": "3730 BELT LINE RD", "postcode": "75001"}}},
{"geometry": {"type": "Point", "coordinates": [-96.8390425408, 32.9478048963]}, "type": "Feature", "properties": {"collection_times": [{"days": "Mon-Fri", "time": "1:00pm"}, {"days": "Sat-Sun", "time": "Closed"}], "id": "7500106097", "name": "USPS COLLECTION BOX - BLUE BOX", "address": {"city": "ADDISON", "state": "TX", "street": "14673 MIDWAY RD", "postcode": "75001"}}},
{"geometry": {"type": "Point", "coordinates": [-96.8394195577, 32.9658324113]}, "type": "Feature", "properties": {"collection_times": [{"days": "Mon-Sat", "time": "1:00pm"}, {"days": "Sun", "time": "Closed"}], "id": "7500106104", "name": "USPS COLLECTION BOX - BLUE BOX", "address": {"city": "ADDISON", "state": "TX", "street": "15810 MIDWAY RD", "postcode": "75001"}}},
{"geometry": {"type": "Point", "coordinates": [-96.8375065702, 32.9790269305]}, "type": "Feature", "properties": {"collection_times": [{"days": "Mon-Fri", "time": "1:00pm"}, {"days": "Sat-Sun", "time": "Closed"}], "id": "7500106118", "name": "USPS COLLECTION BOX - BLUE BOX", "address": {"city": "ADDISON", "state": "TX", "street": "4300 EXCEL PKWY", "postcode": "75001"}}},
{"geometry": {"type": "Point", "coordinates": [-96.8278182791, 32.9660086722]}, "type": "Feature", "properties": {"collection_times": [{"days": "Mon-Fri", "time": "5:00pm"}, {"days": "Sat", "time": "1:00pm"}, {"days": "Sun", "time": "Closed"}], "id": "7500106119", "name": "USPS COLLECTION BOX - APC", "address": {"city": "ADDISON", "state": "TX", "street": "4900 AIRPORT PKWY", "postcode": "75001"}}},
{"geometry": {"type": "Point", "coordinates": [-96.8348098628, 32.9603420551]}, "type": "Feature", "properties": {"collection_times": [{"days": "Mon-Sat", "time": "1:00pm"}, {"days": "Sun", "time": "Closed"}], "id": "7500106120", "name": "USPS COLLECTION BOX - EXPRESS", "address": {"city": "ADDISON", "state": "TX", "street": "3730 BELT LINE RD", "postcode": "75001"}}},
{"geometry": {"type": "Point", "coordinates": [-96.6768757538, 33.0801965964]}, "type": "Feature", "properties": {"collection_times": [{"days": "Mon-Fri", "time": "1:00pm"}, {"days": "Sat-Sun", "time": "Closed"}], "id": "7500200004", "name": "USPS COLLECTION BOX - BLUE BOX", "address": {"city": "ALLEN", "state": "TX", "street": "1024 S GREENVILLE AVE", "postcode": "75002"}}},
{"geometry": {"type": "Point", "coordinates": [-96.6617284745, 33.1007607109]}, "type": "Feature", "properties": {"collection_times": [{"days": "Mon-Fri", "time": "1:00pm"}, {"days": "Sat-Sun", "time": "Closed"}], "id": "7500200005", "name": "USPS COLLECTION BOX - BLUE BOX", "address": {"city": "ALLEN", "state": "TX", "street": "105 N GREENVILLE AVE", "postcode": "75002"}}},
{"geometry": {"type": "Point", "coordinates": [-96.6713530286, 33.0870691438]}, "type": "Feature", "properties": {"collection_times": [{"days": "Mon-Fri", "time": "1:00pm"}, {"days": "Sat-Sun", "time": "Closed"}], "id": "7500200007", "name": "USPS COLLECTION BOX - BLUE BOX", "address": {"city": "ALLEN", "state": "TX", "street": "801 S GREENVILLE AVE", "postcode": "75002"}}},
{"geometry": {"type": "Point", "coordinates": [-96.6617284745, 33.1007607109]}, "type": "Feature", "properties": {"collection_times": [{"days": "Mon-Fri", "time": "1:00pm"}, {"days": "Sat-Sun", "time": "Closed"}], "id": "7500205876", "name": "USPS COLLECTION BOX - BLUE BOX", "address": {"city": "ALLEN", "state": "TX", "street": "105 N GREENVILLE AVE", "postcode": "75002"}}},
{"geometry": {"type": "Point", "coordinates": [-96.6276660706, 33.0946418301]}, "type": "Feature", "properties": {"collection_times": [{"days": "Mon-Fri", "time": "1:00pm"}, {"days": "Sat-Sun", "time": "Closed"}], "id": "7500207238", "name": "USPS COLLECTION BOX - BLUE BOX", "address": {"city": "ALLEN", "state": "TX", "street": "665 COUNTRY CLUB RD", "postcode": "75002"}}},
{"geometry": {"type": "Point", "coordinates": [-96.6286600396, 33.128145028]}, "type": "Feature", "properties": {"collection_times": [{"days": "Mon-Fri", "time": "1:00pm"}, {"days": "Sat-Sun", "time": "Closed"}], "id": "7500207239", "name": "USPS COLLECTION BOX - BLUE BOX", "address": {"city": "ALLEN", "state": "TX", "street": "1717 ANGEL PKWY", "postcode": "75002"}}},
{"geometry": {"type": "Point", "coordinates": [-96.8557458442, 32.9707254186]}, "type": "Feature", "properties": {"collection_times": [{"days": "Mon-Fri", "time": "1:00pm"}, {"days": "Sat-Sun", "time": "Closed"}], "id": "7500600031", "name": "USPS COLLECTION BOX - BLUE BOX", "address": {"city": "CARROLLTON", "state": "TX", "street": "2201 MARSH LN", "postcode": "75006"}}},
{"geometry": {"type": "Point", "coordinates": [-96.9291164075, 32.9224584178]}, "type": "Feature", "properties": {"collection_times": [{"days": "Mon-Fri", "time": "2:00pm"}, {"days": "Sat", "time": "1:00pm"}, {"days": "Sun", "time": "Closed"}], "id": "7500600037", "name": "USPS COLLECTION BOX - BLUE BOX", "address": {"city": "CARROLLTON", "state": "TX", "street": "1825 TRINITY VALLEY DR", "postcode": "75006"}}},
{"geometry": {"type": "Point", "coordinates": [-96.9084339865, 32.9522253723]}, "type": "Feature", "properties": {"collection_times": [{"days": "Mon-Fri", "time": "3:00pm"}, {"days": "Sat", "time": "1:00pm"}, {"days": "Sun", "time": "Closed"}], "id": "7500600039", "name": "USPS COLLECTION BOX - BLUE BOX", "address": {"city": "CARROLLTON", "state": "TX", "street": "1110 W MAIN ST", "postcode": "75006"}}},
{"geometry": {"type": "Point", "coordinates": [-96.8422018771, 32.9863437368]}, "type": "Feature", "properties": {"collection_times": [{"days": "Mon-Fri", "time": "3:00pm"}, {"days": "Sat", "time": "1:00pm"}, {"days": "Sun", "time": "Closed"}], "id": "7500600054", "name": "USPS COLLECTION BOX - BLUE BOX", "address": {"city": "CARROLLTON", "state": "TX", "street": "2661 MIDWAY RD", "postcode": "75006"}}},
{"geometry": {"type": "Point", "coordinates": [-96.857137917, 32.986857141]}, "type": "Feature", "properties": {"collection_times": [{"days": "Mon-Fri", "time": "3:00pm"}, {"days": "Sat-Sun", "time": "Closed"}], "id": "7500600056", "name": "USPS COLLECTION BOX - BLUE BOX", "address": {"city": "CARROLLTON", "state": "TX", "street": "2760 E TRINITY MILLS RD", "postcode": "75006"}}},
{"geometry": {"type": "Point", "coordinates": [-96.8855111878, 32.9755314919]}, "type": "Feature", "properties": {"collection_times": [{"days": "Mon-Fri", "time": "5:00pm"}, {"days": "Sat", "time": "1:00pm"}, {"days": "Sun", "time": "Closed"}], "id": "7500605238", "name": "USPS COLLECTION BOX - BLUE BOX", "address": {"city": "CARROLLTON", "state": "TX", "street": "2030 E JACKSON RD", "postcode": "75006"}}},
{"geometry": {"type": "Point", "coordinates": [-96.8855111878, 32.9755314919]}, "type": "Feature", "properties": {"collection_times": [{"days": "Mon-Fri", "time": "5:00pm"}, {"days": "Sat", "time": "1:00pm"}, {"days": "Sun", "time": "Closed"}], "id": "7500605240", "name": "USPS COLLECTION BOX - BLUE BOX", "address": {"city": "CARROLLTON", "state": "TX", "street": "2030 E JACKSON RD", "postcode": "75006"}}},
{"geometry": {"type": "Point", "coordinates": [-96.8955480737, 32.9575259835]}, "type": "Feature", "properties": {"collection_times": [{"days": "Mon-Fri", "time": "3:00pm"}, {"days": "Sat-Sun", "time": "Closed"}], "id": "7500606221", "name": "USPS COLLECTION BOX - BLUE BOX", "address": {"city": "CARROLLTON", "state": "TX", "street": "1445 N PERRY RD", "postcode": "75006"}}},
{"geometry": {"type": "Point", "coordinates": [-96.8579244143, 32.9571248054]}, "type": "Feature", "properties": {"collection_times": [{"days": "Mon-Fri", "time": "1:00pm"}, {"days": "Sat-Sun", "time": "Closed"}], "id": "7500606330", "name": "USPS COLLECTION BOX - BLUE BOX", "address": {"city": "CARROLLTON", "state": "TX", "street": "2741 REALTY DR", "postcode": "75006"}}},
{"geometry": {"type": "Point", "coordinates": [-96.8855111878, 32.9755314919]}, "type": "Feature", "properties": {"collection_times": [{"days": "Mon-Fri", "time": "5:00pm"}, {"days": "Sat", "time": "1:00pm"}, {"days": "Sun", "time": "Closed"}], "id": "7500607295", "name": "USPS COLLECTION BOX - PO LOBBY", "address": {"city": "CARROLLTON", "state": "TX", "street": "2030 E JACKSON RD", "postcode": "75006"}}},
{"geometry": {"type": "Point", "coordinates": [-96.8855111878, 32.9755314919]}, "type": "Feature", "properties": {"collection_times": [{"days": "Mon-Fri", "time": "5:00pm"}, {"days": "Sat", "time": "1:00pm"}, {"days": "Sun", "time": "Closed"}], "id": "7500607296", "name": "USPS COLLECTION BOX - PO LOBBY", "address": {"city": "CARROLLTON", "state": "TX", "street": "2030 E JACKSON RD", "postcode": "75006"}}},
{"geometry": {"type": "Point", "coordinates": [-96.922259229, 32.9538306039]}, "type": "Feature", "properties": {"collection_times": [{"days": "Mon-Fri", "time": "2:00pm"}, {"days": "Sat-Sun", "time": "Closed"}], "id": "7500607297", "name": "USPS COLLECTION BOX - BLUE BOX", "address": {"city": "CARROLLTON", "state": "TX", "street": "1200 CAPITAL DR", "postcode": "75006"}}},
{"geometry": {"type": "Point", "coordinates": [-96.8784181659, 32.9536432022]}, "type": "Feature", "properties": {"collection_times": [{"days": "Mon-Fri", "time": "1:00pm"}, {"days": "Sat-Sun", "time": "Closed"}], "id": "7500607298", "name": "USPS COLLECTION BOX - BLUE BOX", "address": {"city": "CARROLLTON", "state": "TX", "street": "2225 E BELT LINE RD", "postcode": "75006"}}},
{"geometry": {"type": "Point", "coordinates": [-96.8443193737, 32.9769297494]}, "type": "Feature", "properties": {"collection_times": [{"days": "Mon-Fri", "time": "3:00pm"}, {"days": "Sat-Sun", "time": "Closed"}], "id": "7500607302", "name": "USPS COLLECTION BOX - BLUE BOX", "address": {"city": "CARROLLTON", "state": "TX", "street": "3230 COMMANDER DR", "postcode": "75006"}}},
{"geometry": {"type": "Point", "coordinates": [-96.9194810375, 32.9385261695]}, "type": "Feature", "properties": {"collection_times": [{"days": "Mon-Fri", "time": "3:00pm"}, {"days": "Sat", "time": "1:00pm"}, {"days": "Sun", "time": "Closed"}], "id": "7500607304", "name": "USPS COLLECTION BOX - BLUE BOX", "address": {"city": "CARROLLTON", "state": "TX", "street": "1420 VALWOOD PKWY", "postcode": "75006"}}},
{"geometry": {"type": "Point", "coordinates": [-96.912099512, 32.9599482077]}, "type": "Feature", "properties": {"collection_times": [{"days": "Mon-Fri", "time": "3:00pm"}, {"days": "Sat", "time": "1:00pm"}, {"days": "Sun", "time": "Closed"}], "id": "7500607305", "name": "USPS COLLECTION BOX - BLUE BOX", "address": {"city": "CARROLLTON", "state": "TX", "street": "1400 NORTHSIDE DR", "postcode": "75006"}}},
{"geometry": {"type": "Point", "coordinates": [-96.9250456764, 32.9445604432]}, "type": "Feature", "properties": {"collection_times": [{"days": "Mon-Fri", "time": "2:00pm"}, {"days": "Sat", "time": "1:00pm"}, {"days": "Sun", "time": "Closed"}], "id": "7500607306", "name": "USPS COLLECTION BOX - BLUE BOX", "address": {"city": "CARROLLTON", "state": "TX", "street": "1501 LUNA RD", "postcode": "75006"}}},
{"geometry": {"type": "Point", "coordinates": [-96.8855111878, 32.9755314919]}, "type": "Feature", "properties": {"collection_times": [{"days": "Mon-Fri", "time": "5:00pm"}, {"days": "Sat", "time": "1:00pm"}, {"days": "Sun", "time": "Closed"}], "id": "7500607307", "name": "USPS COLLECTION BOX - APC", "address": {"city": "CARROLLTON", "state": "TX", "street": "2030 E JACKSON RD", "postcode": "75006"}}},
{"geometry": {"type": "Point", "coordinates": [-96.9204570796, 32.9891513646]}, "type": "Feature", "properties": {"collection_times": [{"days": "Mon-Fri", "time": "5:00pm"}, {"days": "Sat", "time": "1:00pm"}, {"days": "Sun", "time": "Closed"}], "id": "7500700000", "name": "USPS COLLECTION BOX - BLUE BOX", "address": {"city": "CARROLLTON", "state": "TX", "street": "1400 LEMAY DR", "postcode": "75007"}}},
{"geometry": {"type": "Point", "coordinates": [-96.8871268237, 33.0147439642]}, "type": "Feature", "properties": {"collection_times": [{"days": "Mon-Fri", "time": "5:00pm"}, {"days": "Sat", "time": "1:00pm"}, {"days": "Sun", "time": "Closed"}], "id": "7500700006", "name": "USPS COLLECTION BOX - BLUE BOX", "address": {"city": "CARROLLTON", "state": "TX", "street": "3755 N JOSEY LN", "postcode": "75007"}}},
{"geometry": {"type": "Point", "coordinates": [-96.886848131, 32.9972396062]}, "type": "Feature", "properties": {"collection_times": [{"days": "Mon-Fri", "time": "1:00pm"}, {"days": "Sat-Sun", "time": "Closed"}], "id": "7500700007", "name": "USPS COLLECTION BOX - BLUE BOX", "address": {"city": "CARROLLTON", "state": "TX", "street": "3030 N JOSEY LN", "postcode": "75007"}}},
{"geometry": {"type": "Point", "coordinates": [-96.9204570796, 32.9891513646]}, "type": "Feature", "properties": {"collection_times": [{"days": "Mon-Fri", "time": "5:00pm"}, {"days": "Sat", "time": "1:00pm"}, {"days": "Sun", "time": "Closed"}], "id": "7500700008", "name": "USPS COLLECTION BOX - BLUE BOX", "address": {"city": "CARROLLTON", "state": "TX", "street": "1400 LEMAY DR", "postcode": "75007"}}},
{"geometry": {"type": "Point", "coordinates": [-96.8871268237, 33.0147439642]}, "type": "Feature", "properties": {"collection_times": [{"days": "Mon-Fri", "time": "5:00pm"}, {"days": "Sat", "time": "1:00pm"}, {"days": "Sun", "time": "Closed"}], "id": "7500700009", "name": "USPS COLLECTION BOX - BLUE BOX", "address": {"city": "CARROLLTON", "state": "TX", "street": "3755 N JOSEY LN", "postcode": "75007"}}},
{"geometry": {"type": "Point", "coordinates": [-96.8590197079, 33.0118501439]}, "type": "Feature", "properties": {"collection_times": [{"days": "Mon-Fri", "time": "1:00pm"}, {"days": "Sat-Sun", "time": "Closed"}], "id": "7500700010", "name": "USPS COLLECTION BOX - BLUE BOX", "address": {"city": "CARROLLTON", "state": "TX", "street": "2525 E ROSEMEADE PKWY", "postcode": "75007"}}},
{"geometry": {"type": "Point", "coordinates": [-96.8871268237, 33.0147439642]}, "type": "Feature", "properties": {"collection_times": [{"days": "Mon-Fri", "time": "5:00pm"}, {"days": "Sat", "time": "1:00pm"}, {"days": "Sun", "time": "Closed"}], "id": "7500700011", "name": "USPS COLLECTION BOX - PO LOBBY", "address": {"city": "CARROLLTON", "state": "TX", "street": "3755 N JOSEY LN", "postcode": "75007"}}},
{"geometry": {"type": "Point", "coordinates": [-96.8871268237, 33.0147439642]}, "type": "Feature", "properties": {"collection_times": [{"days": "Mon-Fri", "time": "5:00pm"}, {"days": "Sat", "time": "1:00pm"}, {"days": "Sun", "time": "Closed"}], "id": "7500700014", "name": "USPS COLLECTION BOX - PO LOBBY", "address": {"city": "CARROLLTON", "state": "TX", "street": "3755 N JOSEY LN", "postcode": "75007"}}},
{"geometry": {"type": "Point", "coordinates": [-96.8455035156, 33.0194441116]}, "type": "Feature", "properties": {"collection_times": [{"days": "Mon-Fri", "time": "1:00pm"}, {"days": "Sat-Sun", "time": "Closed"}], "id": "7500700018", "name": "USPS COLLECTION BOX - BLUE BOX", "address": {"city": "CARROLLTON", "state": "TX", "street": "4000 INTERNATIONAL PKWY", "postcode": "75007"}}},
{"geometry": {"type": "Point", "coordinates": [-96.7946257124, 33.3248120085]}, "type": "Feature", "properties": {"collection_times": [{"days": "Mon-Fri", "time": "4:00pm"}, {"days": "Sat", "time": "9:00am"}, {"days": "Sun", "time": "Closed"}], "id": "7500900074", "name": "USPS COLLECTION BOX - BLUE BOX", "address": {"city": "CELINA", "state": "TX", "street": "918 W WALNUT ST", "postcode": "75009"}}},
{"geometry": {"type": "Point", "coordinates": [-96.7942389765, 33.3247442557]}, "type": "Feature", "properties": {"collection_times": [{"days": "Mon-Fri", "time": "4:00pm"}, {"days": "Sat-Sun", "time": "Closed"}], "id": "7500906275", "name": "USPS COLLECTION BOX - PO LOBBY", "address": {"city": "CELINA", "state": "TX", "street": "918 W WALNUT ST", "postcode": "75009"}}},
{"geometry": {"type": "Point", "coordinates": [-96.8848085102, 33.0273072399]}, "type": "Feature", "properties": {"collection_times": [{"days": "Mon-Fri", "time": "1:00pm"}, {"days": "Sat-Sun", "time": "Closed"}], "id": "7501000000", "name": "USPS COLLECTION BOX - BLUE BOX", "address": {"city": "CARROLLTON", "state": "TX", "street": "4343 N JOSEY LN", "postcode": "75010"}}},
{"geometry": {"type": "Point", "coordinates": [-96.9173789194, 33.020384564]}, "type": "Feature", "properties": {"collection_times": [{"days": "Mon-Sat", "time": "1:00pm"}, {"days": "Sun", "time": "Closed"}], "id": "7501000004", "name": "USPS COLLECTION BOX - BLUE BOX", "address": {"city": "CARROLLTON", "state": "TX", "street": "1025 W HEBRON PKWY", "postcode": "75010"}}},
{"geometry": {"type": "Point", "coordinates": [-96.6711909633, 33.1068730599]}, "type": "Feature", "properties": {"collection_times": [{"days": "Mon-Fri", "time": "1:00pm"}, {"days": "Sat-Sun", "time": "Closed"}], "id": "7501300000", "name": "USPS COLLECTION BOX - BLUE BOX", "address": {"city": "ALLEN", "state": "TX", "street": "400 N ALLEN DR", "postcode": "75013"}}},
{"geometry": {"type": "Point", "coordinates": [-96.6726483687, 33.1042291466]}, "type": "Feature", "properties": {"collection_times": [{"days": "Mon-Fri", "time": "5:00pm"}, {"days": "Sat", "time": "1:00pm"}, {"days": "Sun", "time": "Closed"}], "id": "7501300001", "name": "USPS COLLECTION BOX - BLUE BOX", "address": {"city": "ALLEN", "state": "TX", "street": "304 W BOYD DR", "postcode": "75013"}}},
{"geometry": {"type": "Point", "coordinates": [-96.6726483687, 33.1042291466]}, "type": "Feature", "properties": {"collection_times": [{"days": "Mon-Fri", "time": "5:00pm"}, {"days": "Sat", "time": "1:00pm"}, {"days": "Sun", "time": "Closed"}], "id": "7501300002", "name": "USPS COLLECTION BOX - BLUE BOX", "address": {"city": "ALLEN", "state": "TX", "street": "304 W BOYD DR", "postcode": "75013"}}},
{"geometry": {"type": "Point", "coordinates": [-96.6726483687, 33.1042291466]}, "type": "Feature", "properties": {"collection_times": [{"days": "Mon-Fri", "time": "5:00pm"}, {"days": "Sat", "time": "1:00pm"}, {"days": "Sun", "time": "Closed"}], "id": "7501300004", "name": "USPS COLLECTION BOX - BLUE BOX", "address": {"city": "ALLEN", "state": "TX", "street": "304 W BOYD DR", "postcode": "75013"}}},
{"geometry": {"type": "Point", "coordinates": [-96.6726483687, 33.1042291466]}, "type": "Feature", "properties": {"collection_times": [{"days": "Mon-Fri", "time": "5:00pm"}, {"days": "Sat", "time": "1:00pm"}, {"days": "Sun", "time": "Closed"}], "id": "7501300005", "name": "USPS COLLECTION BOX - BLUE BOX", "address": {"city": "ALLEN", "state": "TX", "street": "304 W BOYD DR", "postcode": "75013"}}},
{"geometry": {"type": "Point", "coordinates": [-96.6726483687, 33.1042291466]}, "type": "Feature", "properties": {"collection_times": [{"days": "Mon-Fri", "time": "5:00pm"}, {"days": "Sat", "time": "1:00pm"}, {"days": "Sun", "time": "Closed"}], "id": "7501300006", "name": "USPS COLLECTION BOX - PO LOBBY", "address": {"city": "ALLEN", "state": "TX", "street": "304 W BOYD DR", "postcode": "75013"}}},
{"geometry": {"type": "Point", "coordinates": [-96.6726483687, 33.1042291466]}, "type": "Feature", "properties": {"collection_times": [{"days": "Mon-Fri", "time": "5:00pm"}, {"days": "Sat", "time": "1:00pm"}, {"days": "Sun", "time": "Closed"}], "id": "7501300007", "name": "USPS COLLECTION BOX - PO LOBBY", "address": {"city": "ALLEN", "state": "TX", "street": "304 W BOYD DR", "postcode": "75013"}}},
{"geometry": {"type": "Point", "coordinates": [-96.6726483687, 33.1042291466]}, "type": "Feature", "properties": {"collection_times": [{"days": "Mon-Fri", "time": "5:00pm"}, {"days": "Sat", "time": "1:00pm"}, {"days": "Sun", "time": "Closed"}], "id": "7501300008", "name": "USPS COLLECTION BOX - PO LOBBY", "address": {"city": "ALLEN", "state": "TX", "street": "304 W BOYD DR", "postcode": "75013"}}},
{"geometry": {"type": "Point", "coordinates": [-96.6726483687, 33.1042291466]}, "type": "Feature", "properties": {"collection_times": [{"days": "Mon-Fri", "time": "5:00pm"}, {"days": "Sat", "time": "1:00pm"}, {"days": "Sun", "time": "Closed"}], "id": "7501300009", "name": "USPS COLLECTION BOX - APC", "address": {"city": "ALLEN", "state": "TX", "street": "304 W BOYD DR", "postcode": "75013"}}},
{"geometry": {"type": "Point", "coordinates": [-96.9933923136, 32.9595781073]}, "type": "Feature", "properties": {"collection_times": [{"days": "Mon-Fri", "time": "5:00pm"}, {"days": "Sat", "time": "1:00pm"}, {"days": "Sun", "time": "Closed"}], "id": "7501900076", "name": "USPS COLLECTION BOX - PO LOBBY", "address": {"city": "COPPELL", "state": "TX", "street": "450 S DENTON TAP RD", "postcode": "75019"}}},
{"geometry": {"type": "Point", "coordinates": [-96.9933923136, 32.9595781073]}, "type": "Feature", "properties": {"collection_times": [{"days": "Mon-Fri", "time": "5:00pm"}, {"days": "Sat", "time": "1:00pm"}, {"days": "Sun", "time": "Closed"}], "id": "7501907282", "name": "USPS COLLECTION BOX - BLUE BOX", "address": {"city": "COPPELL", "state": "TX", "street": "450 S DENTON TAP RD", "postcode": "75019"}}},
{"geometry": {"type": "Point", "coordinates": [-96.9601493918, 32.9531087835]}, "type": "Feature", "properties": {"collection_times": [{"days": "Mon-Sat", "time": "1:00pm"}, {"days": "Sun", "time": "Closed"}], "id": "7501907284", "name": "USPS COLLECTION BOX - BLUE BOX", "address": {"city": "COPPELL", "state": "TX", "street": "1305 E BELT LINE RD", "postcode": "75019"}}},
{"geometry": {"type": "Point", "coordinates": [-96.9943398637, 32.9693623609]}, "type": "Feature", "properties": {"collection_times": [{"days": "Mon-Sat", "time": "1:00pm"}, {"days": "Sun", "time": "Closed"}], "id": "7501907286", "name": "USPS COLLECTION BOX - BLUE BOX", "address": {"city": "COPPELL", "state": "TX", "street": "110 W SANDY LAKE RD", "postcode": "75019"}}},
{"geometry": {"type": "Point", "coordinates": [-96.9933923136, 32.9595781073]}, "type": "Feature", "properties": {"collection_times": [{"days": "Mon-Fri", "time": "5:00pm"}, {"days": "Sat", "time": "1:00pm"}, {"days": "Sun", "time": "Closed"}], "id": "7501907288", "name": "USPS COLLECTION BOX - PO LOBBY", "address": {"city": "COPPELL", "state": "TX", "street": "450 S DENTON TAP RD", "postcode": "75019"}}},
{"geometry": {"type": "Point", "coordinates": [-96.9933923136, 32.9595781073]}, "type": "Feature", "properties": {"collection_times": [{"days": "Mon-Fri", "time": "5:00pm"}, {"days": "Sat", "time": "1:00pm"}, {"days": "Sun", "time": "Closed"}], "id": "7501907289", "name": "USPS COLLECTION BOX - PO LOBBY", "address": {"city": "COPPELL", "state": "TX", "street": "450 S DENTON TAP RD", "postcode": "75019"}}},
{"geometry": {"type": "Point", "coordinates": [-96.9933923136, 32.9595781073]}, "type": "Feature", "properties": {"collection_times": [{"days": "Mon-Fri", "time": "5:00pm"}, {"days": "Sat", "time": "1:00pm"}, {"days": "Sun", "time": "Closed"}], "id": "7501907290", "name": "USPS COLLECTION BOX - APC", "address": {"city": "COPPELL", "state": "TX", "street": "450 S DENTON TAP RD", "postcode": "75019"}}},
{"geometry": {"type": "Point", "coordinates": [-96.5373256378, 33.7564006782]}, "type": "Feature", "properties": {"collection_times": [{"days": "Mon-Fri", "time": "5:00pm"}, {"days": "Sat", "time": "1:00pm"}, {"days": "Sun", "time": "Closed"}], "id": "7502000087", "name": "USPS COLLECTION BOX - BLUE BOX", "address": {"city": "DENISON", "state": "TX", "street": "231 W WOODARD ST", "postcode": "75020"}}},
{"geometry": {"type": "Point", "coordinates": [-96.5687860682, 33.7605325516]}, "type": "Feature", "properties": {"collection_times": [{"days": "Mon-Fri", "time": "1:00pm"}, {"days": "Sat-Sun", "time": "Closed"}], "id": "7502000088", "name": "USPS COLLECTION BOX - BLUE BOX", "address": {"city": "DENISON", "state": "TX", "street": "2300 W MORTON ST", "postcode": "75020"}}},
{"geometry": {"type": "Point", "coordinates": [-96.5465010693, 33.7538156515]}, "type": "Feature", "properties": {"collection_times": [{"days": "Mon-Fri", "time": "1:00pm"}, {"days": "Sat-Sun", "time": "Closed"}], "id": "7502000101", "name": "USPS COLLECTION BOX - BLUE BOX", "address": {"city": "DENISON", "state": "TX", "street": "815 W CRAWFORD ST", "postcode": "75020"}}},
{"geometry": {"type": "Point", "coordinates": [-96.5373256378, 33.7564006782]}, "type": "Feature", "properties": {"collection_times": [{"days": "Mon-Fri", "time": "5:00pm"}, {"days": "Sat", "time": "1:00pm"}, {"days": "Sun", "time": "Closed"}], "id": "7502005954", "name": "USPS COLLECTION BOX - BLUE BOX", "address": {"city": "DENISON", "state": "TX", "street": "231 W WOODARD ST", "postcode": "75020"}}},
{"geometry": {"type": "Point", "coordinates": [-96.5373256378, 33.7564006782]}, "type": "Feature", "properties": {"collection_times": [{"days": "Mon-Fri", "time": "5:00pm"}, {"days": "Sat", "time": "1:00pm"}, {"days": "Sun", "time": "Closed"}], "id": "7502005955", "name": "USPS COLLECTION BOX - BLUE BOX", "address": {"city": "DENISON", "state": "TX", "street": "231 W WOODARD ST", "postcode": "75020"}}},
{"geometry": {"type": "Point", "coordinates": [-96.5373256378, 33.7564006782]}, "type": "Feature", "properties": {"collection_times": [{"days": "Mon-Fri", "time": "5:00pm"}, {"days": "Sat", "time": "1:00pm"}, {"days": "Sun", "time": "Closed"}], "id": "7502005956", "name": "USPS COLLECTION BOX - BLUE BOX", "address": {"city": "DENISON", "state": "TX", "street": "231 W WOODARD ST", "postcode": "75020"}}},
{"geometry": {"type": "Point", "coordinates": [-96.5859755111, 33.7546062152]}, "type": "Feature", "properties": {"collection_times": [{"days": "Mon-Fri", "time": "1:00pm"}, {"days": "Sat-Sun", "time": "Closed"}], "id": "7502005961", "name": "USPS COLLECTION BOX - BLUE BOX", "address": {"city": "DENISON", "state": "TX", "street": "401 N US HIGHWAY 75", "postcode": "75020"}}},
{"geometry": {"type": "Point", "coordinates": [-96.5373256378, 33.7564006782]}, "type": "Feature", "properties": {"collection_times": [{"days": "Mon-Fri", "time": "5:00pm"}, {"days": "Sat", "time": "1:00pm"}, {"days": "Sun", "time": "Closed"}], "id": "7502005962", "name": "USPS COLLECTION BOX - PO LOBBY", "address": {"city": "DENISON", "state": "TX", "street": "231 W WOODARD ST", "postcode": "75020"}}},
{"geometry": {"type": "Point", "coordinates": [-96.5373256378, 33.7564006782]}, "type": "Feature", "properties": {"collection_times": [{"days": "Mon-Fri", "time": "5:00pm"}, {"days": "Sat", "time": "1:00pm"}, {"days": "Sun", "time": "Closed"}], "id": "7502005963", "name": "USPS COLLECTION BOX - PO LOBBY", "address": {"city": "DENISON", "state": "TX", "street": "231 W WOODARD ST", "postcode": "75020"}}},
{"geometry": {"type": "Point", "coordinates": [-96.5531780029, 33.7684399298]}, "type": "Feature", "properties": {"collection_times": [{"days": "Mon-Fri", "time": "9:15am"}, {"days": "Sat-Sun", "time": "Closed"}], "id": "7502005965", "name": "USPS COLLECTION BOX - BLUE BOX", "address": {"city": "DENISON", "state": "TX", "street": "1014 MEMORIAL DR", "postcode": "75020"}}},
{"geometry": {"type": "Point", "coordinates": [-97.0709006851, 33.030945264]}, "type": "Feature", "properties": {"collection_times": [{"days": "Mon-Fri", "time": "3:00pm"}, {"days": "Sat", "time": "1:00pm"}, {"days": "Sun", "time": "Closed"}], "id": "7502200001", "name": "USPS COLLECTION BOX - BLUE BOX", "address": {"city": "LEWISVILLE", "state": "TX", "street": "3351 LONG PRAIRIE RD", "postcode": "75022"}}},
{"geometry": {"type": "Point", "coordinates": [-97.0709006851, 33.030945264]}, "type": "Feature", "properties": {"collection_times": [{"days": "Mon-Fri", "time": "3:00pm"}, {"days": "Sat", "time": "1:00pm"}, {"days": "Sun", "time": "Closed"}], "id": "7502200002", "name": "USPS COLLECTION BOX - BLUE BOX", "address": {"city": "LEWISVILLE", "state": "TX", "street": "3351 LONG PRAIRIE RD", "postcode": "75022"}}},
{"geometry": {"type": "Point", "coordinates": [-97.0729049004, 33.014216616]}, "type": "Feature", "properties": {"collection_times": [{"days": "Mon-Sat", "time": "1:00pm"}, {"days": "Sun", "time": "Closed"}], "id": "7502200004", "name": "USPS COLLECTION BOX - BLUE BOX", "address": {"city": "LEWISVILLE", "state": "TX", "street": "2800 FLOWER MOUND RD", "postcode": "75022"}}},
{"geometry": {"type": "Point", "coordinates": [-96.7534284342, 33.041178717]}, "type": "Feature", "properties": {"collection_times": [{"days": "Mon-Fri", "time": "5:00pm"}, {"days": "Sat", "time": "1:00pm"}, {"days": "Sun", "time": "Closed"}], "id": "7502300112", "name": "USPS COLLECTION BOX - PO LOBBY", "address": {"city": "PLANO", "state": "TX", "street": "2901 W PARKER RD", "postcode": "75023"}}},
{"geometry": {"type": "Point", "coordinates": [-96.7534284342, 33.041178717]}, "type": "Feature", "properties": {"collection_times": [{"days": "Mon-Fri", "time": "5:00pm"}, {"days": "Sat", "time": "1:00pm"}, {"days": "Sun", "time": "Closed"}], "id": "7502300113", "name": "USPS COLLECTION BOX - BLUE BOX", "address": {"city": "PLANO", "state": "TX", "street": "2901 W PARKER RD", "postcode": "75023"}}},
{"geometry": {"type": "Point", "coordinates": [-96.7075882447, 33.0396289404]}, "type": "Feature", "properties": {"collection_times": [{"days": "Mon-Fri", "time": "1:00pm"}, {"days": "Sat-Sun", "time": "Closed"}], "id": "7502300516", "name": "USPS COLLECTION BOX - BLUE BOX", "address": {"city": "PLANO", "state": "TX", "street": "301 W PARKER RD", "postcode": "75023"}}},
{"geometry": {"type": "Point", "coordinates": [-96.6950867343, 33.0574490343]}, "type": "Feature", "properties": {"collection_times": [{"days": "Mon-Fri", "time": "1:00pm"}, {"days": "Sat-Sun", "time": "Closed"}], "id": "7502300517", "name": "USPS COLLECTION BOX - BLUE BOX", "address": {"city": "PLANO", "state": "TX", "street": "131 W SPRING CREEK PKWY", "postcode": "75023"}}},
{"geometry": {"type": "Point", "coordinates": [-96.7503675897, 33.0710045611]}, "type": "Feature", "properties": {"collection_times": [{"days": "Mon-Fri", "time": "1:00pm"}, {"days": "Sat-Sun", "time": "Closed"}], "id": "7502300533", "name": "USPS COLLECTION BOX - BLUE BOX", "address": {"city": "PLANO", "state": "TX", "street": "6921 INDEPENDENCE PKWY", "postcode": "75023"}}},
{"geometry": {"type": "Point", "coordinates": [-96.7534284342, 33.041178717]}, "type": "Feature", "properties": {"collection_times": [{"days": "Mon-Fri", "time": "5:00pm"}, {"days": "Sat", "time": "1:00pm"}, {"days": "Sun", "time": "Closed"}], "id": "7502305100", "name": "USPS COLLECTION BOX - BLUE BOX", "address": {"city": "PLANO", "state": "TX", "street": "2901 W PARKER RD", "postcode": "75023"}}},
{"geometry": {"type": "Point", "coordinates": [-96.7534284342, 33.041178717]}, "type": "Feature", "properties": {"collection_times": [{"days": "Mon-Fri", "time": "5:00pm"}, {"days": "Sat", "time": "1:00pm"}, {"days": "Sun", "time": "Closed"}], "id": "7502305101", "name": "USPS COLLECTION BOX - PO LOBBY", "address": {"city": "PLANO", "state": "TX", "street": "2901 W PARKER RD", "postcode": "75023"}}},
{"geometry": {"type": "Point", "coordinates": [-96.7534284342, 33.041178717]}, "type": "Feature", "properties": {"collection_times": [{"days": "Mon-Fri", "time": "5:00pm"}, {"days": "Sat", "time": "1:00pm"}, {"days": "Sun", "time": "Closed"}], "id": "7502305102", "name": "USPS COLLECTION BOX - APC", "address": {"city": "PLANO", "state": "TX", "street": "2901 W PARKER RD", "postcode": "75023"}}},
{"geometry": {"type": "Point", "coordinates": [-96.8193672202, 33.0715948576]}, "type": "Feature", "properties": {"collection_times": [{"days": "Mon-Fri", "time": "11:00am"}, {"days": "Sat-Sun", "time": "Closed"}], "id": "7502400001", "name": "USPS COLLECTION BOX - BLUE BOX", "address": {"city": "PLANO", "state": "TX", "street": "5700 TENNYSON PKWY", "postcode": "75024"}}},
{"geometry": {"type": "Point", "coordinates": [-96.7592983932, 33.0858914709]}, "type": "Feature", "properties": {"collection_times": [{"days": "Mon-Fri", "time": "5:00pm"}, {"days": "Sat", "time": "1:00pm"}, {"days": "Sun", "time": "Closed"}], "id": "7502500000", "name": "USPS COLLECTION BOX - PO LOBBY", "address": {"city": "PLANO", "state": "TX", "street": "3905 HEDGCOXE RD", "postcode": "75025"}}},
{"geometry": {"type": "Point", "coordinates": [-99.3330489019, 31.4627353752]}, "type": "Feature", "properties": {"collection_times": [{"days": "Mon-Fri", "time": "5:00pm"}, {"days": "Sat", "time": "1:00pm"}, {"days": "Sun", "time": "Closed"}], "id": "7502500001", "name": "USPS COLLECTION BOX - PO LOBBY", "address": {"city": "PLANO", "state": "TX", "street": "3905 HEDGCOXE RD", "postcode": "75025"}}},
{"geometry": {"type": "Point", "coordinates": [-99.3330489019, 31.4627353752]}, "type": "Feature", "properties": {"collection_times": [{"days": "Mon-Fri", "time": "5:00pm"}, {"days": "Sat", "time": "1:00pm"}, {"days": "Sun", "time": "Closed"}], "id": "7502500004", "name": "USPS COLLECTION BOX - BLUE BOX", "address": {"city": "PLANO", "state": "TX", "street": "3905 HEDGCOXE RD", "postcode": "75025"}}},
{"geometry": {"type": "Point", "coordinates": [-99.3330489019, 31.4627353752]}, "type": "Feature", "properties": {"collection_times": [{"days": "Mon-Fri", "time": "5:00pm"}, {"days": "Sat", "time": "1:00pm"}, {"days": "Sun", "time": "Closed"}], "id": "7502500005", "name": "USPS COLLECTION BOX - BLUE BOX", "address": {"city": "PLANO", "state": "TX", "street": "3905 HEDGCOXE RD", "postcode": "75025"}}},
{"geometry": {"type": "Point", "coordinates": [-96.7442295331, 33.089784114]}, "type": "Feature", "properties": {"collection_times": [{"days": "Mon-Fri", "time": "5:00pm"}, {"days": "Sat", "time": "1:00pm"}, {"days": "Sun", "time": "Closed"}], "id": "7502500006", "name": "USPS COLLECTION BOX - PO LOBBY", "address": {"city": "PLANO", "state": "TX", "street": "3905 HEDGCOXE RD", "postcode": "75025"}}},
{"geometry": {"type": "Point", "coordinates": [-96.7442295331, 33.089784114]}, "type": "Feature", "properties": {"collection_times": [{"days": "Mon-Fri", "time": "5:00pm"}, {"days": "Sat", "time": "1:00pm"}, {"days": "Sun", "time": "Closed"}], "id": "7502500007", "name": "USPS COLLECTION BOX - APC", "address": {"city": "PLANO", "state": "TX", "street": "3905 HEDGCOXE RD", "postcode": "75025"}}},
{"geometry": {"type": "Point", "coordinates": [-97.0421680776, 33.0423130743]}, "type": "Feature", "properties": {"collection_times": [{"days": "Mon-Fri", "time": "1:00pm"}, {"days": "Sat-Sun", "time": "Closed"}], "id": "7502800001", "name": "USPS COLLECTION BOX - BLUE BOX", "address": {"city": "LEWISVILLE", "state": "TX", "street": "1001 CROSS TIMBERS RD", "postcode": "75028"}}},
{"geometry": {"type": "Point", "coordinates": [-97.0609058034, 33.0340952058]}, "type": "Feature", "properties": {"collection_times": [{"days": "Mon-Fri", "time": "12:00pm"}, {"days": "Sat-Sun", "time": "Closed"}], "id": "7502800004", "name": "USPS COLLECTION BOX - BLUE BOX", "address": {"city": "LEWISVILLE", "state": "TX", "street": "2121 CROSS TIMBERS RD", "postcode": "75028"}}},
{"geometry": {"type": "Point", "coordinates": [-97.0632614189, 33.0370843957]}, "type": "Feature", "properties": {"collection_times": [{"days": "Mon-Fri", "time": "5:00pm"}, {"days": "Sat", "time": "1:00pm"}, {"days": "Sun", "time": "Closed"}], "id": "7502800012", "name": "USPS COLLECTION BOX - BLUE BOX", "address": {"city": "LEWISVILLE", "state": "TX", "street": "2300 OLYMPIA DR", "postcode": "75028"}}},
{"geometry": {"type": "Point", "coordinates": [-97.0632614189, 33.0370843957]}, "type": "Feature", "properties": {"collection_times": [{"days": "Mon-Fri", "time": "5:00pm"}, {"days": "Sat", "time": "1:00pm"}, {"days": "Sun", "time": "Closed"}], "id": "7502800013", "name": "USPS COLLECTION BOX - BLUE BOX", "address": {"city": "LEWISVILLE", "state": "TX", "street": "2300 OLYMPIA DR", "postcode": "75028"}}},
{"geometry": {"type": "Point", "coordinates": [-97.0632614189, 33.0370843957]}, "type": "Feature", "properties": {"collection_times": [{"days": "Mon-Fri", "time": "5:00pm"}, {"days": "Sat", "time": "1:00pm"}, {"days": "Sun", "time": "Closed"}], "id": "7502800014", "name": "USPS COLLECTION BOX - APC", "address": {"city": "LEWISVILLE", "state": "TX", "street": "2300 OLYMPIA DR", "postcode": "75028"}}},
{"geometry": {"type": "Point", "coordinates": [-96.4213624342, 32.8577213246]}, "type": "Feature", "properties": {"collection_times": [{"days": "Mon-Sat", "time": "1:00pm"}, {"days": "Sun", "time": "Closed"}], "id": "7503200000", "name": "USPS COLLECTION BOX - BLUE BOX", "address": {"city": "ROCKWALL", "state": "TX", "street": "1 COMMODORE PLZ", "postcode": "75032"}}},
{"geometry": {"type": "Point", "coordinates": [-96.4709146022, 32.8860409095]}, "type": "Feature", "properties": {"collection_times": [{"days": "Mon-Sat", "time": "1:00pm"}, {"days": "Sun", "time": "Closed"}], "id": "7503200002", "name": "USPS COLLECTION BOX - BLUE BOX", "address": {"city": "ROCKWALL", "state": "TX", "street": "3060 RIDGE RD", "postcode": "75032"}}},
{"geometry": {"type": "Point", "coordinates": [-96.4753074425, 32.8365900095]}, "type": "Feature", "properties": {"collection_times": [{"days": "Mon-Sat", "time": "1:00pm"}, {"days": "Sun", "time": "Closed"}], "id": "7503200003", "name": "USPS COLLECTION BOX - BLUE BOX", "address": {"city": "ROCKWALL", "state": "TX", "street": "201 LAURENCE DR", "postcode": "75032"}}},
{"geometry": {"type": "Point", "coordinates": [-96.4081262999, 32.9057587013]}, "type": "Feature", "properties": {"collection_times": [{"days": "Mon-Sat", "time": "1:00pm"}, {"days": "Sun", "time": "Closed"}], "id": "7503200004", "name": "USPS COLLECTION BOX - BLUE BOX", "address": {"city": "ROCKWALL", "state": "TX", "street": "2740 STATE HIGHWAY 276", "postcode": "75032"}}},
{"geometry": {"type": "Point", "coordinates": [-96.8401262172, 33.1184271315]}, "type": "Feature", "properties": {"collection_times": [{"days": "Mon-Sat", "time": "1:00pm"}, {"days": "Sun", "time": "Closed"}], "id": "7503400121", "name": "USPS COLLECTION BOX - BLUE BOX", "address": {"city": "FRISCO", "state": "TX", "street": "4800 LEGACY DR", "postcode": "75034"}}},
{"geometry": {"type": "Point", "coordinates": [-96.8178288277, 33.1507430014]}, "type": "Feature", "properties": {"collection_times": [{"days": "Mon-Fri", "time": "1:00pm"}, {"days": "Sat-Sun", "time": "Closed"}], "id": "7503400122", "name": "USPS COLLECTION BOX - BLUE BOX", "address": {"city": "FRISCO", "state": "TX", "street": "9091 DOGWOOD ST", "postcode": "75034"}}},
{"geometry": {"type": "Point", "coordinates": [-96.8076280365, 33.1390896856]}, "type": "Feature", "properties": {"collection_times": [{"days": "Mon-Fri", "time": "5:00pm"}, {"days": "Sat", "time": "3:00pm"}, {"days": "Sun", "time": "Closed"}], "id": "7503406216", "name": "USPS COLLECTION BOX - BLUE BOX", "address": {"city": "FRISCO", "state": "TX", "street": "8700 STONEBROOK PKWY", "postcode": "75034"}}},
{"geometry": {"type": "Point", "coordinates": [-96.8077690721, 33.1390875583]}, "type": "Feature", "properties": {"collection_times": [{"days": "Mon-Fri", "time": "5:00pm"}, {"days": "Sat", "time": "3:00pm"}, {"days": "Sun", "time": "Closed"}], "id": "7503407246", "name": "USPS COLLECTION BOX - BLUE BOX", "address": {"city": "FRISCO", "state": "TX", "street": "8700 STONEBROOK PKWY", "postcode": "75034"}}},
{"geometry": {"type": "Point", "coordinates": [-96.8076280365, 33.1390896856]}, "type": "Feature", "properties": {"collection_times": [{"days": "Mon-Fri", "time": "5:00pm"}, {"days": "Sat", "time": "3:00pm"}, {"days": "Sun", "time": "Closed"}], "id": "7503407247", "name": "USPS COLLECTION BOX - BLUE BOX", "address": {"city": "FRISCO", "state": "TX", "street": "8700 STONEBROOK PKWY", "postcode": "75034"}}},
{"geometry": {"type": "Point", "coordinates": [-96.8036078409, 33.1516587033]}, "type": "Feature", "properties": {"collection_times": [{"days": "Mon-Fri", "time": "1:00pm"}, {"days": "Sat-Sun", "time": "Closed"}], "id": "7503407248", "name": "USPS COLLECTION BOX - BLUE BOX", "address": {"city": "FRISCO", "state": "TX", "street": "8980 PRESTON RD", "postcode": "75034"}}},
{"geometry": {"type": "Point", "coordinates": [-96.8076280365, 33.1390896856]}, "type": "Feature", "properties": {"collection_times": [{"days": "Mon-Fri", "time": "5:00pm"}, {"days": "Sat", "time": "3:00pm"}, {"days": "Sun", "time": "Closed"}], "id": "7503407250", "name": "USPS COLLECTION BOX - PO LOBBY", "address": {"city": "FRISCO", "state": "TX", "street": "8700 STONEBROOK PKWY", "postcode": "75034"}}},
{"geometry": {"type": "Point", "coordinates": [-96.8076280365, 33.1390896856]}, "type": "Feature", "properties": {"collection_times": [{"days": "Mon-Fri", "time": "5:00pm"}, {"days": "Sat", "time": "3:00pm"}, {"days": "Sun", "time": "Closed"}], "id": "7503407251", "name": "USPS COLLECTION BOX - PO LOBBY", "address": {"city": "FRISCO", "state": "TX", "street": "8700 STONEBROOK PKWY", "postcode": "75034"}}},
{"geometry": {"type": "Point", "coordinates": [-96.8076280365, 33.1390896856]}, "type": "Feature", "properties": {"collection_times": [{"days": "Mon-Fri", "time": "5:00pm"}, {"days": "Sat", "time": "3:00pm"}, {"days": "Sun", "time": "Closed"}], "id": "7503407252", "name": "USPS COLLECTION BOX - PO LOBBY", "address": {"city": "FRISCO", "state": "TX", "street": "8700 STONEBROOK PKWY", "postcode": "75034"}}},
{"geometry": {"type": "Point", "coordinates": [-96.8416759288, 33.0898781695]}, "type": "Feature", "properties": {"collection_times": [{"days": "Mon-Fri", "time": "12:00pm"}, {"days": "Sat-Sun", "time": "Closed"}], "id": "7503407253", "name": "USPS COLLECTION BOX - BLUE BOX", "address": {"city": "FRISCO", "state": "TX", "street": "5300 TOWN AND COUNTRY BLVD", "postcode": "75034"}}},
{"geometry": {"type": "Point", "coordinates": [-96.8233246788, 33.0933364735]}, "type": "Feature", "properties": {"collection_times": [{"days": "Mon-Fri", "time": "1:00pm"}, {"days": "Sat-Sun", "time": "Closed"}], "id": "7503407254", "name": "USPS COLLECTION BOX - BLUE BOX", "address": {"city": "FRISCO", "state": "TX", "street": "2591 DALLAS PKWY", "postcode": "75034"}}},
{"geometry": {"type": "Point", "coordinates": [-96.8251826465, 33.1020454043]}, "type": "Feature", "properties": {"collection_times": [{"days": "Mon-Fri", "time": "11:00am"}, {"days": "Sat-Sun", "time": "Closed"}], "id": "7503407256", "name": "USPS COLLECTION BOX - BLUE BOX", "address": {"city": "FRISCO", "state": "TX", "street": "6801 GAYLORD PKWY", "postcode": "75034"}}},
{"geometry": {"type": "Point", "coordinates": [-96.8719902094, 33.1571700519]}, "type": "Feature", "properties": {"collection_times": [{"days": "Mon-Sat", "time": "1:00pm"}, {"days": "Sun", "time": "Closed"}], "id": "7503407257", "name": "USPS COLLECTION BOX - BLUE BOX", "address": {"city": "FRISCO", "state": "TX", "street": "9400 TRAILS PKWY", "postcode": "75034"}}},
{"geometry": {"type": "Point", "coordinates": [-96.8076280365, 33.1390896856]}, "type": "Feature", "properties": {"collection_times": [{"days": "Mon-Fri", "time": "5:00pm"}, {"days": "Sat", "time": "3:00pm"}, {"days": "Sun", "time": "Closed"}], "id": "7503407260", "name": "USPS COLLECTION BOX - APC", "address": {"city": "FRISCO", "state": "TX", "street": "8700 STONEBROOK PKWY", "postcode": "75034"}}},
{"geometry": {"type": "Point", "coordinates": [-96.7849632835, 33.1241851743]}, "type": "Feature", "properties": {"collection_times": [{"days": "Mon-Sat", "time": "1:00pm"}, {"days": "Sun", "time": "Closed"}], "id": "7503500000", "name": "USPS COLLECTION BOX - BLUE BOX", "address": {"city": "FRISCO", "state": "TX", "street": "5513 BATON ROUGE BLVD", "postcode": "75035"}}},
{"geometry": {"type": "Point", "coordinates": [-96.977313326, 32.86704876]}, "type": "Feature", "properties": {"collection_times": [{"days": "Mon-Fri", "time": "5:00pm"}, {"days": "Sat", "time": "1:00pm"}, {"days": "Sun", "time": "Closed"}], "id": "7503800326", "name": "USPS COLLECTION BOX - PO LOBBY", "address": {"city": "IRVING", "state": "TX", "street": "2300 STORY RD W", "postcode": "75038"}}},
{"geometry": {"type": "Point", "coordinates": [-96.977313326, 32.86704876]}, "type": "Feature", "properties": {"collection_times": [{"days": "Mon-Fri", "time": "5:00pm"}, {"days": "Sat", "time": "1:00pm"}, {"days": "Sun", "time": "Closed"}], "id": "7503800327", "name": "USPS COLLECTION BOX - PO LOBBY", "address": {"city": "IRVING", "state": "TX", "street": "2300 STORY RD W", "postcode": "75038"}}},
{"geometry": {"type": "Point", "coordinates": [-96.9592980795, 32.8607365605]}, "type": "Feature", "properties": {"collection_times": [{"days": "Mon-Fri", "time": "3:00pm"}, {"days": "Sat", "time": "1:00pm"}, {"days": "Sun", "time": "Closed"}], "id": "7503800356", "name": "USPS COLLECTION BOX - BLUE BOX", "address": {"city": "IRVING", "state": "TX", "street": "4040 N MACARTHUR BLVD", "postcode": "75038"}}},
{"geometry": {"type": "Point", "coordinates": [-96.9832178707, 32.8712911674]}, "type": "Feature", "properties": {"collection_times": [{"days": "Mon-Fri", "time": "3:00pm"}, {"days": "Sat-Sun", "time": "Closed"}], "id": "7503805053", "name": "USPS COLLECTION BOX - EXPRESS", "address": {"city": "IRVING", "state": "TX", "street": "5615 HIGH POINT DR", "postcode": "75038"}}},
{"geometry": {"type": "Point", "coordinates": [-96.977313326, 32.86704876]}, "type": "Feature", "properties": {"collection_times": [{"days": "Mon-Fri", "time": "5:00pm"}, {"days": "Sat", "time": "1:00pm"}, {"days": "Sun", "time": "Closed"}], "id": "7503805080", "name": "USPS COLLECTION BOX - BLUE BOX", "address": {"city": "IRVING", "state": "TX", "street": "2300 STORY RD W", "postcode": "75038"}}},
{"geometry": {"type": "Point", "coordinates": [-96.977313326, 32.86704876]}, "type": "Feature", "properties": {"collection_times": [{"days": "Mon-Fri", "time": "5:00pm"}, {"days": "Sat", "time": "1:00pm"}, {"days": "Sun", "time": "Closed"}], "id": "7503805081", "name": "USPS COLLECTION BOX - BLUE BOX", "address": {"city": "IRVING", "state": "TX", "street": "2300 STORY RD W", "postcode": "75038"}}},
{"geometry": {"type": "Point", "coordinates": [-96.971513003, 32.88852055]}, "type": "Feature", "properties": {"collection_times": [{"days": "Mon-Fri", "time": "3:00pm"}, {"days": "Sat-Sun", "time": "Closed"}], "id": "7503805363", "name": "USPS COLLECTION BOX - BLUE BOX", "address": {"city": "IRVING", "state": "TX", "street": "5615 HIGH POINT DR", "postcode": "75038"}}},
{"geometry": {"type": "Point", "coordinates": [-96.977313326, 32.86704876]}, "type": "Feature", "properties": {"collection_times": [{"days": "Mon-Fri", "time": "5:00pm"}, {"days": "Sat", "time": "1:00pm"}, {"days": "Sun", "time": "Closed"}], "id": "7503805365", "name": "USPS COLLECTION BOX - APC", "address": {"city": "IRVING", "state": "TX", "street": "2300 STORY RD W", "postcode": "75038"}}},
{"geometry": {"type": "Point", "coordinates": [-96.6365471001, 32.9142737086]}, "type": "Feature", "properties": {"collection_times": [{"days": "Mon-Sat", "time": "1:00pm"}, {"days": "Sun", "time": "Closed"}], "id": "7504000123", "name": "USPS COLLECTION BOX - BLUE BOX", "address": {"city": "GARLAND", "state": "TX", "street": "101 W BUCKINGHAM RD", "postcode": "75040"}}},
{"geometry": {"type": "Point", "coordinates": [-96.6133060689, 32.9220662244]}, "type": "Feature", "properties": {"collection_times": [{"days": "Mon-Sat", "time": "1:00pm"}, {"days": "Sun", "time": "Closed"}], "id": "7504000124", "name": "USPS COLLECTION BOX - BLUE BOX", "address": {"city": "GARLAND", "state": "TX", "street": "1416 CASTLE DR", "postcode": "75040"}}},
{"geometry": {"type": "Point", "coordinates": [-96.6280756579, 32.9217104079]}, "type": "Feature", "properties": {"collection_times": [{"days": "Mon-Fri", "time": "1:00pm"}, {"days": "Sat-Sun", "time": "Closed"}], "id": "7504000125", "name": "USPS COLLECTION BOX - BLUE BOX", "address": {"city": "GARLAND", "state": "TX", "street": "1030 LAVON DR", "postcode": "75040"}}},
{"geometry": {"type": "Point", "coordinates": [-96.6415226222, 32.9133071167]}, "type": "Feature", "properties": {"collection_times": [{"days": "Mon-Sat", "time": "1:00pm"}, {"days": "Sun", "time": "Closed"}], "id": "7504000126", "name": "USPS COLLECTION BOX - BLUE BOX", "address": {"city": "GARLAND", "state": "TX", "street": "906 HIGHWAY 66", "postcode": "75040"}}},
{"geometry": {"type": "Point", "coordinates": [-96.6418192751, 32.9161386711]}, "type": "Feature", "properties": {"collection_times": [{"days": "Mon-Fri", "time": "5:00pm"}, {"days": "Sat", "time": "1:00pm"}, {"days": "Sun", "time": "Closed"}], "id": "7504000128", "name": "USPS COLLECTION BOX - BLUE BOX", "address": {"city": "GARLAND", "state": "TX", "street": "1000 W WALNUT ST", "postcode": "75040"}}},
{"geometry": {"type": "Point", "coordinates": [-96.6449493845, 32.9443581572]}, "type": "Feature", "properties": {"collection_times": [{"days": "Mon-Fri", "time": "11:00am"}, {"days": "Sat-Sun", "time": "Closed"}], "id": "7504000132", "name": "USPS COLLECTION BOX - BLUE BOX", "address": {"city": "GARLAND", "state": "TX", "street": "1300 BELT LINE RD", "postcode": "75040"}}},
{"geometry": {"type": "Point", "coordinates": [-96.6308508796, 32.8983517001]}, "type": "Feature", "properties": {"collection_times": [{"days": "Mon-Sat", "time": "1:00pm"}, {"days": "Sun", "time": "Closed"}], "id": "7504000133", "name": "USPS COLLECTION BOX - BLUE BOX", "address": {"city": "GARLAND", "state": "TX", "street": "1560 S 1ST ST", "postcode": "75040"}}},
{"geometry": {"type": "Point", "coordinates": [-96.6363492729, 32.8986024874]}, "type": "Feature", "properties": {"collection_times": [{"days": "Mon-Sat", "time": "12:45pm"}, {"days": "Sun", "time": "Closed"}], "id": "7504000134", "name": "USPS COLLECTION BOX - BLUE BOX", "address": {"city": "GARLAND", "state": "TX", "street": "1608 S 5TH ST", "postcode": "75040"}}},
{"geometry": {"type": "Point", "coordinates": [-96.62141205, 32.9441026381]}, "type": "Feature", "properties": {"collection_times": [{"days": "Mon-Sat", "time": "1:00pm"}, {"days": "Sun", "time": "Closed"}], "id": "7504000135", "name": "USPS COLLECTION BOX - BLUE BOX", "address": {"city": "GARLAND", "state": "TX", "street": "3046 LAVON DR", "postcode": "75040"}}},
{"geometry": {"type": "Point", "coordinates": [-96.6418192751, 32.9161386711]}, "type": "Feature", "properties": {"collection_times": [{"days": "Mon-Fri", "time": "5:00pm"}, {"days": "Sat", "time": "1:00pm"}, {"days": "Sun", "time": "Closed"}], "id": "7504005156", "name": "USPS COLLECTION BOX - BLUE BOX", "address": {"city": "GARLAND", "state": "TX", "street": "1000 W WALNUT ST", "postcode": "75040"}}},
{"geometry": {"type": "Point", "coordinates": [-96.6418192751, 32.9161386711]}, "type": "Feature", "properties": {"collection_times": [{"days": "Mon-Fri", "time": "5:00pm"}, {"days": "Sat", "time": "1:00pm"}, {"days": "Sun", "time": "Closed"}], "id": "7504005158", "name": "USPS COLLECTION BOX - PO LOBBY", "address": {"city": "GARLAND", "state": "TX", "street": "1000 W WALNUT ST", "postcode": "75040"}}},
{"geometry": {"type": "Point", "coordinates": [-96.6418192751, 32.9161386711]}, "type": "Feature", "properties": {"collection_times": [{"days": "Mon-Fri", "time": "5:00pm"}, {"days": "Sat", "time": "1:00pm"}, {"days": "Sun", "time": "Closed"}], "id": "7504005159", "name": "USPS COLLECTION BOX - PO LOBBY", "address": {"city": "GARLAND", "state": "TX", "street": "1000 W WALNUT ST", "postcode": "75040"}}},
{"geometry": {"type": "Point", "coordinates": [-96.6418192751, 32.9161386711]}, "type": "Feature", "properties": {"collection_times": [{"days": "Mon-Fri", "time": "5:00pm"}, {"days": "Sat", "time": "1:00pm"}, {"days": "Sun", "time": "Closed"}], "id": "7504005160", "name": "USPS COLLECTION BOX - PO LOBBY", "address": {"city": "GARLAND", "state": "TX", "street": "1000 W WALNUT ST", "postcode": "75040"}}},
{"geometry": {"type": "Point", "coordinates": [-96.6418192751, 32.9161386711]}, "type": "Feature", "properties": {"collection_times": [{"days": "Mon-Fri", "time": "5:00pm"}, {"days": "Sat", "time": "1:00pm"}, {"days": "Sun", "time": "Closed"}], "id": "7504006582", "name": "USPS COLLECTION BOX - PO LOBBY", "address": {"city": "GARLAND", "state": "TX", "street": "1000 W WALNUT ST", "postcode": "75040"}}},
{"geometry": {"type": "Point", "coordinates": [-96.6553854485, 32.8631610368]}, "type": "Feature", "properties": {"collection_times": [{"days": "Mon-Sat", "time": "11:00am"}, {"days": "Sun", "time": "Closed"}], "id": "7504100149", "name": "USPS COLLECTION BOX - BLUE BOX", "address": {"city": "GARLAND", "state": "TX", "street": "1934 PENDLETON DR", "postcode": "75041"}}},
{"geometry": {"type": "Point", "coordinates": [-96.6829637709, 32.887170372]}, "type": "Feature", "properties": {"collection_times": [{"days": "Mon-Sat", "time": "1:00pm"}, {"days": "Sun", "time": "Closed"}], "id": "7504100150", "name": "USPS COLLECTION BOX - BLUE BOX", "address": {"city": "GARLAND", "state": "TX", "street": "2418 S JUPITER RD", "postcode": "75041"}}},
{"geometry": {"type": "Point", "coordinates": [-96.6687118858, 32.8787920297]}, "type": "Feature", "properties": {"collection_times": [{"days": "Mon-Sat", "time": "9:45am"}, {"days": "Sun", "time": "Closed"}], "id": "7504100151", "name": "USPS COLLECTION BOX - BLUE BOX", "address": {"city": "GARLAND", "state": "TX", "street": "2700 W KINGSLEY RD", "postcode": "75041"}}},
{"geometry": {"type": "Point", "coordinates": [-96.623284674, 32.8805469848]}, "type": "Feature", "properties": {"collection_times": [{"days": "Mon-Sat", "time": "9:30am"}, {"days": "Sun", "time": "Closed"}], "id": "7504100153", "name": "USPS COLLECTION BOX - BLUE BOX", "address": {"city": "GARLAND", "state": "TX", "street": "2940 BROADWAY BLVD", "postcode": "75041"}}},
{"geometry": {"type": "Point", "coordinates": [-96.6481446598, 32.8767556593]}, "type": "Feature", "properties": {"collection_times": [{"days": "Mon-Fri", "time": "5:00pm"}, {"days": "Sat", "time": "1:00pm"}, {"days": "Sun", "time": "Closed"}], "id": "7504100155", "name": "USPS COLLECTION BOX - BLUE BOX", "address": {"city": "GARLAND", "state": "TX", "street": "3260 SATURN RD", "postcode": "75041"}}},
{"geometry": {"type": "Point", "coordinates": [-96.644079978, 32.860012433]}, "type": "Feature", "properties": {"collection_times": [{"days": "Mon-Sat", "time": "1:00pm"}, {"days": "Sun", "time": "Closed"}], "id": "7504100157", "name": "USPS COLLECTION BOX - BLUE BOX", "address": {"city": "GARLAND", "state": "TX", "street": "903 W CENTERVILLE RD", "postcode": "75041"}}},
{"geometry": {"type": "Point", "coordinates": [-96.644079978, 32.860012433]}, "type": "Feature", "properties": {"collection_times": [{"days": "Mon-Sat", "time": "1:00pm"}, {"days": "Sun", "time": "Closed"}], "id": "7504105161", "name": "USPS COLLECTION BOX - BLUE BOX", "address": {"city": "GARLAND", "state": "TX", "street": "903 W CENTERVILLE RD", "postcode": "75041"}}},
{"geometry": {"type": "Point", "coordinates": [-96.6481446598, 32.8767556593]}, "type": "Feature", "properties": {"collection_times": [{"days": "Mon-Fri", "time": "5:00pm"}, {"days": "Sat", "time": "1:00pm"}, {"days": "Sun", "time": "Closed"}], "id": "7504105163", "name": "USPS COLLECTION BOX - BLUE BOX", "address": {"city": "GARLAND", "state": "TX", "street": "3260 SATURN RD", "postcode": "75041"}}},
{"geometry": {"type": "Point", "coordinates": [-96.6481446598, 32.8767556593]}, "type": "Feature", "properties": {"collection_times": [{"days": "Mon-Fri", "time": "5:00pm"}, {"days": "Sat", "time": "1:00pm"}, {"days": "Sun", "time": "Closed"}], "id": "7504106207", "name": "USPS COLLECTION BOX - PO LOBBY", "address": {"city": "GARLAND", "state": "TX", "street": "3260 SATURN RD", "postcode": "75041"}}},
{"geometry": {"type": "Point", "coordinates": [-96.6307986401, 32.8797656482]}, "type": "Feature", "properties": {"collection_times": [{"days": "Mon-Sat", "time": "1:00pm"}, {"days": "Sun", "time": "Closed"}], "id": "7504106212", "name": "USPS COLLECTION BOX - BLUE BOX", "address": {"city": "GARLAND", "state": "TX", "street": "3000 S 1ST ST", "postcode": "75041"}}},
{"geometry": {"type": "Point", "coordinates": [-96.699739312, 32.9166355139]}, "type": "Feature", "properties": {"collection_times": [{"days": "Mon-Sat", "time": "1:00pm"}, {"days": "Sun", "time": "Closed"}], "id": "7504200166", "name": "USPS COLLECTION BOX - BLUE BOX", "address": {"city": "GARLAND", "state": "TX", "street": "4413 W WALNUT ST", "postcode": "75042"}}},
{"geometry": {"type": "Point", "coordinates": [-96.6643286183, 32.9163776288]}, "type": "Feature", "properties": {"collection_times": [{"days": "Mon-Sat", "time": "1:00pm"}, {"days": "Sun", "time": "Closed"}], "id": "7504200167", "name": "USPS COLLECTION BOX - BLUE BOX", "address": {"city": "GARLAND", "state": "TX", "street": "2441 W WALNUT ST", "postcode": "75042"}}},
{"geometry": {"type": "Point", "coordinates": [-96.683018187, 32.9029415809]}, "type": "Feature", "properties": {"collection_times": [{"days": "Mon-Fri", "time": "9:30am"}, {"days": "Sat-Sun", "time": "Closed"}], "id": "7504200170", "name": "USPS COLLECTION BOX - BLUE BOX", "address": {"city": "GARLAND", "state": "TX", "street": "1121 S JUPITER RD", "postcode": "75042"}}},
{"geometry": {"type": "Point", "coordinates": [-96.6507210413, 32.9306003445]}, "type": "Feature", "properties": {"collection_times": [{"days": "Mon-Sat", "time": "1:00pm"}, {"days": "Sun", "time": "Closed"}], "id": "7504200174", "name": "USPS COLLECTION BOX - BLUE BOX", "address": {"city": "GARLAND", "state": "TX", "street": "1518 W BUCKINGHAM RD", "postcode": "75042"}}},
{"geometry": {"type": "Point", "coordinates": [-96.7000137584, 32.9307210063]}, "type": "Feature", "properties": {"collection_times": [{"days": "Mon-Fri", "time": "9:45am"}, {"days": "Sat", "time": "1:00pm"}, {"days": "Sun", "time": "Closed"}], "id": "7504200175", "name": "USPS COLLECTION BOX - BLUE BOX", "address": {"city": "GARLAND", "state": "TX", "street": "1918 N PLANO RD", "postcode": "75042"}}},
{"geometry": {"type": "Point", "coordinates": [-96.6601078207, 32.9090421003]}, "type": "Feature", "properties": {"collection_times": [{"days": "Mon-Sat", "time": "1:00pm"}, {"days": "Sun", "time": "Closed"}], "id": "7504200178", "name": "USPS COLLECTION BOX - BLUE BOX", "address": {"city": "GARLAND", "state": "TX", "street": "2301 FOREST LN", "postcode": "75042"}}},
{"geometry": {"type": "Point", "coordinates": [-96.669032349, 32.9164509713]}, "type": "Feature", "properties": {"collection_times": [{"days": "Mon-Fri", "time": "12:00pm"}, {"days": "Sat-Sun", "time": "Closed"}], "id": "7504200180", "name": "USPS COLLECTION BOX - BLUE BOX", "address": {"city": "GARLAND", "state": "TX", "street": "2434 W BUCKINGHAM RD", "postcode": "75042"}}},
{"geometry": {"type": "Point", "coordinates": [-96.6799771495, 32.912057429]}, "type": "Feature", "properties": {"collection_times": [{"days": "Mon-Sat", "time": "10:30am"}, {"days": "Sun", "time": "Closed"}], "id": "7504200183", "name": "USPS COLLECTION BOX - BLUE BOX", "address": {"city": "GARLAND", "state": "TX", "street": "245 S BARNES DR", "postcode": "75042"}}},
{"geometry": {"type": "Point", "coordinates": [-96.6838963001, 32.9170556053]}, "type": "Feature", "properties": {"collection_times": [{"days": "Mon-Sat", "time": "1:00pm"}, {"days": "Sun", "time": "Closed"}], "id": "7504200184", "name": "USPS COLLECTION BOX - BLUE BOX", "address": {"city": "GARLAND", "state": "TX", "street": "3544 W WALNUT ST", "postcode": "75042"}}},
{"geometry": {"type": "Point", "coordinates": [-96.6831221012, 32.9175718532]}, "type": "Feature", "properties": {"collection_times": [{"days": "Mon-Sat", "time": "1:00pm"}, {"days": "Sun", "time": "Closed"}], "id": "7504200187", "name": "USPS COLLECTION BOX - BLUE BOX", "address": {"city": "GARLAND", "state": "TX", "street": "519 N JUPITER RD", "postcode": "75042"}}},
{"geometry": {"type": "Point", "coordinates": [-96.603476107, 32.8568484558]}, "type": "Feature", "properties": {"collection_times": [{"days": "Mon-Fri", "time": "5:00pm"}, {"days": "Sat", "time": "1:00pm"}, {"days": "Sun", "time": "Closed"}], "id": "7504300194", "name": "USPS COLLECTION BOX - BLUE BOX", "address": {"city": "GARLAND", "state": "TX", "street": "501 E OATES RD", "postcode": "75043"}}},
{"geometry": {"type": "Point", "coordinates": [-96.5749264945, 32.848022711]}, "type": "Feature", "properties": {"collection_times": [{"days": "Mon-Sat", "time": "1:00pm"}, {"days": "Sun", "time": "Closed"}], "id": "7504300197", "name": "USPS COLLECTION BOX - BLUE BOX", "address": {"city": "GARLAND", "state": "TX", "street": "310 E I 30", "postcode": "75043"}}},
{"geometry": {"type": "Point", "coordinates": [-96.6200898524, 32.8778530208]}, "type": "Feature", "properties": {"collection_times": [{"days": "Mon-Sat", "time": "1:00pm"}, {"days": "Sun", "time": "Closed"}], "id": "7504300198", "name": "USPS COLLECTION BOX - BLUE BOX", "address": {"city": "GARLAND", "state": "TX", "street": "3200 BROADWAY BLVD", "postcode": "75043"}}},
{"geometry": {"type": "Point", "coordinates": [-96.6200898524, 32.8778530208]}, "type": "Feature", "properties": {"collection_times": [{"days": "Mon-Sat", "time": "1:00pm"}, {"days": "Sun", "time": "Closed"}], "id": "7504300199", "name": "USPS COLLECTION BOX - BLUE BOX", "address": {"city": "GARLAND", "state": "TX", "street": "3200 BROADWAY BLVD", "postcode": "75043"}}},
{"geometry": {"type": "Point", "coordinates": [-96.6200898524, 32.8778530208]}, "type": "Feature", "properties": {"collection_times": [{"days": "Mon-Sat", "time": "1:00pm"}, {"days": "Sun", "time": "Closed"}], "id": "7504300207", "name": "USPS COLLECTION BOX - BLUE BOX", "address": {"city": "GARLAND", "state": "TX", "street": "3200 BROADWAY BLVD", "postcode": "75043"}}},
{"geometry": {"type": "Point", "coordinates": [-96.6200898524, 32.8778530208]}, "type": "Feature", "properties": {"collection_times": [{"days": "Mon-Sat", "time": "1:00pm"}, {"days": "Sun", "time": "Closed"}], "id": "7504305166", "name": "USPS COLLECTION BOX - BLUE BOX", "address": {"city": "GARLAND", "state": "TX", "street": "3200 BROADWAY BLVD", "postcode": "75043"}}},
{"geometry": {"type": "Point", "coordinates": [-96.603476107, 32.8568484558]}, "type": "Feature", "properties": {"collection_times": [{"days": "Mon-Fri", "time": "5:00pm"}, {"days": "Sat", "time": "1:00pm"}, {"days": "Sun", "time": "Closed"}], "id": "7504305168", "name": "USPS COLLECTION BOX - BLUE BOX", "address": {"city": "GARLAND", "state": "TX", "street": "501 E OATES RD", "postcode": "75043"}}},
{"geometry": {"type": "Point", "coordinates": [-96.603476107, 32.8568484558]}, "type": "Feature", "properties": {"collection_times": [{"days": "Mon-Fri", "time": "5:00pm"}, {"days": "Sat", "time": "1:00pm"}, {"days": "Sun", "time": "Closed"}], "id": "7504305170", "name": "USPS COLLECTION BOX - PO LOBBY", "address": {"city": "GARLAND", "state": "TX", "street": "501 E OATES RD", "postcode": "75043"}}},
{"geometry": {"type": "Point", "coordinates": [-96.603476107, 32.8568484558]}, "type": "Feature", "properties": {"collection_times": [{"days": "Mon-Fri", "time": "5:00pm"}, {"days": "Sat", "time": "1:00pm"}, {"days": "Sun", "time": "Closed"}], "id": "7504305171", "name": "USPS COLLECTION BOX - PO LOBBY", "address": {"city": "GARLAND", "state": "TX", "street": "501 E OATES RD", "postcode": "75043"}}},
{"geometry": {"type": "Point", "coordinates": [-96.603476107, 32.8568484558]}, "type": "Feature", "properties": {"collection_times": [{"days": "Mon-Fri", "time": "5:00pm"}, {"days": "Sat", "time": "1:00pm"}, {"days": "Sun", "time": "Closed"}], "id": "7504305172", "name": "USPS COLLECTION BOX - PO LOBBY", "address": {"city": "GARLAND", "state": "TX", "street": "501 E OATES RD", "postcode": "75043"}}},
{"geometry": {"type": "Point", "coordinates": [-96.603476107, 32.8568484558]}, "type": "Feature", "properties": {"collection_times": [{"days": "Mon-Fri", "time": "5:00pm"}, {"days": "Sat", "time": "1:00pm"}, {"days": "Sun", "time": "Closed"}], "id": "7504305173", "name": "USPS COLLECTION BOX - PO LOBBY", "address": {"city": "GARLAND", "state": "TX", "street": "501 E OATES RD", "postcode": "75043"}}},
{"geometry": {"type": "Point", "coordinates": [-96.6180328832, 32.8760545646]}, "type": "Feature", "properties": {"collection_times": [{"days": "Mon-Sat", "time": "1:00pm"}, {"days": "Sun", "time": "Closed"}], "id": "7504305805", "name": "USPS COLLECTION BOX - BLUE BOX", "address": {"city": "GARLAND", "state": "TX", "street": "3300 BROADWAY BLVD", "postcode": "75043"}}},
{"geometry": {"type": "Point", "coordinates": [-96.5749264945, 32.848022711]}, "type": "Feature", "properties": {"collection_times": [{"days": "Mon-Sat", "time": "1:00pm"}, {"days": "Sun", "time": "Closed"}], "id": "7504305875", "name": "USPS COLLECTION BOX - BLUE BOX", "address": {"city": "GARLAND", "state": "TX", "street": "310 E I 30", "postcode": "75043"}}},
{"geometry": {"type": "Point", "coordinates": [-96.5452461813, 32.8643544597]}, "type": "Feature", "properties": {"collection_times": [{"days": "Mon-Sat", "time": "1:00pm"}, {"days": "Sun", "time": "Closed"}], "id": "7504306002", "name": "USPS COLLECTION BOX - BLUE BOX", "address": {"city": "GARLAND", "state": "TX", "street": "1529 E I 30", "postcode": "75043"}}},
{"geometry": {"type": "Point", "coordinates": [-96.596746875, 32.8391362714]}, "type": "Feature", "properties": {"collection_times": [{"days": "Mon-Sat", "time": "1:00pm"}, {"days": "Sun", "time": "Closed"}], "id": "7504306042", "name": "USPS COLLECTION BOX - BLUE BOX", "address": {"city": "GARLAND", "state": "TX", "street": "510 W I 30", "postcode": "75043"}}},
{"geometry": {"type": "Point", "coordinates": [-96.5898167277, 32.8568527141]}, "type": "Feature", "properties": {"collection_times": [{"days": "Mon-Fri", "time": "1:00pm"}, {"days": "Sat-Sun", "time": "Closed"}], "id": "7504306043", "name": "USPS COLLECTION BOX - BLUE BOX", "address": {"city": "GARLAND", "state": "TX", "street": "2302 GUTHRIE RD", "postcode": "75043"}}},
{"geometry": {"type": "Point", "coordinates": [-96.603476107, 32.8568484558]}, "type": "Feature", "properties": {"collection_times": [{"days": "Mon-Fri", "time": "5:00pm"}, {"days": "Sat", "time": "1:00pm"}, {"days": "Sun", "time": "Closed"}], "id": "7504306044", "name": "USPS COLLECTION BOX - APC", "address": {"city": "GARLAND", "state": "TX", "street": "501 E OATES RD", "postcode": "75043"}}},
{"geometry": {"type": "Point", "coordinates": [-96.6825816751, 32.9612165055]}, "type": "Feature", "properties": {"collection_times": [{"days": "Mon-Sat", "time": "1:00pm"}, {"days": "Sun", "time": "Closed"}], "id": "7504400209", "name": "USPS COLLECTION BOX - BLUE BOX", "address": {"city": "GARLAND", "state": "TX", "street": "4906 N JUPITER RD", "postcode": "75044"}}},
{"geometry": {"type": "Point", "coordinates": [-96.659558411, 32.9562012649]}, "type": "Feature", "properties": {"collection_times": [{"days": "Mon-Fri", "time": "5:00pm"}, {"days": "Sat", "time": "1:00pm"}, {"days": "Sun", "time": "Closed"}], "id": "7504405174", "name": "USPS COLLECTION BOX - BLUE BOX", "address": {"city": "GARLAND", "state": "TX", "street": "2346 BELT LINE RD", "postcode": "75044"}}},
{"geometry": {"type": "Point", "coordinates": [-96.659558411, 32.9562012649]}, "type": "Feature", "properties": {"collection_times": [{"days": "Mon-Fri", "time": "5:00pm"}, {"days": "Sat", "time": "1:00pm"}, {"days": "Sun", "time": "Closed"}], "id": "7504405175", "name": "USPS COLLECTION BOX - BLUE BOX", "address": {"city": "GARLAND", "state": "TX", "street": "2346 BELT LINE RD", "postcode": "75044"}}},
{"geometry": {"type": "Point", "coordinates": [-96.659558411, 32.9562012649]}, "type": "Feature", "properties": {"collection_times": [{"days": "Mon-Fri", "time": "5:00pm"}, {"days": "Sat", "time": "1:00pm"}, {"days": "Sun", "time": "Closed"}], "id": "7504406211", "name": "USPS COLLECTION BOX - PO LOBBY", "address": {"city": "GARLAND", "state": "TX", "street": "2346 BELT LINE RD", "postcode": "75044"}}},
{"geometry": {"type": "Point", "coordinates": [-96.659558411, 32.9562012649]}, "type": "Feature", "properties": {"collection_times": [{"days": "Mon-Fri", "time": "5:00pm"}, {"days": "Sat", "time": "1:00pm"}, {"days": "Sun", "time": "Closed"}], "id": "7504406212", "name": "USPS COLLECTION BOX - PO LOBBY", "address": {"city": "GARLAND", "state": "TX", "street": "2346 BELT LINE RD", "postcode": "75044"}}},
{"geometry": {"type": "Point", "coordinates": [-96.659558411, 32.9562012649]}, "type": "Feature", "properties": {"collection_times": [{"days": "Mon-Fri", "time": "5:00pm"}, {"days": "Sat", "time": "1:00pm"}, {"days": "Sun", "time": "Closed"}], "id": "7504406213", "name": "USPS COLLECTION BOX - PO LOBBY", "address": {"city": "GARLAND", "state": "TX", "street": "2346 BELT LINE RD", "postcode": "75044"}}},
{"geometry": {"type": "Point", "coordinates": [-96.659558411, 32.9562012649]}, "type": "Feature", "properties": {"collection_times": [{"days": "Mon-Fri", "time": "5:00pm"}, {"days": "Sat", "time": "1:00pm"}, {"days": "Sun", "time": "Closed"}], "id": "7504406214", "name": "USPS COLLECTION BOX - PO LOBBY", "address": {"city": "GARLAND", "state": "TX", "street": "2346 BELT LINE RD", "postcode": "75044"}}},
{"geometry": {"type": "Point", "coordinates": [-96.6823001309, 32.9844474536]}, "type": "Feature", "properties": {"collection_times": [{"days": "Mon-Sat", "time": "1:00pm"}, {"days": "Sun", "time": "Closed"}], "id": "7504407322", "name": "USPS COLLECTION BOX - BLUE BOX", "address": {"city": "GARLAND", "state": "TX", "street": "7602 N JUPITER RD", "postcode": "75044"}}},
{"geometry": {"type": "Point", "coordinates": [-96.659558411, 32.9562012649]}, "type": "Feature", "properties": {"collection_times": [{"days": "Mon-Fri", "time": "5:00pm"}, {"days": "Sat", "time": "1:00pm"}, {"days": "Sun", "time": "Closed"}], "id": "7504407323", "name": "USPS COLLECTION BOX - APC", "address": {"city": "GARLAND", "state": "TX", "street": "2346 BELT LINE RD", "postcode": "75044"}}},
{"geometry": {"type": "Point", "coordinates": [-96.5846870889, 32.9732625766]}, "type": "Feature", "properties": {"collection_times": [{"days": "Mon-Sat", "time": "1:00pm"}, {"days": "Sun", "time": "Closed"}], "id": "7504800002", "name": "USPS COLLECTION BOX - BLUE BOX", "address": {"city": "GARLAND", "state": "TX", "street": "3815 SACHSE RD", "postcode": "75048"}}},
{"geometry": {"type": "Point", "coordinates": [-96.6133300744, 32.9816260965]}, "type": "Feature", "properties": {"collection_times": [{"days": "Mon-Sat", "time": "1:00pm"}, {"days": "Sun", "time": "Closed"}], "id": "7504800003", "name": "USPS COLLECTION BOX - BLUE BOX", "address": {"city": "GARLAND", "state": "TX", "street": "6600 MURPHY RD", "postcode": "75048"}}},
{"geometry": {"type": "Point", "coordinates": [-96.6046565294, 32.9701843291]}, "type": "Feature", "properties": {"collection_times": [{"days": "Mon-Sat", "time": "1:00pm"}, {"days": "Sun", "time": "Closed"}], "id": "7504800004", "name": "USPS COLLECTION BOX - BLUE BOX", "address": {"city": "GARLAND", "state": "TX", "street": "5190 HIGHWAY 78", "postcode": "75048"}}},
{"geometry": {"type": "Point", "coordinates": [-97.0562511086, 32.7789427954]}, "type": "Feature", "properties": {"collection_times": [{"days": "Mon-Fri", "time": "5:00pm"}, {"days": "Sat", "time": "1:00pm"}, {"days": "Sun", "time": "Closed"}], "id": "7505000000", "name": "USPS COLLECTION BOX - BLUE BOX", "address": {"city": "GRAND PRAIRIE", "state": "TX", "street": "505 FOUNTAIN PKWY", "postcode": "75050"}}},
{"geometry": {"type": "Point", "coordinates": [-97.0562322768, 32.7789852258]}, "type": "Feature", "properties": {"collection_times": [{"days": "Mon-Fri", "time": "5:00pm"}, {"days": "Sat", "time": "1:00pm"}, {"days": "Sun", "time": "Closed"}], "id": "7505000001", "name": "USPS COLLECTION BOX - BLUE BOX", "address": {"city": "GRAND PRAIRIE", "state": "TX", "street": "505 FOUNTAIN PKWY", "postcode": "75050"}}},
{"geometry": {"type": "Point", "coordinates": [-97.0562322768, 32.7789852258]}, "type": "Feature", "properties": {"collection_times": [{"days": "Mon-Fri", "time": "5:00pm"}, {"days": "Sat", "time": "1:00pm"}, {"days": "Sun", "time": "Closed"}], "id": "7505000003", "name": "USPS COLLECTION BOX - BLUE BOX", "address": {"city": "GRAND PRAIRIE", "state": "TX", "street": "505 FOUNTAIN PKWY", "postcode": "75050"}}},
{"geometry": {"type": "Point", "coordinates": [-97.0562322768, 32.7789852258]}, "type": "Feature", "properties": {"collection_times": [{"days": "Mon-Fri", "time": "5:00pm"}, {"days": "Sat", "time": "1:00pm"}, {"days": "Sun", "time": "Closed"}], "id": "7505000004", "name": "USPS COLLECTION BOX - PO LOBBY", "address": {"city": "GRAND PRAIRIE", "state": "TX", "street": "505 FOUNTAIN PKWY", "postcode": "75050"}}},
{"geometry": {"type": "Point", "coordinates": [-97.0586623853, 32.7855660262]}, "type": "Feature", "properties": {"collection_times": [{"days": "Mon-Fri", "time": "3:00pm"}, {"days": "Sat", "time": "1:00pm"}, {"days": "Sun", "time": "Closed"}], "id": "7505000006", "name": "USPS COLLECTION BOX - BLUE BOX", "address": {"city": "GRAND PRAIRIE", "state": "TX", "street": "2100 N HIGHWAY 360", "postcode": "75050"}}},
{"geometry": {"type": "Point", "coordinates": [-97.0586137086, 32.7855500677]}, "type": "Feature", "properties": {"collection_times": [{"days": "Mon-Fri", "time": "3:00pm"}, {"days": "Sat", "time": "1:00pm"}, {"days": "Sun", "time": "Closed"}], "id": "7505000010", "name": "USPS COLLECTION BOX - BLUE BOX", "address": {"city": "GRAND PRAIRIE", "state": "TX", "street": "2100 N HIGHWAY 360", "postcode": "75050"}}},
{"geometry": {"type": "Point", "coordinates": [-97.0586137086, 32.7855500677]}, "type": "Feature", "properties": {"collection_times": [{"days": "Mon-Fri", "time": "3:00pm"}, {"days": "Sat", "time": "1:00pm"}, {"days": "Sun", "time": "Closed"}], "id": "7505000011", "name": "USPS COLLECTION BOX - BLUE BOX", "address": {"city": "GRAND PRAIRIE", "state": "TX", "street": "2100 N HIGHWAY 360", "postcode": "75050"}}},
{"geometry": {"type": "Point", "coordinates": [-97.0553001034, 32.765586273]}, "type": "Feature", "properties": {"collection_times": [{"days": "Mon-Fri", "time": "3:00pm"}, {"days": "Sat-Sun", "time": "Closed"}], "id": "7505000013", "name": "USPS COLLECTION BOX - BLUE BOX", "address": {"city": "GRAND PRAIRIE", "state": "TX", "street": "800 E AVENUE J", "postcode": "75050"}}},
{"geometry": {"type": "Point", "coordinates": [-96.9960721736, 32.7459346081]}, "type": "Feature", "properties": {"collection_times": [{"days": "Mon-Fri", "time": "3:00pm"}, {"days": "Sat", "time": "1:00pm"}, {"days": "Sun", "time": "Closed"}], "id": "7505000017", "name": "USPS COLLECTION BOX - BLUE BOX", "address": {"city": "GRAND PRAIRIE", "state": "TX", "street": "700 E MAIN ST", "postcode": "75050"}}},
{"geometry": {"type": "Point", "coordinates": [-97.0175473535, 32.7542049802]}, "type": "Feature", "properties": {"collection_times": [{"days": "Mon-Fri", "time": "3:00pm"}, {"days": "Sat", "time": "1:00pm"}, {"days": "Sun", "time": "Closed"}], "id": "7505000019", "name": "USPS COLLECTION BOX - BLUE BOX", "address": {"city": "GRAND PRAIRIE", "state": "TX", "street": "1000 N CARRIER PKWY", "postcode": "75050"}}},
{"geometry": {"type": "Point", "coordinates": [-97.0628674936, 32.7650736283]}, "type": "Feature", "properties": {"collection_times": [{"days": "Mon-Fri", "time": "3:00pm"}, {"days": "Sat-Sun", "time": "Closed"}], "id": "7505000022", "name": "USPS COLLECTION BOX - BLUE BOX", "address": {"city": "GRAND PRAIRIE", "state": "TX", "street": "1106 N HIGHWAY 360", "postcode": "75050"}}},
{"geometry": {"type": "Point", "coordinates": [-96.9788222941, 32.7486823938]}, "type": "Feature", "properties": {"collection_times": [{"days": "Mon-Fri", "time": "3:00pm"}, {"days": "Sat", "time": "1:00pm"}, {"days": "Sun", "time": "Closed"}], "id": "7505000029", "name": "USPS COLLECTION BOX - BLUE BOX", "address": {"city": "GRAND PRAIRIE", "state": "TX", "street": "1800 E MAIN ST", "postcode": "75050"}}},
{"geometry": {"type": "Point", "coordinates": [-97.0553273132, 32.7894591444]}, "type": "Feature", "properties": {"collection_times": [{"days": "Mon-Fri", "time": "3:00pm"}, {"days": "Sat-Sun", "time": "Closed"}], "id": "7505000030", "name": "USPS COLLECTION BOX - BLUE BOX", "address": {"city": "GRAND PRAIRIE", "state": "TX", "street": "2214 PADDOCK WAY DR", "postcode": "75050"}}},
{"geometry": {"type": "Point", "coordinates": [-97.0562322768, 32.7789852258]}, "type": "Feature", "properties": {"collection_times": [{"days": "Mon-Fri", "time": "5:00pm"}, {"days": "Sat", "time": "1:00pm"}, {"days": "Sun", "time": "Closed"}], "id": "7505000034", "name": "USPS COLLECTION BOX - PO LOBBY", "address": {"city": "GRAND PRAIRIE", "state": "TX", "street": "505 FOUNTAIN PKWY", "postcode": "75050"}}},
{"geometry": {"type": "Point", "coordinates": [-97.0131832171, 32.7096567327]}, "type": "Feature", "properties": {"collection_times": [{"days": "Mon-Fri", "time": "3:00pm"}, {"days": "Sat", "time": "1:00pm"}, {"days": "Sun", "time": "Closed"}], "id": "7505100222", "name": "USPS COLLECTION BOX - BLUE BOX", "address": {"city": "GRAND PRAIRIE", "state": "TX", "street": "700 W PIONEER PKWY", "postcode": "75051"}}},
{"geometry": {"type": "Point", "coordinates": [-97.0024912147, 32.7096372336]}, "type": "Feature", "properties": {"collection_times": [{"days": "Mon-Fri", "time": "3:00pm"}, {"days": "Sat", "time": "1:00pm"}, {"days": "Sun", "time": "Closed"}], "id": "7505100229", "name": "USPS COLLECTION BOX - BLUE BOX", "address": {"city": "GRAND PRAIRIE", "state": "TX", "street": "100 E PIONEER PKWY", "postcode": "75051"}}},
{"geometry": {"type": "Point", "coordinates": [-97.0073054759, 32.7203236083]}, "type": "Feature", "properties": {"collection_times": [{"days": "Mon-Fri", "time": "3:00pm"}, {"days": "Sat", "time": "1:00pm"}, {"days": "Sun", "time": "Closed"}], "id": "7505100233", "name": "USPS COLLECTION BOX - BLUE BOX", "address": {"city": "GRAND PRAIRIE", "state": "TX", "street": "1800 SW 3RD ST", "postcode": "75051"}}},
{"geometry": {"type": "Point", "coordinates": [-97.0434803651, 32.7191775587]}, "type": "Feature", "properties": {"collection_times": [{"days": "Mon-Fri", "time": "3:00pm"}, {"days": "Sat", "time": "1:00pm"}, {"days": "Sun", "time": "Closed"}], "id": "7505100245", "name": "USPS COLLECTION BOX - BLUE BOX", "address": {"city": "GRAND PRAIRIE", "state": "TX", "street": "2001 S GREAT SOUTHWEST PKWY", "postcode": "75051"}}},
{"geometry": {"type": "Point", "coordinates": [-97.04279, 32.73213]}, "type": "Feature", "properties": {"collection_times": [{"days": "Mon-Fri", "time": "3:00pm"}, {"days": "Sat-Sun", "time": "Closed"}], "id": "7505100269", "name": "USPS COLLECTION BOX - BLUE BOX", "address": {"city": "GRAND PRAIRIE", "state": "TX", "street": "801 PARKWAY DR", "postcode": "75051"}}},
{"geometry": {"type": "Point", "coordinates": [-97.0145816008, 32.7366415624]}, "type": "Feature", "properties": {"collection_times": [{"days": "Mon-Fri", "time": "5:00pm"}, {"days": "Sat", "time": "1:00pm"}, {"days": "Sun", "time": "Closed"}], "id": "7505105222", "name": "USPS COLLECTION BOX - BLUE BOX", "address": {"city": "GRAND PRAIRIE", "state": "TX", "street": "802 S CARRIER PKWY", "postcode": "75051"}}},
{"geometry": {"type": "Point", "coordinates": [-97.0172029116, 32.750900597]}, "type": "Feature", "properties": {"collection_times": [{"days": "Mon-Fri", "time": "5:00pm"}, {"days": "Sat", "time": "1:00pm"}, {"days": "Sun", "time": "Closed"}], "id": "7505106048", "name": "USPS COLLECTION BOX - PO LOBBY", "address": {"city": "GRAND PRAIRIE", "state": "TX", "street": "802 S CARRIER PKWY", "postcode": "75051"}}},
{"geometry": {"type": "Point", "coordinates": [-97.0172029116, 32.750900597]}, "type": "Feature", "properties": {"collection_times": [{"days": "Mon-Fri", "time": "5:00pm"}, {"days": "Sat", "time": "1:00pm"}, {"days": "Sun", "time": "Closed"}], "id": "7505106049", "name": "USPS COLLECTION BOX - PO LOBBY", "address": {"city": "GRAND PRAIRIE", "state": "TX", "street": "802 S CARRIER PKWY", "postcode": "75051"}}},
{"geometry": {"type": "Point", "coordinates": [-97.013270756, 32.672227911]}, "type": "Feature", "properties": {"collection_times": [{"days": "Mon-Fri", "time": "5:00pm"}, {"days": "Sat", "time": "1:00pm"}, {"days": "Sun", "time": "Closed"}], "id": "7505200002", "name": "USPS COLLECTION BOX - BLUE BOX", "address": {"city": "GRAND PRAIRIE", "state": "TX", "street": "765 W WESTCHESTER PKWY", "postcode": "75052"}}},
{"geometry": {"type": "Point", "coordinates": [-97.013270756, 32.672227911]}, "type": "Feature", "properties": {"collection_times": [{"days": "Mon-Fri", "time": "5:00pm"}, {"days": "Sat", "time": "1:00pm"}, {"days": "Sun", "time": "Closed"}], "id": "7505200003", "name": "USPS COLLECTION BOX - BLUE BOX", "address": {"city": "GRAND PRAIRIE", "state": "TX", "street": "765 W WESTCHESTER PKWY", "postcode": "75052"}}},
{"geometry": {"type": "Point", "coordinates": [-97.013270756, 32.672227911]}, "type": "Feature", "properties": {"collection_times": [{"days": "Mon-Fri", "time": "5:00pm"}, {"days": "Sat", "time": "1:00pm"}, {"days": "Sun", "time": "Closed"}], "id": "7505200004", "name": "USPS COLLECTION BOX - BLUE BOX", "address": {"city": "GRAND PRAIRIE", "state": "TX", "street": "765 W WESTCHESTER PKWY", "postcode": "75052"}}},
{"geometry": {"type": "Point", "coordinates": [-97.0393761937, 32.6841207758]}, "type": "Feature", "properties": {"collection_times": [{"days": "Mon-Fri", "time": "3:00pm"}, {"days": "Sat-Sun", "time": "Closed"}], "id": "7505200008", "name": "USPS COLLECTION BOX - BLUE BOX", "address": {"city": "GRAND PRAIRIE", "state": "TX", "street": "2600 S FORUM DR", "postcode": "75052"}}},
{"geometry": {"type": "Point", "coordinates": [-97.0443080504, 32.673755111]}, "type": "Feature", "properties": {"collection_times": [{"days": "Mon-Fri", "time": "3:00pm"}, {"days": "Sat-Sun", "time": "Closed"}], "id": "7505200011", "name": "USPS COLLECTION BOX - BLUE BOX", "address": {"city": "GRAND PRAIRIE", "state": "TX", "street": "4045 S GREAT SOUTHWEST PKWY", "postcode": "75052"}}},
{"geometry": {"type": "Point", "coordinates": [-97.0618962843, 32.6934785859]}, "type": "Feature", "properties": {"collection_times": [{"days": "Mon-Fri", "time": "3:00pm"}, {"days": "Sat-Sun", "time": "Closed"}], "id": "7505200013", "name": "USPS COLLECTION BOX - BLUE BOX", "address": {"city": "GRAND PRAIRIE", "state": "TX", "street": "2985 S HIGHWAY 360", "postcode": "75052"}}},
{"geometry": {"type": "Point", "coordinates": [-96.9941730665, 32.7089930927]}, "type": "Feature", "properties": {"collection_times": [{"days": "Mon-Fri", "time": "3:00pm"}, {"days": "Sat-Sun", "time": "Closed"}], "id": "7505200016", "name": "USPS COLLECTION BOX - BLUE BOX", "address": {"city": "GRAND PRAIRIE", "state": "TX", "street": "2502 S BELT LINE RD", "postcode": "75052"}}},
{"geometry": {"type": "Point", "coordinates": [-97.013270756, 32.672227911]}, "type": "Feature", "properties": {"collection_times": [{"days": "Mon-Fri", "time": "5:00pm"}, {"days": "Sat", "time": "1:00pm"}, {"days": "Sun", "time": "Closed"}], "id": "7505200018", "name": "USPS COLLECTION BOX - PO LOBBY", "address": {"city": "GRAND PRAIRIE", "state": "TX", "street": "765 W WESTCHESTER PKWY", "postcode": "75052"}}},
{"geometry": {"type": "Point", "coordinates": [-97.013270756, 32.672227911]}, "type": "Feature", "properties": {"collection_times": [{"days": "Mon-Fri", "time": "5:00pm"}, {"days": "Sat", "time": "1:00pm"}, {"days": "Sun", "time": "Closed"}], "id": "7505200019", "name": "USPS COLLECTION BOX - PO LOBBY", "address": {"city": "GRAND PRAIRIE", "state": "TX", "street": "765 W WESTCHESTER PKWY", "postcode": "75052"}}},
{"geometry": {"type": "Point", "coordinates": [-97.013270756, 32.672227911]}, "type": "Feature", "properties": {"collection_times": [{"days": "Mon-Fri", "time": "5:00pm"}, {"days": "Sat", "time": "1:00pm"}, {"days": "Sun", "time": "Closed"}], "id": "7505200020", "name": "USPS COLLECTION BOX - APC", "address": {"city": "GRAND PRAIRIE", "state": "TX", "street": "765 W WESTCHESTER PKWY", "postcode": "75052"}}},
{"geometry": {"type": "Point", "coordinates": [-96.8784879604, 33.0996191555]}, "type": "Feature", "properties": {"collection_times": [{"days": "Mon-Fri", "time": "5:00pm"}, {"days": "Sat", "time": "1:00pm"}, {"days": "Sun", "time": "Closed"}], "id": "7505600000", "name": "USPS COLLECTION BOX - BLUE BOX", "address": {"city": "LEWISVILLE", "state": "TX", "street": "5200 S COLONY BLVD", "postcode": "75056"}}},
{"geometry": {"type": "Point", "coordinates": [-96.8784879604, 33.0996191555]}, "type": "Feature", "properties": {"collection_times": [{"days": "Mon-Fri", "time": "5:00pm"}, {"days": "Sat", "time": "1:00pm"}, {"days": "Sun", "time": "Closed"}], "id": "7505600001", "name": "USPS COLLECTION BOX - BLUE BOX", "address": {"city": "LEWISVILLE", "state": "TX", "street": "5200 S COLONY BLVD", "postcode": "75056"}}},
{"geometry": {"type": "Point", "coordinates": [-96.8784879604, 33.0996191555]}, "type": "Feature", "properties": {"collection_times": [{"days": "Mon-Fri", "time": "5:00pm"}, {"days": "Sat", "time": "1:00pm"}, {"days": "Sun", "time": "Closed"}], "id": "7505600002", "name": "USPS COLLECTION BOX - BLUE BOX", "address": {"city": "LEWISVILLE", "state": "TX", "street": "5200 S COLONY BLVD", "postcode": "75056"}}},
{"geometry": {"type": "Point", "coordinates": [-96.8784879604, 33.0996191555]}, "type": "Feature", "properties": {"collection_times": [{"days": "Mon-Fri", "time": "5:00pm"}, {"days": "Sat", "time": "1:00pm"}, {"days": "Sun", "time": "Closed"}], "id": "7505600004", "name": "USPS COLLECTION BOX - PO LOBBY", "address": {"city": "LEWISVILLE", "state": "TX", "street": "5200 S COLONY BLVD", "postcode": "75056"}}},
{"geometry": {"type": "Point", "coordinates": [-96.8784879604, 33.0996191555]}, "type": "Feature", "properties": {"collection_times": [{"days": "Mon-Fri", "time": "5:00pm"}, {"days": "Sat", "time": "1:00pm"}, {"days": "Sun", "time": "Closed"}], "id": "7505600005", "name": "USPS COLLECTION BOX - PO LOBBY", "address": {"city": "LEWISVILLE", "state": "TX", "street": "5200 S COLONY BLVD", "postcode": "75056"}}},
{"geometry": {"type": "Point", "coordinates": [-96.8794783473, 33.0838876775]}, "type": "Feature", "properties": {"collection_times": [{"days": "Mon-Fri", "time": "5:00pm"}, {"days": "Sat", "time": "1:00pm"}, {"days": "Sun", "time": "Closed"}], "id": "7505600007", "name": "USPS COLLECTION BOX - APC", "address": {"city": "LEWISVILLE", "state": "TX", "street": "5200 S COLONY BLVD", "postcode": "75056"}}},
{"geometry": {"type": "Point", "coordinates": [-96.9964822024, 33.0486300752]}, "type": "Feature", "properties": {"collection_times": [{"days": "Mon-Fri", "time": "5:00pm"}, {"days": "Sat", "time": "1:00pm"}, {"days": "Sun", "time": "Closed"}], "id": "7505700001", "name": "USPS COLLECTION BOX - BLUE BOX", "address": {"city": "LEWISVILLE", "state": "TX", "street": "320 S CHARLES ST", "postcode": "75057"}}},
{"geometry": {"type": "Point", "coordinates": [-96.9964822024, 33.0486300752]}, "type": "Feature", "properties": {"collection_times": [{"days": "Mon-Fri", "time": "5:00pm"}, {"days": "Sat", "time": "1:00pm"}, {"days": "Sun", "time": "Closed"}], "id": "7505700002", "name": "USPS COLLECTION BOX - BLUE BOX", "address": {"city": "LEWISVILLE", "state": "TX", "street": "320 S CHARLES ST", "postcode": "75057"}}},
{"geometry": {"type": "Point", "coordinates": [-96.9964822024, 33.0486300752]}, "type": "Feature", "properties": {"collection_times": [{"days": "Mon-Fri", "time": "5:00pm"}, {"days": "Sat-Sun", "time": "Closed"}], "id": "7505700007", "name": "USPS COLLECTION BOX - PO LOBBY", "address": {"city": "LEWISVILLE", "state": "TX", "street": "320 S CHARLES ST", "postcode": "75057"}}},
{"geometry": {"type": "Point", "coordinates": [-96.9964822024, 33.0486300752]}, "type": "Feature", "properties": {"collection_times": [{"days": "Mon-Fri", "time": "5:00pm"}, {"days": "Sat-Sun", "time": "Closed"}], "id": "7505700008", "name": "USPS COLLECTION BOX - PO LOBBY", "address": {"city": "LEWISVILLE", "state": "TX", "street": "320 S CHARLES ST", "postcode": "75057"}}},
{"geometry": {"type": "Point", "coordinates": [-96.9964822024, 33.0486300752]}, "type": "Feature", "properties": {"collection_times": [{"days": "Mon-Fri", "time": "5:00pm"}, {"days": "Sat-Sun", "time": "Closed"}], "id": "7505700009", "name": "USPS COLLECTION BOX - PO LOBBY", "address": {"city": "LEWISVILLE", "state": "TX", "street": "320 S CHARLES ST", "postcode": "75057"}}},
{"geometry": {"type": "Point", "coordinates": [-96.7474521307, 33.4477453243]}, "type": "Feature", "properties": {"collection_times": [{"days": "Mon-Fri", "time": "4:15pm"}, {"days": "Sat", "time": "9:00am"}, {"days": "Sun", "time": "Closed"}], "id": "7505800286", "name": "USPS COLLECTION BOX - BLUE BOX", "address": {"city": "GUNTER", "state": "TX", "street": "500 W MAIN ST", "postcode": "75058"}}},
{"geometry": {"type": "Point", "coordinates": [-96.7474521307, 33.4477453243]}, "type": "Feature", "properties": {"collection_times": [{"days": "Mon-Fri", "time": "4:15pm"}, {"days": "Sat", "time": "9:00am"}, {"days": "Sun", "time": "Closed"}], "id": "7505800288", "name": "USPS COLLECTION BOX - PO LOBBY", "address": {"city": "GUNTER", "state": "TX", "street": "500 W MAIN ST", "postcode": "75058"}}},
{"geometry": {"type": "Point", "coordinates": [-96.9754629939, 32.8004196195]}, "type": "Feature", "properties": {"collection_times": [{"days": "Mon-Fri", "time": "3:00pm"}, {"days": "Sat-Sun", "time": "Closed"}], "id": "7506005368", "name": "USPS COLLECTION BOX - BLUE BOX", "address": {"city": "IRVING", "state": "TX", "street": "2300 W SHADY GROVE RD", "postcode": "75060"}}},
{"geometry": {"type": "Point", "coordinates": [-96.955614519, 32.8135039684]}, "type": "Feature", "properties": {"collection_times": [{"days": "Mon-Fri", "time": "3:00pm"}, {"days": "Sat-Sun", "time": "Closed"}], "id": "7506005370", "name": "USPS COLLECTION BOX - BLUE BOX", "address": {"city": "IRVING", "state": "TX", "street": "825 W IRVING BLVD", "postcode": "75060"}}},
{"geometry": {"type": "Point", "coordinates": [-96.9796238542, 32.8298713886]}, "type": "Feature", "properties": {"collection_times": [{"days": "Mon-Fri", "time": "5:00pm"}, {"days": "Sat", "time": "1:00pm"}, {"days": "Sun", "time": "Closed"}], "id": "7506100335", "name": "USPS COLLECTION BOX - PO LOBBY", "address": {"city": "IRVING", "state": "TX", "street": "2701 W IRVING BLVD", "postcode": "75061"}}},
{"geometry": {"type": "Point", "coordinates": [-96.9796238542, 32.8298713886]}, "type": "Feature", "properties": {"collection_times": [{"days": "Mon-Fri", "time": "5:00pm"}, {"days": "Sat", "time": "1:00pm"}, {"days": "Sun", "time": "Closed"}], "id": "7506100336", "name": "USPS COLLECTION BOX - BLUE BOX", "address": {"city": "IRVING", "state": "TX", "street": "2701 W IRVING BLVD", "postcode": "75061"}}},
{"geometry": {"type": "Point", "coordinates": [-96.9796238542, 32.8298713886]}, "type": "Feature", "properties": {"collection_times": [{"days": "Mon-Fri", "time": "5:00pm"}, {"days": "Sat", "time": "1:00pm"}, {"days": "Sun", "time": "Closed"}], "id": "7506105056", "name": "USPS COLLECTION BOX - BLUE BOX", "address": {"city": "IRVING", "state": "TX", "street": "2701 W IRVING BLVD", "postcode": "75061"}}},
{"geometry": {"type": "Point", "coordinates": [-96.9796238542, 32.8298713886]}, "type": "Feature", "properties": {"collection_times": [{"days": "Mon-Fri", "time": "5:00pm"}, {"days": "Sat", "time": "1:00pm"}, {"days": "Sun", "time": "Closed"}], "id": "7506105060", "name": "USPS COLLECTION BOX - PO LOBBY", "address": {"city": "IRVING", "state": "TX", "street": "2701 W IRVING BLVD", "postcode": "75061"}}},
{"geometry": {"type": "Point", "coordinates": [-96.9681363565, 32.8271111973]}, "type": "Feature", "properties": {"collection_times": [{"days": "Mon-Fri", "time": "3:00pm"}, {"days": "Sat", "time": "1:00pm"}, {"days": "Sun", "time": "Closed"}], "id": "7506105073", "name": "USPS COLLECTION BOX - BLUE BOX", "address": {"city": "IRVING", "state": "TX", "street": "1425 W PIONEER DR", "postcode": "75061"}}},
{"geometry": {"type": "Point", "coordinates": [-96.9169142344, 32.8196130149]}, "type": "Feature", "properties": {"collection_times": [{"days": "Mon-Fri", "time": "3:00pm"}, {"days": "Sat", "time": "1:00pm"}, {"days": "Sun", "time": "Closed"}], "id": "7506105086", "name": "USPS COLLECTION BOX - BLUE BOX", "address": {"city": "IRVING", "state": "TX", "street": "601 N WILDWOOD DR", "postcode": "75061"}}},
{"geometry": {"type": "Point", "coordinates": [-96.9796238542, 32.8298713886]}, "type": "Feature", "properties": {"collection_times": [{"days": "Mon-Fri", "time": "5:00pm"}, {"days": "Sat", "time": "1:00pm"}, {"days": "Sun", "time": "Closed"}], "id": "7506106553", "name": "USPS COLLECTION BOX - PO LOBBY", "address": {"city": "IRVING", "state": "TX", "street": "2701 W IRVING BLVD", "postcode": "75061"}}},
{"geometry": {"type": "Point", "coordinates": [-96.8934027071, 32.8350586637]}, "type": "Feature", "properties": {"collection_times": [{"days": "Mon-Fri", "time": "3:00pm"}, {"days": "Sat-Sun", "time": "Closed"}], "id": "7506200345", "name": "USPS COLLECTION BOX - BLUE BOX", "address": {"city": "IRVING", "state": "TX", "street": "2033 CENTURY CENTER BLVD", "postcode": "75062"}}},
{"geometry": {"type": "Point", "coordinates": [-96.9274054389, 32.859945666]}, "type": "Feature", "properties": {"collection_times": [{"days": "Mon-Fri", "time": "5:00pm"}, {"days": "Sat", "time": "1:00pm"}, {"days": "Sun", "time": "Closed"}], "id": "7506200350", "name": "USPS COLLECTION BOX - PO LOBBY", "address": {"city": "IRVING", "state": "TX", "street": "3900 TELEPORT DR", "postcode": "75062"}}},
{"geometry": {"type": "Point", "coordinates": [-96.9274054389, 32.859945666]}, "type": "Feature", "properties": {"collection_times": [{"days": "Mon-Fri", "time": "5:00pm"}, {"days": "Sat", "time": "1:00pm"}, {"days": "Sun", "time": "Closed"}], "id": "7506200351", "name": "USPS COLLECTION BOX - BLUE BOX", "address": {"city": "IRVING", "state": "TX", "street": "3900 TELEPORT DR", "postcode": "75062"}}},
{"geometry": {"type": "Point", "coordinates": [-96.9524879585, 32.8372991879]}, "type": "Feature", "properties": {"collection_times": [{"days": "Mon-Fri", "time": "3:00pm"}, {"days": "Sat", "time": "1:00pm"}, {"days": "Sun", "time": "Closed"}], "id": "7506200369", "name": "USPS COLLECTION BOX - BLUE BOX", "address": {"city": "IRVING", "state": "TX", "street": "535 W AIRPORT FWY", "postcode": "75062"}}},
{"geometry": {"type": "Point", "coordinates": [-96.9920029357, 32.8544731898]}, "type": "Feature", "properties": {"collection_times": [{"days": "Mon-Fri", "time": "3:00pm"}, {"days": "Sat", "time": "1:00pm"}, {"days": "Sun", "time": "Closed"}], "id": "7506205045", "name": "USPS COLLECTION BOX - BLUE BOX", "address": {"city": "IRVING", "state": "TX", "street": "3600 N BELT LINE RD", "postcode": "75062"}}},
{"geometry": {"type": "Point", "coordinates": [-97.0123515969, 32.8378883015]}, "type": "Feature", "properties": {"collection_times": [{"days": "Mon-Fri", "time": "3:00pm"}, {"days": "Sat-Sun", "time": "Closed"}], "id": "7506205051", "name": "USPS COLLECTION BOX - BLUE BOX", "address": {"city": "IRVING", "state": "TX", "street": "4425 W AIRPORT FWY", "postcode": "75062"}}},
{"geometry": {"type": "Point", "coordinates": [-96.9274054389, 32.859945666]}, "type": "Feature", "properties": {"collection_times": [{"days": "Mon-Fri", "time": "5:00pm"}, {"days": "Sat", "time": "1:00pm"}, {"days": "Sun", "time": "Closed"}], "id": "7506205062", "name": "USPS COLLECTION BOX - BLUE BOX", "address": {"city": "IRVING", "state": "TX", "street": "3900 TELEPORT DR", "postcode": "75062"}}},
{"geometry": {"type": "Point", "coordinates": [-96.9776849845, 32.8551322943]}, "type": "Feature", "properties": {"collection_times": [{"days": "Mon-Fri", "time": "3:00pm"}, {"days": "Sat-Sun", "time": "Closed"}], "id": "7506207324", "name": "USPS COLLECTION BOX - BLUE BOX", "address": {"city": "IRVING", "state": "TX", "street": "3702 N STORY RD", "postcode": "75062"}}},
{"geometry": {"type": "Point", "coordinates": [-96.943439697, 32.8630042508]}, "type": "Feature", "properties": {"collection_times": [{"days": "Mon-Fri", "time": "3:00pm"}, {"days": "Sat-Sun", "time": "Closed"}], "id": "7506207326", "name": "USPS COLLECTION BOX - BLUE BOX", "address": {"city": "IRVING", "state": "TX", "street": "104 DECKER CT", "postcode": "75062"}}},
{"geometry": {"type": "Point", "coordinates": [-96.9274054389, 32.859945666]}, "type": "Feature", "properties": {"collection_times": [{"days": "Mon-Fri", "time": "5:00pm"}, {"days": "Sat", "time": "1:00pm"}, {"days": "Sun", "time": "Closed"}], "id": "7506207330", "name": "USPS COLLECTION BOX - PO LOBBY", "address": {"city": "IRVING", "state": "TX", "street": "3900 TELEPORT DR", "postcode": "75062"}}},
{"geometry": {"type": "Point", "coordinates": [-96.9975866012, 32.8377348871]}, "type": "Feature", "properties": {"collection_times": [{"days": "Mon-Fri", "time": "3:00pm"}, {"days": "Sat-Sun", "time": "Closed"}], "id": "7506207332", "name": "USPS COLLECTION BOX - BLUE BOX", "address": {"city": "IRVING", "state": "TX", "street": "3880 IRVING MALL", "postcode": "75062"}}},
{"geometry": {"type": "Point", "coordinates": [-96.9274054389, 32.859945666]}, "type": "Feature", "properties": {"collection_times": [{"days": "Mon-Fri", "time": "5:00pm"}, {"days": "Sat", "time": "1:00pm"}, {"days": "Sun", "time": "Closed"}], "id": "7506207334", "name": "USPS COLLECTION BOX - BLUE BOX", "address": {"city": "IRVING", "state": "TX", "street": "3900 TELEPORT DR", "postcode": "75062"}}},
{"geometry": {"type": "Point", "coordinates": [-96.9408885452, 32.8660704723]}, "type": "Feature", "properties": {"collection_times": [{"days": "Mon-Fri", "time": "3:00pm"}, {"days": "Sat-Sun", "time": "Closed"}], "id": "7506207338", "name": "USPS COLLECTION BOX - BLUE BOX", "address": {"city": "IRVING", "state": "TX", "street": "225 E JOHN CARPENTER FWY STE 100", "postcode": "75062"}}},
{"geometry": {"type": "Point", "coordinates": [-96.9774418371, 32.8951084714]}, "type": "Feature", "properties": {"collection_times": [{"days": "Mon-Fri", "time": "3:00pm"}, {"days": "Sat", "time": "1:00pm"}, {"days": "Sun", "time": "Closed"}], "id": "7506300000", "name": "USPS COLLECTION BOX - BLUE BOX", "address": {"city": "IRVING", "state": "TX", "street": "6201 CAMPUS CIRCLE DR E", "postcode": "75063"}}},
{"geometry": {"type": "Point", "coordinates": [-97.0078548012, 32.9210666083]}, "type": "Feature", "properties": {"collection_times": [{"days": "Mon-Fri", "time": "3:00pm"}, {"days": "Sat-Sun", "time": "Closed"}], "id": "7506300004", "name": "USPS COLLECTION BOX - BLUE BOX", "address": {"city": "IRVING", "state": "TX", "street": "8304 ESTERS BLVD", "postcode": "75063"}}},
{"geometry": {"type": "Point", "coordinates": [-96.9585920268, 32.9123023352]}, "type": "Feature", "properties": {"collection_times": [{"days": "Mon-Fri", "time": "3:00pm"}, {"days": "Sat", "time": "1:00pm"}, {"days": "Sun", "time": "Closed"}], "id": "7506300012", "name": "USPS COLLECTION BOX - BLUE BOX", "address": {"city": "IRVING", "state": "TX", "street": "7750 N MACARTHUR BLVD", "postcode": "75063"}}},
{"geometry": {"type": "Point", "coordinates": [-96.9519829387, 32.9339952943]}, "type": "Feature", "properties": {"collection_times": [{"days": "Mon-Fri", "time": "3:00pm"}, {"days": "Sat", "time": "1:00pm"}, {"days": "Sun", "time": "Closed"}], "id": "7506300013", "name": "USPS COLLECTION BOX - BLUE BOX", "address": {"city": "IRVING", "state": "TX", "street": "9400 N MACARTHUR BLVD", "postcode": "75063"}}},
{"geometry": {"type": "Point", "coordinates": [-96.9878406872, 32.9096051888]}, "type": "Feature", "properties": {"collection_times": [{"days": "Mon-Fri", "time": "3:00pm"}, {"days": "Sat", "time": "1:00pm"}, {"days": "Sun", "time": "Closed"}], "id": "7506300015", "name": "USPS COLLECTION BOX - BLUE BOX", "address": {"city": "IRVING", "state": "TX", "street": "7900 RIDGEPOINT DR", "postcode": "75063"}}},
{"geometry": {"type": "Point", "coordinates": [-96.9869399824, 32.9180087513]}, "type": "Feature", "properties": {"collection_times": [{"days": "Mon-Fri", "time": "3:00pm"}, {"days": "Sat-Sun", "time": "Closed"}], "id": "7506300017", "name": "USPS COLLECTION BOX - BLUE BOX", "address": {"city": "IRVING", "state": "TX", "street": "8150 SPRINGWOOD DR STE 100", "postcode": "75063"}}},
{"geometry": {"type": "Point", "coordinates": [-97.0180078946, 32.9351063165]}, "type": "Feature", "properties": {"collection_times": [{"days": "Mon-Fri", "time": "3:00pm"}, {"days": "Sat-Sun", "time": "Closed"}], "id": "7506300018", "name": "USPS COLLECTION BOX - BLUE BOX", "address": {"city": "IRVING", "state": "TX", "street": "5101 STATESMAN DR", "postcode": "75063"}}},
{"geometry": {"type": "Point", "coordinates": [-97.0136564007, 32.922915843]}, "type": "Feature", "properties": {"collection_times": [{"days": "Mon-Fri", "time": "3:00pm"}, {"days": "Sat-Sun", "time": "Closed"}], "id": "7506300021", "name": "USPS COLLECTION BOX - BLUE BOX", "address": {"city": "IRVING", "state": "TX", "street": "8411 STERLING ST", "postcode": "75063"}}},
{"geometry": {"type": "Point", "coordinates": [-96.9647776673, 32.9251909606]}, "type": "Feature", "properties": {"collection_times": [{"days": "Mon-Fri", "time": "3:00pm"}, {"days": "Sat", "time": "1:00pm"}, {"days": "Sun", "time": "Closed"}], "id": "7506300022", "name": "USPS COLLECTION BOX - EXPRESS", "address": {"city": "IRVING", "state": "TX", "street": "8925 STERLING ST", "postcode": "75063"}}},
{"geometry": {"type": "Point", "coordinates": [-97.017076335, 32.9297450651]}, "type": "Feature", "properties": {"collection_times": [{"days": "Mon-Fri", "time": "3:00pm"}, {"days": "Sat", "time": "1:00pm"}, {"days": "Sun", "time": "Closed"}], "id": "7506300024", "name": "USPS COLLECTION BOX - BLUE BOX", "address": {"city": "IRVING", "state": "TX", "street": "8925 STERLING ST", "postcode": "75063"}}},
{"geometry": {"type": "Point", "coordinates": [-96.9566649866, 32.9229406852]}, "type": "Feature", "properties": {"collection_times": [{"days": "Mon-Fri", "time": "5:00pm"}, {"days": "Sat", "time": "1:00pm"}, {"days": "Sun", "time": "Closed"}], "id": "7506300025", "name": "USPS COLLECTION BOX - PO LOBBY", "address": {"city": "IRVING", "state": "TX", "street": "8501 N MACARTHUR BLVD", "postcode": "75063"}}},
{"geometry": {"type": "Point", "coordinates": [-96.9566649866, 32.9229406852]}, "type": "Feature", "properties": {"collection_times": [{"days": "Mon-Fri", "time": "5:00pm"}, {"days": "Sat", "time": "1:00pm"}, {"days": "Sun", "time": "Closed"}], "id": "7506300026", "name": "USPS COLLECTION BOX - PO LOBBY", "address": {"city": "IRVING", "state": "TX", "street": "8501 N MACARTHUR BLVD", "postcode": "75063"}}},
{"geometry": {"type": "Point", "coordinates": [-96.9566649866, 32.9229406852]}, "type": "Feature", "properties": {"collection_times": [{"days": "Mon-Fri", "time": "5:00pm"}, {"days": "Sat", "time": "1:00pm"}, {"days": "Sun", "time": "Closed"}], "id": "7506300029", "name": "USPS COLLECTION BOX - PO LOBBY", "address": {"city": "IRVING", "state": "TX", "street": "8501 N MACARTHUR BLVD", "postcode": "75063"}}},
{"geometry": {"type": "Point", "coordinates": [-96.9566649866, 32.9229406852]}, "type": "Feature", "properties": {"collection_times": [{"days": "Mon-Fri", "time": "5:00pm"}, {"days": "Sat", "time": "1:00pm"}, {"days": "Sun", "time": "Closed"}], "id": "7506300030", "name": "USPS COLLECTION BOX - BLUE BOX", "address": {"city": "IRVING", "state": "TX", "street": "8501 N MACARTHUR BLVD", "postcode": "75063"}}},
{"geometry": {"type": "Point", "coordinates": [-96.9566649866, 32.9229406852]}, "type": "Feature", "properties": {"collection_times": [{"days": "Mon-Fri", "time": "5:00pm"}, {"days": "Sat", "time": "1:00pm"}, {"days": "Sun", "time": "Closed"}], "id": "7506300031", "name": "USPS COLLECTION BOX - BLUE BOX", "address": {"city": "IRVING", "state": "TX", "street": "8501 N MACARTHUR BLVD", "postcode": "75063"}}},
{"geometry": {"type": "Point", "coordinates": [-96.9566649866, 32.9229406852]}, "type": "Feature", "properties": {"collection_times": [{"days": "Mon-Fri", "time": "5:00pm"}, {"days": "Sat", "time": "1:00pm"}, {"days": "Sun", "time": "Closed"}], "id": "7506300032", "name": "USPS COLLECTION BOX - APC", "address": {"city": "IRVING", "state": "TX", "street": "8501 N MACARTHUR BLVD", "postcode": "75063"}}},
{"geometry": {"type": "Point", "coordinates": [-97.0301954808, 33.1213001412]}, "type": "Feature", "properties": {"collection_times": [{"days": "Mon-Fri", "time": "4:30pm"}, {"days": "Sat", "time": "9:30am"}, {"days": "Sun", "time": "Closed"}], "id": "7506500429", "name": "USPS COLLECTION BOX - BLUE BOX", "address": {"city": "LAKE DALLAS", "state": "TX", "street": "201 S SHADY SHORES DR", "postcode": "75065"}}},
{"geometry": {"type": "Point", "coordinates": [-97.0301954808, 33.1213001412]}, "type": "Feature", "properties": {"collection_times": [{"days": "Mon-Fri", "time": "4:30pm"}, {"days": "Sat", "time": "9:30am"}, {"days": "Sun", "time": "Closed"}], "id": "7506505040", "name": "USPS COLLECTION BOX - BLUE BOX", "address": {"city": "LAKE DALLAS", "state": "TX", "street": "201 S SHADY SHORES DR", "postcode": "75065"}}},
{"geometry": {"type": "Point", "coordinates": [-97.0301954808, 33.1213001412]}, "type": "Feature", "properties": {"collection_times": [{"days": "Mon-Fri", "time": "4:30pm"}, {"days": "Sat", "time": "9:30am"}, {"days": "Sun", "time": "Closed"}], "id": "7506506215", "name": "USPS COLLECTION BOX - PO LOBBY", "address": {"city": "LAKE DALLAS", "state": "TX", "street": "201 S SHADY SHORES DR", "postcode": "75065"}}},
{"geometry": {"type": "Point", "coordinates": [-97.0301954808, 33.1213001412]}, "type": "Feature", "properties": {"collection_times": [{"days": "Mon-Fri", "time": "4:30pm"}, {"days": "Sat", "time": "9:30am"}, {"days": "Sun", "time": "Closed"}], "id": "7506506216", "name": "USPS COLLECTION BOX - PO LOBBY", "address": {"city": "LAKE DALLAS", "state": "TX", "street": "201 S SHADY SHORES DR", "postcode": "75065"}}},
{"geometry": {"type": "Point", "coordinates": [-97.0301954808, 33.1213001412]}, "type": "Feature", "properties": {"collection_times": [{"days": "Mon-Fri", "time": "4:30pm"}, {"days": "Sat", "time": "9:30am"}, {"days": "Sun", "time": "Closed"}], "id": "7506506217", "name": "USPS COLLECTION BOX - BLUE BOX", "address": {"city": "LAKE DALLAS", "state": "TX", "street": "201 S SHADY SHORES DR", "postcode": "75065"}}},
{"geometry": {"type": "Point", "coordinates": [-96.9929049345, 33.0184835489]}, "type": "Feature", "properties": {"collection_times": [{"days": "Mon-Fri", "time": "3:00pm"}, {"days": "Sat", "time": "1:00pm"}, {"days": "Sun", "time": "Closed"}], "id": "7506700446", "name": "USPS COLLECTION BOX - BLUE BOX", "address": {"city": "LEWISVILLE", "state": "TX", "street": "1702 S HIGHWAY 121", "postcode": "75067"}}},
{"geometry": {"type": "Point", "coordinates": [-97.0210514339, 33.0452873628]}, "type": "Feature", "properties": {"collection_times": [{"days": "Mon-Fri", "time": "5:00pm"}, {"days": "Sat", "time": "1:00pm"}, {"days": "Sun", "time": "Closed"}], "id": "7506700447", "name": "USPS COLLECTION BOX - PO LOBBY", "address": {"city": "LEWISVILLE", "state": "TX", "street": "194 CIVIC CIR", "postcode": "75067"}}},
{"geometry": {"type": "Point", "coordinates": [-96.9714732669, 33.0059441839]}, "type": "Feature", "properties": {"collection_times": [{"days": "Mon-Sat", "time": "1:00pm"}, {"days": "Sun", "time": "Closed"}], "id": "7506700450", "name": "USPS COLLECTION BOX - BLUE BOX", "address": {"city": "LEWISVILLE", "state": "TX", "street": "2401 S STEMMONS FWY", "postcode": "75067"}}},
{"geometry": {"type": "Point", "coordinates": [-97.0112490792, 33.046040578]}, "type": "Feature", "properties": {"collection_times": [{"days": "Mon-Sat", "time": "1:00pm"}, {"days": "Sun", "time": "Closed"}], "id": "7506700462", "name": "USPS COLLECTION BOX - BLUE BOX", "address": {"city": "LEWISVILLE", "state": "TX", "street": "724 W MAIN ST", "postcode": "75067"}}},
{"geometry": {"type": "Point", "coordinates": [-97.0210514339, 33.0452873628]}, "type": "Feature", "properties": {"collection_times": [{"days": "Mon-Fri", "time": "5:00pm"}, {"days": "Sat", "time": "1:00pm"}, {"days": "Sun", "time": "Closed"}], "id": "7506705005", "name": "USPS COLLECTION BOX - BLUE BOX", "address": {"city": "LEWISVILLE", "state": "TX", "street": "194 CIVIC CIR", "postcode": "75067"}}},
{"geometry": {"type": "Point", "coordinates": [-97.0210514339, 33.0452873628]}, "type": "Feature", "properties": {"collection_times": [{"days": "Mon-Fri", "time": "5:00pm"}, {"days": "Sat", "time": "1:00pm"}, {"days": "Sun", "time": "Closed"}], "id": "7506705006", "name": "USPS COLLECTION BOX - BLUE BOX", "address": {"city": "LEWISVILLE", "state": "TX", "street": "194 CIVIC CIR", "postcode": "75067"}}},
{"geometry": {"type": "Point", "coordinates": [-97.0210514339, 33.0452873628]}, "type": "Feature", "properties": {"collection_times": [{"days": "Mon-Fri", "time": "5:00pm"}, {"days": "Sat", "time": "1:00pm"}, {"days": "Sun", "time": "Closed"}], "id": "7506705008", "name": "USPS COLLECTION BOX - PO LOBBY", "address": {"city": "LEWISVILLE", "state": "TX", "street": "194 CIVIC CIR", "postcode": "75067"}}},
{"geometry": {"type": "Point", "coordinates": [-97.0210514339, 33.0452873628]}, "type": "Feature", "properties": {"collection_times": [{"days": "Mon-Fri", "time": "5:00pm"}, {"days": "Sat", "time": "1:00pm"}, {"days": "Sun", "time": "Closed"}], "id": "7506705009", "name": "USPS COLLECTION BOX - PO LOBBY", "address": {"city": "LEWISVILLE", "state": "TX", "street": "194 CIVIC CIR", "postcode": "75067"}}},
{"geometry": {"type": "Point", "coordinates": [-96.9848638509, 33.0211397164]}, "type": "Feature", "properties": {"collection_times": [{"days": "Mon-Fri", "time": "3:00pm"}, {"days": "Sat", "time": "1:00pm"}, {"days": "Sun", "time": "Closed"}], "id": "7506705016", "name": "USPS COLLECTION BOX - BLUE BOX", "address": {"city": "LEWISVILLE", "state": "TX", "street": "1660 S STEMMONS FWY", "postcode": "75067"}}},
{"geometry": {"type": "Point", "coordinates": [-97.0210514339, 33.0452873628]}, "type": "Feature", "properties": {"collection_times": [{"days": "Mon-Fri", "time": "5:00pm"}, {"days": "Sat", "time": "1:00pm"}, {"days": "Sun", "time": "Closed"}], "id": "7506705017", "name": "USPS COLLECTION BOX - APC", "address": {"city": "LEWISVILLE", "state": "TX", "street": "194 CIVIC CIR", "postcode": "75067"}}},
{"geometry": {"type": "Point", "coordinates": [-96.9482112626, 33.1546848662]}, "type": "Feature", "properties": {"collection_times": [{"days": "Mon-Fri", "time": "4:30pm"}, {"days": "Sat", "time": "12:00pm"}, {"days": "Sun", "time": "Closed"}], "id": "7506800478", "name": "USPS COLLECTION BOX - BLUE BOX", "address": {"city": "LITTLE ELM", "state": "TX", "street": "1012 W ELDORADO PKWY", "postcode": "75068"}}},
{"geometry": {"type": "Point", "coordinates": [-96.9482112626, 33.1546848662]}, "type": "Feature", "properties": {"collection_times": [{"days": "Mon-Fri", "time": "4:30pm"}, {"days": "Sat", "time": "12:00pm"}, {"days": "Sun", "time": "Closed"}], "id": "7506805032", "name": "USPS COLLECTION BOX - BLUE BOX", "address": {"city": "LITTLE ELM", "state": "TX", "street": "1012 W ELDORADO PKWY", "postcode": "75068"}}},
{"geometry": {"type": "Point", "coordinates": [-96.9482112626, 33.1546848662]}, "type": "Feature", "properties": {"collection_times": [{"days": "Mon-Fri", "time": "4:30pm"}, {"days": "Sat", "time": "12:00pm"}, {"days": "Sun", "time": "Closed"}], "id": "7506805034", "name": "USPS COLLECTION BOX - PO LOBBY", "address": {"city": "LITTLE ELM", "state": "TX", "street": "1012 W ELDORADO PKWY", "postcode": "75068"}}},
{"geometry": {"type": "Point", "coordinates": [-96.6317069076, 33.216719374]}, "type": "Feature", "properties": {"collection_times": [{"days": "Mon-Fri", "time": "1:00pm"}, {"days": "Sat-Sun", "time": "Closed"}], "id": "7506907362", "name": "USPS COLLECTION BOX - BLUE BOX", "address": {"city": "MCKINNEY", "state": "TX", "street": "1700 W UNIVERSITY DR", "postcode": "75069"}}},
{"geometry": {"type": "Point", "coordinates": [-96.6338390339, 33.2132210708]}, "type": "Feature", "properties": {"collection_times": [{"days": "Mon-Fri", "time": "1:00pm"}, {"days": "Sat-Sun", "time": "Closed"}], "id": "7506907363", "name": "USPS COLLECTION BOX - BLUE BOX", "address": {"city": "MCKINNEY", "state": "TX", "street": "1600 REDBUD BLVD", "postcode": "75069"}}},
{"geometry": {"type": "Point", "coordinates": [-96.6120027944, 33.2067538341]}, "type": "Feature", "properties": {"collection_times": [{"days": "Mon-Fri", "time": "1:00pm"}, {"days": "Sat-Sun", "time": "Closed"}], "id": "7506907365", "name": "USPS COLLECTION BOX - BLUE BOX", "address": {"city": "MCKINNEY", "state": "TX", "street": "901 N MCDONALD ST", "postcode": "75069"}}},
{"geometry": {"type": "Point", "coordinates": [-96.6120027944, 33.2067538341]}, "type": "Feature", "properties": {"collection_times": [{"days": "Mon-Fri", "time": "1:00pm"}, {"days": "Sat-Sun", "time": "Closed"}], "id": "7506907366", "name": "USPS COLLECTION BOX - BLUE BOX", "address": {"city": "MCKINNEY", "state": "TX", "street": "901 N MCDONALD ST", "postcode": "75069"}}},
{"geometry": {"type": "Point", "coordinates": [-96.664321547, 33.166103494]}, "type": "Feature", "properties": {"collection_times": [{"days": "Mon-Fri", "time": "1:00pm"}, {"days": "Sat-Sun", "time": "Closed"}], "id": "7507000007", "name": "USPS COLLECTION BOX - BLUE BOX", "address": {"city": "MCKINNEY", "state": "TX", "street": "3001 S HARDIN BLVD", "postcode": "75070"}}},
{"geometry": {"type": "Point", "coordinates": [-96.638247922, 33.2021686852]}, "type": "Feature", "properties": {"collection_times": [{"days": "Mon-Fri", "time": "5:00pm"}, {"days": "Sat", "time": "1:00pm"}, {"days": "Sun", "time": "Closed"}], "id": "7507000008", "name": "USPS COLLECTION BOX - BLUE BOX", "address": {"city": "MCKINNEY", "state": "TX", "street": "550 N CENTRAL EXPY", "postcode": "75070"}}},
{"geometry": {"type": "Point", "coordinates": [-96.638247922, 33.2021686852]}, "type": "Feature", "properties": {"collection_times": [{"days": "Mon-Fri", "time": "5:00pm"}, {"days": "Sat", "time": "1:00pm"}, {"days": "Sun", "time": "Closed"}], "id": "7507000009", "name": "USPS COLLECTION BOX - BLUE BOX", "address": {"city": "MCKINNEY", "state": "TX", "street": "550 N CENTRAL EXPY", "postcode": "75070"}}},
{"geometry": {"type": "Point", "coordinates": [-96.638247922, 33.2021686852]}, "type": "Feature", "properties": {"collection_times": [{"days": "Mon-Fri", "time": "5:00pm"}, {"days": "Sat", "time": "1:00pm"}, {"days": "Sun", "time": "Closed"}], "id": "7507000011", "name": "USPS COLLECTION BOX - PO LOBBY", "address": {"city": "MCKINNEY", "state": "TX", "street": "550 N CENTRAL EXPY", "postcode": "75070"}}},
{"geometry": {"type": "Point", "coordinates": [-96.638247922, 33.2021686852]}, "type": "Feature", "properties": {"collection_times": [{"days": "Mon-Fri", "time": "5:00pm"}, {"days": "Sat", "time": "1:00pm"}, {"days": "Sun", "time": "Closed"}], "id": "7507000012", "name": "USPS COLLECTION BOX - PO LOBBY", "address": {"city": "MCKINNEY", "state": "TX", "street": "550 N CENTRAL EXPY", "postcode": "75070"}}},
{"geometry": {"type": "Point", "coordinates": [-96.6843383692, 33.1747346838]}, "type": "Feature", "properties": {"collection_times": [{"days": "Mon-Fri", "time": "1:00pm"}, {"days": "Sat-Sun", "time": "Closed"}], "id": "7507000014", "name": "USPS COLLECTION BOX - BLUE BOX", "address": {"city": "MCKINNEY", "state": "TX", "street": "2901 LAKE FOREST DR", "postcode": "75070"}}},
{"geometry": {"type": "Point", "coordinates": [-96.6961998424, 33.1771404496]}, "type": "Feature", "properties": {"collection_times": [{"days": "Mon-Fri", "time": "1:00pm"}, {"days": "Sat-Sun", "time": "Closed"}], "id": "7507000015", "name": "USPS COLLECTION BOX - BLUE BOX", "address": {"city": "MCKINNEY", "state": "TX", "street": "4510 MEDICAL CENTER DR", "postcode": "75070"}}},
{"geometry": {"type": "Point", "coordinates": [-96.638247922, 33.2021686852]}, "type": "Feature", "properties": {"collection_times": [{"days": "Mon-Fri", "time": "5:00pm"}, {"days": "Sat", "time": "1:00pm"}, {"days": "Sun", "time": "Closed"}], "id": "7507000018", "name": "USPS COLLECTION BOX - PO LOBBY", "address": {"city": "MCKINNEY", "state": "TX", "street": "550 N CENTRAL EXPY", "postcode": "75070"}}},
{"geometry": {"type": "Point", "coordinates": [-96.6644835859, 33.1664090186]}, "type": "Feature", "properties": {"collection_times": [{"days": "Mon-Fri", "time": "1:00pm"}, {"days": "Sat-Sun", "time": "Closed"}], "id": "7507000019", "name": "USPS COLLECTION BOX - BLUE BOX", "address": {"city": "MCKINNEY", "state": "TX", "street": "3001 S HARDIN BLVD", "postcode": "75070"}}},
{"geometry": {"type": "Point", "coordinates": [-96.6961998424, 33.1771404496]}, "type": "Feature", "properties": {"collection_times": [{"days": "Mon-Fri", "time": "1:00pm"}, {"days": "Sat-Sun", "time": "Closed"}], "id": "7507000020", "name": "USPS COLLECTION BOX - BLUE BOX", "address": {"city": "MCKINNEY", "state": "TX", "street": "4510 MEDICAL CENTER DR", "postcode": "75070"}}},
{"geometry": {"type": "Point", "coordinates": [-96.638247922, 33.2021686852]}, "type": "Feature", "properties": {"collection_times": [{"days": "Mon-Fri", "time": "5:00pm"}, {"days": "Sat", "time": "1:00pm"}, {"days": "Sun", "time": "Closed"}], "id": "7507000021", "name": "USPS COLLECTION BOX - APC", "address": {"city": "MCKINNEY", "state": "TX", "street": "550 N CENTRAL EXPY", "postcode": "75070"}}},
{"geometry": {"type": "Point", "coordinates": [-96.6843383692, 33.1747346838]}, "type": "Feature", "properties": {"collection_times": [{"days": "Mon-Fri", "time": "1:00pm"}, {"days": "Sat-Sun", "time": "Closed"}], "id": "7507000023", "name": "USPS COLLECTION BOX - BLUE BOX", "address": {"city": "MCKINNEY", "state": "TX", "street": "2901 LAKE FOREST DR", "postcode": "75070"}}},
{"geometry": {"type": "Point", "coordinates": [-96.7123155973, 33.2003792228]}, "type": "Feature", "properties": {"collection_times": [{"days": "Mon-Fri", "time": "5:00pm"}, {"days": "Sat-Sun", "time": "Closed"}], "id": "7507100003", "name": "USPS COLLECTION BOX - PO LOBBY", "address": {"city": "MCKINNEY", "state": "TX", "street": "7210 VIRGINIA PKWY", "postcode": "75071"}}},
{"geometry": {"type": "Point", "coordinates": [-96.7123155973, 33.2003792228]}, "type": "Feature", "properties": {"collection_times": [{"days": "Mon-Fri", "time": "5:00pm"}, {"days": "Sat", "time": "1:00pm"}, {"days": "Sun", "time": "Closed"}], "id": "7507100004", "name": "USPS COLLECTION BOX - BLUE BOX", "address": {"city": "MCKINNEY", "state": "TX", "street": "7210 VIRGINIA PKWY STE 100", "postcode": "75071"}}},
{"geometry": {"type": "Point", "coordinates": [-96.7123155973, 33.2003792228]}, "type": "Feature", "properties": {"collection_times": [{"days": "Mon-Fri", "time": "5:00pm"}, {"days": "Sat", "time": "1:00pm"}, {"days": "Sun", "time": "Closed"}], "id": "7507100005", "name": "USPS COLLECTION BOX - BLUE BOX", "address": {"city": "MCKINNEY", "state": "TX", "street": "7210 VIRGINIA PKWY STE 100", "postcode": "75071"}}},
{"geometry": {"type": "Point", "coordinates": [-96.6979601417, 33.0238246087]}, "type": "Feature", "properties": {"collection_times": [{"days": "Mon-Fri", "time": "4:00pm"}, {"days": "Sat-Sun", "time": "Closed"}], "id": "7507400523", "name": "USPS COLLECTION BOX - PO LOBBY", "address": {"city": "PLANO", "state": "TX", "street": "1112 18TH ST", "postcode": "75074"}}},
{"geometry": {"type": "Point", "coordinates": [-96.6979601417, 33.0238246087]}, "type": "Feature", "properties": {"collection_times": [{"days": "Mon-Fri", "time": "4:00pm"}, {"days": "Sat", "time": "1:00pm"}, {"days": "Sun", "time": "Closed"}], "id": "7507400524", "name": "USPS COLLECTION BOX - BLUE BOX", "address": {"city": "PLANO", "state": "TX", "street": "1112 18TH ST", "postcode": "75074"}}},
{"geometry": {"type": "Point", "coordinates": [-96.6823947676, 33.0157568285]}, "type": "Feature", "properties": {"collection_times": [{"days": "Mon-Fri", "time": "5:00pm"}, {"days": "Sat", "time": "1:00pm"}, {"days": "Sun", "time": "Closed"}], "id": "7507400525", "name": "USPS COLLECTION BOX - PO LOBBY", "address": {"city": "PLANO", "state": "TX", "street": "1200 JUPITER RD", "postcode": "75074"}}},
{"geometry": {"type": "Point", "coordinates": [-96.706957446, 33.026220248]}, "type": "Feature", "properties": {"collection_times": [{"days": "Mon-Fri", "time": "1:00pm"}, {"days": "Sat-Sun", "time": "Closed"}], "id": "7507400530", "name": "USPS COLLECTION BOX - BLUE BOX", "address": {"city": "PLANO", "state": "TX", "street": "542 HAGGARD ST", "postcode": "75074"}}},
{"geometry": {"type": "Point", "coordinates": [-96.7053843921, 33.0305946828]}, "type": "Feature", "properties": {"collection_times": [{"days": "Mon-Fri", "time": "1:00pm"}, {"days": "Sat-Sun", "time": "Closed"}], "id": "7507400531", "name": "USPS COLLECTION BOX - BLUE BOX", "address": {"city": "PLANO", "state": "TX", "street": "555 REPUBLIC DR", "postcode": "75074"}}},
{"geometry": {"type": "Point", "coordinates": [-96.6979601417, 33.0238246087]}, "type": "Feature", "properties": {"collection_times": [{"days": "Mon-Fri", "time": "4:00pm"}, {"days": "Sat", "time": "1:00pm"}, {"days": "Sun", "time": "Closed"}], "id": "7507405102", "name": "USPS COLLECTION BOX - BLUE BOX", "address": {"city": "PLANO", "state": "TX", "street": "1112 18TH ST", "postcode": "75074"}}},
{"geometry": {"type": "Point", "coordinates": [-96.6823947676, 33.0157568285]}, "type": "Feature", "properties": {"collection_times": [{"days": "Mon-Fri", "time": "5:00pm"}, {"days": "Sat", "time": "1:00pm"}, {"days": "Sun", "time": "Closed"}], "id": "7507406235", "name": "USPS COLLECTION BOX - BLUE BOX", "address": {"city": "PLANO", "state": "TX", "street": "1200 JUPITER RD", "postcode": "75074"}}},
{"geometry": {"type": "Point", "coordinates": [-96.6823947676, 33.0157568285]}, "type": "Feature", "properties": {"collection_times": [{"days": "Mon-Fri", "time": "5:00pm"}, {"days": "Sat", "time": "1:00pm"}, {"days": "Sun", "time": "Closed"}], "id": "7507406236", "name": "USPS COLLECTION BOX - BLUE BOX", "address": {"city": "PLANO", "state": "TX", "street": "1200 JUPITER RD", "postcode": "75074"}}},
{"geometry": {"type": "Point", "coordinates": [-96.7056659364, 33.0290639339]}, "type": "Feature", "properties": {"collection_times": [{"days": "Mon-Fri", "time": "1:00pm"}, {"days": "Sat-Sun", "time": "Closed"}], "id": "7507406238", "name": "USPS COLLECTION BOX - BLUE BOX", "address": {"city": "PLANO", "state": "TX", "street": "101 E PARK BLVD", "postcode": "75074"}}},
{"geometry": {"type": "Point", "coordinates": [-96.7056659364, 33.0290639339]}, "type": "Feature", "properties": {"collection_times": [{"days": "Mon-Fri", "time": "1:00pm"}, {"days": "Sat-Sun", "time": "Closed"}], "id": "7507406239", "name": "USPS COLLECTION BOX - BLUE BOX", "address": {"city": "PLANO", "state": "TX", "street": "101 E PARK BLVD", "postcode": "75074"}}},
{"geometry": {"type": "Point", "coordinates": [-96.6979601417, 33.0238246087]}, "type": "Feature", "properties": {"collection_times": [{"days": "Mon-Fri", "time": "4:00pm"}, {"days": "Sat", "time": "1:00pm"}, {"days": "Sun", "time": "Closed"}], "id": "7507406550", "name": "USPS COLLECTION BOX - BLUE BOX", "address": {"city": "PLANO", "state": "TX", "street": "1112 18TH ST", "postcode": "75074"}}},
{"geometry": {"type": "Point", "coordinates": [-96.6823947676, 33.0157568285]}, "type": "Feature", "properties": {"collection_times": [{"days": "Mon-Fri", "time": "5:00pm"}, {"days": "Sat", "time": "1:00pm"}, {"days": "Sun", "time": "Closed"}], "id": "7507406551", "name": "USPS COLLECTION BOX - PO LOBBY", "address": {"city": "PLANO", "state": "TX", "street": "1200 JUPITER RD", "postcode": "75074"}}},
{"geometry": {"type": "Point", "coordinates": [-96.703283457, 33.0307165276]}, "type": "Feature", "properties": {"collection_times": [{"days": "Mon-Fri", "time": "1:00pm"}, {"days": "Sat-Sun", "time": "Closed"}], "id": "7507407244", "name": "USPS COLLECTION BOX - BLUE BOX", "address": {"city": "PLANO", "state": "TX", "street": "900 E PARK BLVD", "postcode": "75074"}}},
{"geometry": {"type": "Point", "coordinates": [-96.6979601417, 33.0238246087]}, "type": "Feature", "properties": {"collection_times": [{"days": "Mon-Fri", "time": "4:00pm"}, {"days": "Sat", "time": "1:00pm"}, {"days": "Sun", "time": "Closed"}], "id": "7507407245", "name": "USPS COLLECTION BOX - BLUE BOX", "address": {"city": "PLANO", "state": "TX", "street": "1112 18TH ST", "postcode": "75074"}}},
{"geometry": {"type": "Point", "coordinates": [-96.697637139, 33.023724119]}, "type": "Feature", "properties": {"collection_times": [{"days": "Mon-Fri", "time": "4:00pm"}, {"days": "Sat-Sun", "time": "Closed"}], "id": "7507407247", "name": "USPS COLLECTION BOX - PO LOBBY", "address": {"city": "PLANO", "state": "TX", "street": "1112 18TH ST", "postcode": "75074"}}},
{"geometry": {"type": "Point", "coordinates": [-96.7072982875, 33.008197647]}, "type": "Feature", "properties": {"collection_times": [{"days": "Mon-Fri", "time": "1:00pm"}, {"days": "Sat-Sun", "time": "Closed"}], "id": "7507407249", "name": "USPS COLLECTION BOX - BLUE BOX", "address": {"city": "PLANO", "state": "TX", "street": "660 N CENTRAL EXPWY", "postcode": "75074"}}},
{"geometry": {"type": "Point", "coordinates": [-96.6823947676, 33.0157568285]}, "type": "Feature", "properties": {"collection_times": [{"days": "Mon-Fri", "time": "5:00pm"}, {"days": "Sat", "time": "1:00pm"}, {"days": "Sun", "time": "Closed"}], "id": "7507407250", "name": "USPS COLLECTION BOX - APC", "address": {"city": "PLANO", "state": "TX", "street": "1200 JUPITER RD", "postcode": "75074"}}},
{"geometry": {"type": "Point", "coordinates": [-96.7470789638, 33.0205537271]}, "type": "Feature", "properties": {"collection_times": [{"days": "Mon-Fri", "time": "1:00pm"}, {"days": "Sat-Sun", "time": "Closed"}], "id": "7507500538", "name": "USPS COLLECTION BOX - BLUE BOX", "address": {"city": "PLANO", "state": "TX", "street": "1631 DORCHESTER DR", "postcode": "75075"}}},
{"geometry": {"type": "Point", "coordinates": [-96.7700271848, 33.0427708795]}, "type": "Feature", "properties": {"collection_times": [{"days": "Mon-Fri", "time": "5:00pm"}, {"days": "Sat", "time": "1:00pm"}, {"days": "Sun", "time": "Closed"}], "id": "7507500539", "name": "USPS COLLECTION BOX - BLUE BOX", "address": {"city": "PLANO", "state": "TX", "street": "3400 COIT RD", "postcode": "75075"}}},
{"geometry": {"type": "Point", "coordinates": [-96.722627202, 33.0073282459]}, "type": "Feature", "properties": {"collection_times": [{"days": "Mon-Fri", "time": "11:00am"}, {"days": "Sat-Sun", "time": "Closed"}], "id": "7507500548", "name": "USPS COLLECTION BOX - BLUE BOX", "address": {"city": "PLANO", "state": "TX", "street": "1721 W PLANO PKWY", "postcode": "75075"}}},
{"geometry": {"type": "Point", "coordinates": [-96.7400496379, 33.024252741]}, "type": "Feature", "properties": {"collection_times": [{"days": "Mon-Fri", "time": "1:00pm"}, {"days": "Sat-Sun", "time": "Closed"}], "id": "7507500551", "name": "USPS COLLECTION BOX - EXPRESS", "address": {"city": "PLANO", "state": "TX", "street": "2001 COIT RD", "postcode": "75075"}}},
{"geometry": {"type": "Point", "coordinates": [-96.7657448733, 33.0192335449]}, "type": "Feature", "properties": {"collection_times": [{"days": "Mon-Fri", "time": "1:00pm"}, {"days": "Sat-Sun", "time": "Closed"}], "id": "7507500556", "name": "USPS COLLECTION BOX - BLUE BOX", "address": {"city": "PLANO", "state": "TX", "street": "3900 W 15TH ST", "postcode": "75075"}}},
{"geometry": {"type": "Point", "coordinates": [-96.7700271848, 33.0427708795]}, "type": "Feature", "properties": {"collection_times": [{"days": "Mon-Fri", "time": "5:00pm"}, {"days": "Sat", "time": "1:00pm"}, {"days": "Sun", "time": "Closed"}], "id": "7507505105", "name": "USPS COLLECTION BOX - BLUE BOX", "address": {"city": "PLANO", "state": "TX", "street": "3400 COIT RD", "postcode": "75075"}}},
{"geometry": {"type": "Point", "coordinates": [-96.7700271848, 33.0427708795]}, "type": "Feature", "properties": {"collection_times": [{"days": "Mon-Fri", "time": "5:00pm"}, {"days": "Sat", "time": "1:00pm"}, {"days": "Sun", "time": "Closed"}], "id": "7507506227", "name": "USPS COLLECTION BOX - PO LOBBY", "address": {"city": "PLANO", "state": "TX", "street": "3400 COIT RD", "postcode": "75075"}}},
{"geometry": {"type": "Point", "coordinates": [-96.7455860696, 33.0080841567]}, "type": "Feature", "properties": {"collection_times": [{"days": "Mon-Fri", "time": "1:00pm"}, {"days": "Sat-Sun", "time": "Closed"}], "id": "7507506560", "name": "USPS COLLECTION BOX - BLUE BOX", "address": {"city": "PLANO", "state": "TX", "street": "2700 W PLANO PKWY", "postcode": "75075"}}},
{"geometry": {"type": "Point", "coordinates": [-96.7701395659, 33.029668426]}, "type": "Feature", "properties": {"collection_times": [{"days": "Mon-Fri", "time": "1:00pm"}, {"days": "Sat-Sun", "time": "Closed"}], "id": "7507507333", "name": "USPS COLLECTION BOX - BLUE BOX", "address": {"city": "PLANO", "state": "TX", "street": "2001 COIT RD", "postcode": "75075"}}},
{"geometry": {"type": "Point", "coordinates": [-96.7676186803, 33.0204200528]}, "type": "Feature", "properties": {"collection_times": [{"days": "Mon-Fri", "time": "1:00pm"}, {"days": "Sat-Sun", "time": "Closed"}], "id": "7507507338", "name": "USPS COLLECTION BOX - BLUE BOX", "address": {"city": "PLANO", "state": "TX", "street": "1600 COIT RD", "postcode": "75075"}}},
{"geometry": {"type": "Point", "coordinates": [-96.7700271848, 33.0427708795]}, "type": "Feature", "properties": {"collection_times": [{"days": "Mon-Fri", "time": "5:00pm"}, {"days": "Sat", "time": "1:00pm"}, {"days": "Sun", "time": "Closed"}], "id": "7507507340", "name": "USPS COLLECTION BOX - PO LOBBY", "address": {"city": "PLANO", "state": "TX", "street": "3400 COIT RD", "postcode": "75075"}}},
{"geometry": {"type": "Point", "coordinates": [-96.7676186803, 33.0204200528]}, "type": "Feature", "properties": {"collection_times": [{"days": "Mon-Fri", "time": "1:00pm"}, {"days": "Sat-Sun", "time": "Closed"}], "id": "7507507344", "name": "USPS COLLECTION BOX - BLUE BOX", "address": {"city": "PLANO", "state": "TX", "street": "1600 COIT RD", "postcode": "75075"}}},
{"geometry": {"type": "Point", "coordinates": [-96.7400496379, 33.024252741]}, "type": "Feature", "properties": {"collection_times": [{"days": "Mon-Fri", "time": "1:00pm"}, {"days": "Sat-Sun", "time": "Closed"}], "id": "7507507346", "name": "USPS COLLECTION BOX - BLUE BOX", "address": {"city": "PLANO", "state": "TX", "street": "3131 CUSTER RD STE 175", "postcode": "75075"}}},
{"geometry": {"type": "Point", "coordinates": [-96.73352, 33.040504]}, "type": "Feature", "properties": {"collection_times": [{"days": "Mon-Fri", "time": "1:00pm"}, {"days": "Sat-Sun", "time": "Closed"}], "id": "7507507347", "name": "USPS COLLECTION BOX - BLUE BOX", "address": {"city": "PLANO", "state": "TX", "street": "3131 CUSTER RD STE 175", "postcode": "75075"}}},
{"geometry": {"type": "Point", "coordinates": [-96.7700271848, 33.0427708795]}, "type": "Feature", "properties": {"collection_times": [{"days": "Mon-Fri", "time": "5:00pm"}, {"days": "Sat", "time": "1:00pm"}, {"days": "Sun", "time": "Closed"}], "id": "7507507348", "name": "USPS COLLECTION BOX - APC", "address": {"city": "PLANO", "state": "TX", "street": "3400 COIT RD", "postcode": "75075"}}},
{"geometry": {"type": "Point", "coordinates": [-96.7171903226, 33.0194393798]}, "type": "Feature", "properties": {"collection_times": [{"days": "Mon-Fri", "time": "1:00pm"}, {"days": "Sat-Sun", "time": "Closed"}], "id": "7507507352", "name": "USPS COLLECTION BOX - BLUE BOX", "address": {"city": "PLANO", "state": "TX", "street": "1105 W 15TH ST", "postcode": "75075"}}},
{"geometry": {"type": "Point", "coordinates": [-96.7171903226, 33.0194393798]}, "type": "Feature", "properties": {"collection_times": [{"days": "Mon-Fri", "time": "1:00pm"}, {"days": "Sat-Sun", "time": "Closed"}], "id": "7507507353", "name": "USPS COLLECTION BOX - BLUE BOX", "address": {"city": "PLANO", "state": "TX", "street": "1105 W 15TH ST", "postcode": "75075"}}},
{"geometry": {"type": "Point", "coordinates": [-96.6561089482, 33.7626560834]}, "type": "Feature", "properties": {"collection_times": [{"days": "Mon-Fri", "time": "11:30am"}, {"days": "Sat", "time": "10:30am"}, {"days": "Sun", "time": "Closed"}], "id": "7507600567", "name": "USPS COLLECTION BOX - BLUE BOX", "address": {"city": "POTTSBORO", "state": "TX", "street": "607 W FM 120", "postcode": "75076"}}},
{"geometry": {"type": "Point", "coordinates": [-96.6624300498, 33.7629198671]}, "type": "Feature", "properties": {"collection_times": [{"days": "Mon-Fri", "time": "4:00pm"}, {"days": "Sat", "time": "10:30am"}, {"days": "Sun", "time": "Closed"}], "id": "7507600569", "name": "USPS COLLECTION BOX - BLUE BOX", "address": {"city": "POTTSBORO", "state": "TX", "street": "509 W FM 120", "postcode": "75076"}}},
{"geometry": {"type": "Point", "coordinates": [-96.6624300498, 33.7629198671]}, "type": "Feature", "properties": {"collection_times": [{"days": "Mon-Fri", "time": "3:30pm"}, {"days": "Sat", "time": "10:30am"}, {"days": "Sun", "time": "Closed"}], "id": "7507600570", "name": "USPS COLLECTION BOX - PO LOBBY", "address": {"city": "POTTSBORO", "state": "TX", "street": "509 W FM 120", "postcode": "75076"}}},
{"geometry": {"type": "Point", "coordinates": [-97.057717967, 33.0726083957]}, "type": "Feature", "properties": {"collection_times": [{"days": "Mon-Fri", "time": "3:00pm"}, {"days": "Sat", "time": "1:00pm"}, {"days": "Sun", "time": "Closed"}], "id": "7507700001", "name": "USPS COLLECTION BOX - BLUE BOX", "address": {"city": "LEWISVILLE", "state": "TX", "street": "2300 HIGHLAND VILLAGE RD", "postcode": "75077"}}},
{"geometry": {"type": "Point", "coordinates": [-97.0269296272, 33.0712939564]}, "type": "Feature", "properties": {"collection_times": [{"days": "Mon-Fri", "time": "3:00pm"}, {"days": "Sat", "time": "1:00pm"}, {"days": "Sun", "time": "Closed"}], "id": "7507700003", "name": "USPS COLLECTION BOX - BLUE BOX", "address": {"city": "LEWISVILLE", "state": "TX", "street": "1278 JUSTIN RD", "postcode": "75077"}}},
{"geometry": {"type": "Point", "coordinates": [-97.057717967, 33.0726083957]}, "type": "Feature", "properties": {"collection_times": [{"days": "Mon-Sat", "time": "12:00pm"}, {"days": "Sun", "time": "Closed"}], "id": "7507700004", "name": "USPS COLLECTION BOX - BLUE BOX", "address": {"city": "LEWISVILLE", "state": "TX", "street": "2300 HIGHLAND VILLAGE RD", "postcode": "75077"}}},
{"geometry": {"type": "Point", "coordinates": [-97.0576260899, 33.0748720551]}, "type": "Feature", "properties": {"collection_times": [{"days": "Mon-Fri", "time": "3:00pm"}, {"days": "Sat", "time": "1:00pm"}, {"days": "Sun", "time": "Closed"}], "id": "7507700006", "name": "USPS COLLECTION BOX - EXPRESS", "address": {"city": "LEWISVILLE", "state": "TX", "street": "2300 HIGHLAND VILLAGE RD", "postcode": "75077"}}},
{"geometry": {"type": "Point", "coordinates": [-96.8013495723, 33.2360994972]}, "type": "Feature", "properties": {"collection_times": [{"days": "Mon-Fri", "time": "4:45pm"}, {"days": "Sat", "time": "9:00am"}, {"days": "Sun", "time": "Closed"}], "id": "7507807291", "name": "USPS COLLECTION BOX - BLUE BOX", "address": {"city": "PROSPER", "state": "TX", "street": "102 E BROADWAY ST", "postcode": "75078"}}},
{"geometry": {"type": "Point", "coordinates": [-96.8013495723, 33.2360994972]}, "type": "Feature", "properties": {"collection_times": [{"days": "Mon-Fri", "time": "4:45pm"}, {"days": "Sat", "time": "9:00am"}, {"days": "Sun", "time": "Closed"}], "id": "7507807293", "name": "USPS COLLECTION BOX - PO LOBBY", "address": {"city": "PROSPER", "state": "TX", "street": "102 E BROADWAY ST", "postcode": "75078"}}},
{"geometry": {"type": "Point", "coordinates": [-96.8013495723, 33.2360994972]}, "type": "Feature", "properties": {"collection_times": [{"days": "Mon-Fri", "time": "4:45pm"}, {"days": "Sat", "time": "9:00am"}, {"days": "Sun", "time": "Closed"}], "id": "7507807294", "name": "USPS COLLECTION BOX - PO LOBBY", "address": {"city": "PROSPER", "state": "TX", "street": "102 E BROADWAY ST", "postcode": "75078"}}},
{"geometry": {"type": "Point", "coordinates": [-96.7482854711, 32.9630695647]}, "type": "Feature", "properties": {"collection_times": [{"days": "Mon-Fri", "time": "1:00pm"}, {"days": "Sat-Sun", "time": "Closed"}], "id": "7508000580", "name": "USPS COLLECTION BOX - BLUE BOX", "address": {"city": "RICHARDSON", "state": "TX", "street": "800 W ARAPAHO RD", "postcode": "75080"}}},
{"geometry": {"type": "Point", "coordinates": [-96.7663694757, 32.9781552949]}, "type": "Feature", "properties": {"collection_times": [{"days": "Mon-Fri", "time": "1:00pm"}, {"days": "Sat-Sun", "time": "Closed"}], "id": "7508000584", "name": "USPS COLLECTION BOX - BLUE BOX", "address": {"city": "RICHARDSON", "state": "TX", "street": "1341 W CAMPBELL RD", "postcode": "75080"}}},
{"geometry": {"type": "Point", "coordinates": [-96.729256504, 32.9992143304]}, "type": "Feature", "properties": {"collection_times": [{"days": "Mon-Fri", "time": "1:00pm"}, {"days": "Sat-Sun", "time": "Closed"}], "id": "7508000585", "name": "USPS COLLECTION BOX - BLUE BOX", "address": {"city": "RICHARDSON", "state": "TX", "street": "3411 CUSTER PKWY", "postcode": "75080"}}},
{"geometry": {"type": "Point", "coordinates": [-96.7687401168, 32.9563532571]}, "type": "Feature", "properties": {"collection_times": [{"days": "Mon-Fri", "time": "5:00pm"}, {"days": "Sat", "time": "1:00pm"}, {"days": "Sun", "time": "Closed"}], "id": "7508000606", "name": "USPS COLLECTION BOX - BLUE BOX", "address": {"city": "RICHARDSON", "state": "TX", "street": "400 N COIT RD STE 1975", "postcode": "75080"}}},
{"geometry": {"type": "Point", "coordinates": [-96.7431853889, 32.9889826761]}, "type": "Feature", "properties": {"collection_times": [{"days": "Mon-Fri", "time": "1:00pm"}, {"days": "Sat-Sun", "time": "Closed"}], "id": "7508000616", "name": "USPS COLLECTION BOX - BLUE BOX", "address": {"city": "RICHARDSON", "state": "TX", "street": "2600 N FLOYD RD", "postcode": "75080"}}},
{"geometry": {"type": "Point", "coordinates": [-96.7274737849, 32.9661896649]}, "type": "Feature", "properties": {"collection_times": [{"days": "Mon-Fri", "time": "1:00pm"}, {"days": "Sat-Sun", "time": "Closed"}], "id": "7508000629", "name": "USPS COLLECTION BOX - BLUE BOX", "address": {"city": "RICHARDSON", "state": "TX", "street": "1202 RICHARDSON DR", "postcode": "75080"}}},
{"geometry": {"type": "Point", "coordinates": [-96.7357923523, 32.9650658539]}, "type": "Feature", "properties": {"collection_times": [{"days": "Mon-Sat", "time": "1:00pm"}, {"days": "Sun", "time": "Closed"}], "id": "7508000652", "name": "USPS COLLECTION BOX - BLUE BOX", "address": {"city": "RICHARDSON", "state": "TX", "street": "500 ROCKINGHAM DR", "postcode": "75080"}}},
{"geometry": {"type": "Point", "coordinates": [-96.7416468162, 32.9427552478]}, "type": "Feature", "properties": {"collection_times": [{"days": "Mon-Fri", "time": "1:00pm"}, {"days": "Sat-Sun", "time": "Closed"}], "id": "7508005113", "name": "USPS COLLECTION BOX - BLUE BOX", "address": {"city": "RICHARDSON", "state": "TX", "street": "777 S CENTRAL EXPY", "postcode": "75080"}}},
{"geometry": {"type": "Point", "coordinates": [-96.7220617476, 32.9771060103]}, "type": "Feature", "properties": {"collection_times": [{"days": "Mon-Fri", "time": "1:00pm"}, {"days": "Sat-Sun", "time": "Closed"}], "id": "7508005115", "name": "USPS COLLECTION BOX - BLUE BOX", "address": {"city": "RICHARDSON", "state": "TX", "street": "2071 N COLLINS BLVD", "postcode": "75080"}}},
{"geometry": {"type": "Point", "coordinates": [-96.7437081325, 32.9663120927]}, "type": "Feature", "properties": {"collection_times": [{"days": "Mon-Fri", "time": "1:00pm"}, {"days": "Sat-Sun", "time": "Closed"}], "id": "7508005125", "name": "USPS COLLECTION BOX - BLUE BOX", "address": {"city": "RICHARDSON", "state": "TX", "street": "1702 N COLLINS BLVD", "postcode": "75080"}}},
{"geometry": {"type": "Point", "coordinates": [-96.7687401168, 32.9563532571]}, "type": "Feature", "properties": {"collection_times": [{"days": "Mon-Fri", "time": "5:00pm"}, {"days": "Sat", "time": "1:00pm"}, {"days": "Sun", "time": "Closed"}], "id": "7508005134", "name": "USPS COLLECTION BOX - BLUE BOX", "address": {"city": "RICHARDSON", "state": "TX", "street": "400 N COIT RD STE 1975", "postcode": "75080"}}},
{"geometry": {"type": "Point", "coordinates": [-96.7274737849, 32.9661896649]}, "type": "Feature", "properties": {"collection_times": [{"days": "Mon-Fri", "time": "1:00pm"}, {"days": "Sat-Sun", "time": "Closed"}], "id": "7508005139", "name": "USPS COLLECTION BOX - BLUE BOX", "address": {"city": "RICHARDSON", "state": "TX", "street": "1202 RICHARDSON DR", "postcode": "75080"}}},
{"geometry": {"type": "Point", "coordinates": [-96.7687401168, 32.9563532571]}, "type": "Feature", "properties": {"collection_times": [{"days": "Mon-Fri", "time": "5:00pm"}, {"days": "Sat-Sun", "time": "Closed"}], "id": "7508006077", "name": "USPS COLLECTION BOX - PO LOBBY", "address": {"city": "RICHARDSON", "state": "TX", "street": "400 N COIT RD STE 1975", "postcode": "75080"}}},
{"geometry": {"type": "Point", "coordinates": [-96.7687401168, 32.9563532571]}, "type": "Feature", "properties": {"collection_times": [{"days": "Mon-Fri", "time": "5:00pm"}, {"days": "Sat-Sun", "time": "Closed"}], "id": "7508006078", "name": "USPS COLLECTION BOX - PO LOBBY", "address": {"city": "RICHARDSON", "state": "TX", "street": "400 N COIT RD STE 1975", "postcode": "75080"}}},
{"geometry": {"type": "Point", "coordinates": [-96.7687401168, 32.9563532571]}, "type": "Feature", "properties": {"collection_times": [{"days": "Mon-Fri", "time": "5:00pm"}, {"days": "Sat", "time": "1:00pm"}, {"days": "Sun", "time": "Closed"}], "id": "7508006517", "name": "USPS COLLECTION BOX - BLUE BOX", "address": {"city": "RICHARDSON", "state": "TX", "street": "400 N COIT RD STE 1975", "postcode": "75080"}}},
{"geometry": {"type": "Point", "coordinates": [-96.733062083, 32.9585548478]}, "type": "Feature", "properties": {"collection_times": [{"days": "Mon-Fri", "time": "5:00pm"}, {"days": "Sat", "time": "1:00pm"}, {"days": "Sun", "time": "Closed"}], "id": "7508006518", "name": "USPS COLLECTION BOX - PO LOBBY", "address": {"city": "RICHARDSON", "state": "TX", "street": "433 BELLE GROVE DR", "postcode": "75080"}}},
{"geometry": {"type": "Point", "coordinates": [-96.733062083, 32.9585548478]}, "type": "Feature", "properties": {"collection_times": [{"days": "Mon-Fri", "time": "5:00pm"}, {"days": "Sat", "time": "1:00pm"}, {"days": "Sun", "time": "Closed"}], "id": "7508006519", "name": "USPS COLLECTION BOX - PO LOBBY", "address": {"city": "RICHARDSON", "state": "TX", "street": "433 BELLE GROVE DR", "postcode": "75080"}}},
{"geometry": {"type": "Point", "coordinates": [-96.733062083, 32.9585548478]}, "type": "Feature", "properties": {"collection_times": [{"days": "Mon-Fri", "time": "5:00pm"}, {"days": "Sat", "time": "1:00pm"}, {"days": "Sun", "time": "Closed"}], "id": "7508006520", "name": "USPS COLLECTION BOX - PO LOBBY", "address": {"city": "RICHARDSON", "state": "TX", "street": "433 BELLE GROVE DR", "postcode": "75080"}}},
{"geometry": {"type": "Point", "coordinates": [-96.72456452, 32.9753081869]}, "type": "Feature", "properties": {"collection_times": [{"days": "Mon-Fri", "time": "1:00pm"}, {"days": "Sat-Sun", "time": "Closed"}], "id": "7508006528", "name": "USPS COLLECTION BOX - BLUE BOX", "address": {"city": "RICHARDSON", "state": "TX", "street": "401 W CAMPBELL RD", "postcode": "75080"}}},
{"geometry": {"type": "Point", "coordinates": [-96.7330709558, 32.958502865]}, "type": "Feature", "properties": {"collection_times": [{"days": "Mon-Fri", "time": "5:00pm"}, {"days": "Sat", "time": "1:00pm"}, {"days": "Sun", "time": "Closed"}], "id": "7508006531", "name": "USPS COLLECTION BOX - BLUE BOX", "address": {"city": "RICHARDSON", "state": "TX", "street": "433 BELLE GROVE DR", "postcode": "75080"}}},
{"geometry": {"type": "Point", "coordinates": [-96.733070956, 32.958502865]}, "type": "Feature", "properties": {"collection_times": [{"days": "Mon-Fri", "time": "5:00pm"}, {"days": "Sat", "time": "1:00pm"}, {"days": "Sun", "time": "Closed"}], "id": "7508006532", "name": "USPS COLLECTION BOX - BLUE BOX", "address": {"city": "RICHARDSON", "state": "TX", "street": "433 BELLE GROVE DR", "postcode": "75080"}}},
{"geometry": {"type": "Point", "coordinates": [-96.7274737849, 32.9661896649]}, "type": "Feature", "properties": {"collection_times": [{"days": "Mon-Fri", "time": "1:00pm"}, {"days": "Sat-Sun", "time": "Closed"}], "id": "7508006535", "name": "USPS COLLECTION BOX - BLUE BOX", "address": {"city": "RICHARDSON", "state": "TX", "street": "1202 RICHARDSON DR", "postcode": "75080"}}},
{"geometry": {"type": "Point", "coordinates": [-96.7482854711, 32.9630695647]}, "type": "Feature", "properties": {"collection_times": [{"days": "Mon-Fri", "time": "1:00pm"}, {"days": "Sat-Sun", "time": "Closed"}], "id": "7508006536", "name": "USPS COLLECTION BOX - BLUE BOX", "address": {"city": "RICHARDSON", "state": "TX", "street": "800 W ARAPAHO RD", "postcode": "75080"}}},
{"geometry": {"type": "Point", "coordinates": [-96.7215000961, 32.9740880779]}, "type": "Feature", "properties": {"collection_times": [{"days": "Mon-Fri", "time": "1:00pm"}, {"days": "Sat-Sun", "time": "Closed"}], "id": "7508006538", "name": "USPS COLLECTION BOX - BLUE BOX", "address": {"city": "RICHARDSON", "state": "TX", "street": "1900 GATEWAY BLVD", "postcode": "75080"}}},
{"geometry": {"type": "Point", "coordinates": [-96.733062083, 32.9585548478]}, "type": "Feature", "properties": {"collection_times": [{"days": "Mon-Fri", "time": "5:00pm"}, {"days": "Sat", "time": "1:00pm"}, {"days": "Sun", "time": "Closed"}], "id": "7508006539", "name": "USPS COLLECTION BOX - APC", "address": {"city": "RICHARDSON", "state": "TX", "street": "433 BELLE GROVE DR", "postcode": "75080"}}},
{"geometry": {"type": "Point", "coordinates": [-96.7687401168, 32.9563532571]}, "type": "Feature", "properties": {"collection_times": [{"days": "Mon-Fri", "time": "5:00pm"}, {"days": "Sat-Sun", "time": "Closed"}], "id": "7508006540", "name": "USPS COLLECTION BOX - APC", "address": {"city": "RICHARDSON", "state": "TX", "street": "400 N COIT RD STE 1975", "postcode": "75080"}}},
{"geometry": {"type": "Point", "coordinates": [-96.7114258759, 32.9607689779]}, "type": "Feature", "properties": {"collection_times": [{"days": "Mon-Fri", "time": "1:00pm"}, {"days": "Sat-Sun", "time": "Closed"}], "id": "7508100577", "name": "USPS COLLECTION BOX - BLUE BOX", "address": {"city": "RICHARDSON", "state": "TX", "street": "1000 EXECUTIVE DR E", "postcode": "75081"}}},
{"geometry": {"type": "Point", "coordinates": [-96.7030566936, 32.9605254651]}, "type": "Feature", "properties": {"collection_times": [{"days": "Mon-Fri", "time": "1:00pm"}, {"days": "Sat-Sun", "time": "Closed"}], "id": "7508100578", "name": "USPS COLLECTION BOX - BLUE BOX", "address": {"city": "RICHARDSON", "state": "TX", "street": "1300 E ARAPAHO RD", "postcode": "75081"}}},
{"geometry": {"type": "Point", "coordinates": [-96.7061843749, 32.9734638213]}, "type": "Feature", "properties": {"collection_times": [{"days": "Mon-Fri", "time": "1:00pm"}, {"days": "Sat-Sun", "time": "Closed"}], "id": "7508100594", "name": "USPS COLLECTION BOX - BLUE BOX", "address": {"city": "RICHARDSON", "state": "TX", "street": "1900 N GLENVILLE DR", "postcode": "75081"}}},
{"geometry": {"type": "Point", "coordinates": [-96.7049266631, 32.953424502]}, "type": "Feature", "properties": {"collection_times": [{"days": "Mon-Fri", "time": "5:00pm"}, {"days": "Sat", "time": "1:00pm"}, {"days": "Sun", "time": "Closed"}], "id": "7508100610", "name": "USPS COLLECTION BOX - BLUE BOX", "address": {"city": "RICHARDSON", "state": "TX", "street": "1206 APOLLO RD", "postcode": "75081"}}},
{"geometry": {"type": "Point", "coordinates": [-96.7279435443, 32.9548315397]}, "type": "Feature", "properties": {"collection_times": [{"days": "Mon-Fri", "time": "1:00pm"}, {"days": "Sat-Sun", "time": "Closed"}], "id": "7508100615", "name": "USPS COLLECTION BOX - BLUE BOX", "address": {"city": "RICHARDSON", "state": "TX", "street": "400 N GREENVILLE AVE", "postcode": "75081"}}},
{"geometry": {"type": "Point", "coordinates": [-96.7403668546, 32.9389934383]}, "type": "Feature", "properties": {"collection_times": [{"days": "Mon-Fri", "time": "1:00pm"}, {"days": "Sat-Sun", "time": "Closed"}], "id": "7508100620", "name": "USPS COLLECTION BOX - BLUE BOX", "address": {"city": "RICHARDSON", "state": "TX", "street": "1001 S SHERMAN ST", "postcode": "75081"}}},
{"geometry": {"type": "Point", "coordinates": [-96.7082577995, 32.9325013595]}, "type": "Feature", "properties": {"collection_times": [{"days": "Mon-Fri", "time": "1:00pm"}, {"days": "Sat-Sun", "time": "Closed"}], "id": "7508100623", "name": "USPS COLLECTION BOX - BLUE BOX", "address": {"city": "RICHARDSON", "state": "TX", "street": "538 CENTENNIAL BLVD", "postcode": "75081"}}},
{"geometry": {"type": "Point", "coordinates": [-96.7354611238, 32.9271851419]}, "type": "Feature", "properties": {"collection_times": [{"days": "Mon-Fri", "time": "1:00pm"}, {"days": "Sat-Sun", "time": "Closed"}], "id": "7508100632", "name": "USPS COLLECTION BOX - BLUE BOX", "address": {"city": "RICHARDSON", "state": "TX", "street": "1221 ABRAMS RD", "postcode": "75081"}}},
{"geometry": {"type": "Point", "coordinates": [-96.6997322142, 32.9721683395]}, "type": "Feature", "properties": {"collection_times": [{"days": "Mon-Fri", "time": "1:00pm"}, {"days": "Sat-Sun", "time": "Closed"}], "id": "7508100640", "name": "USPS COLLECTION BOX - BLUE BOX", "address": {"city": "RICHARDSON", "state": "TX", "street": "1778 N PLANO RD", "postcode": "75081"}}},
{"geometry": {"type": "Point", "coordinates": [-96.709336658, 32.9584401008]}, "type": "Feature", "properties": {"collection_times": [{"days": "Mon-Fri", "time": "1:00pm"}, {"days": "Sat-Sun", "time": "Closed"}], "id": "7508105117", "name": "USPS COLLECTION BOX - BLUE BOX", "address": {"city": "RICHARDSON", "state": "TX", "street": "700 INTERNATIONAL PKWY", "postcode": "75081"}}},
{"geometry": {"type": "Point", "coordinates": [-96.7369927427, 32.9381399131]}, "type": "Feature", "properties": {"collection_times": [{"days": "Mon-Fri", "time": "1:00pm"}, {"days": "Sat-Sun", "time": "Closed"}], "id": "7508105124", "name": "USPS COLLECTION BOX - BLUE BOX", "address": {"city": "RICHARDSON", "state": "TX", "street": "901 BUSINESS PKWY", "postcode": "75081"}}},
{"geometry": {"type": "Point", "coordinates": [-96.7049266631, 32.953424502]}, "type": "Feature", "properties": {"collection_times": [{"days": "Mon-Fri", "time": "5:00pm"}, {"days": "Sat", "time": "1:00pm"}, {"days": "Sun", "time": "Closed"}], "id": "7508105127", "name": "USPS COLLECTION BOX - BLUE BOX", "address": {"city": "RICHARDSON", "state": "TX", "street": "1206 APOLLO RD", "postcode": "75081"}}},
{"geometry": {"type": "Point", "coordinates": [-96.7378532159, 32.9432934338]}, "type": "Feature", "properties": {"collection_times": [{"days": "Mon-Fri", "time": "1:00pm"}, {"days": "Sat-Sun", "time": "Closed"}], "id": "7508105133", "name": "USPS COLLECTION BOX - BLUE BOX", "address": {"city": "RICHARDSON", "state": "TX", "street": "709 LINGCO DR", "postcode": "75081"}}},
{"geometry": {"type": "Point", "coordinates": [-96.6921813871, 32.9452725845]}, "type": "Feature", "properties": {"collection_times": [{"days": "Mon-Fri", "time": "1:00pm"}, {"days": "Sat-Sun", "time": "Closed"}], "id": "7508105137", "name": "USPS COLLECTION BOX - BLUE BOX", "address": {"city": "RICHARDSON", "state": "TX", "street": "1750 E BELT LINE RD", "postcode": "75081"}}},
{"geometry": {"type": "Point", "coordinates": [-96.7000000687, 32.9458512085]}, "type": "Feature", "properties": {"collection_times": [{"days": "Mon-Fri", "time": "1:00pm"}, {"days": "Sat-Sun", "time": "Closed"}], "id": "7508105261", "name": "USPS COLLECTION BOX - BLUE BOX", "address": {"city": "RICHARDSON", "state": "TX", "street": "111 N PLANO RD", "postcode": "75081"}}},
{"geometry": {"type": "Point", "coordinates": [-96.7148598934, 32.9719057227]}, "type": "Feature", "properties": {"collection_times": [{"days": "Mon-Fri", "time": "1:00pm"}, {"days": "Sat-Sun", "time": "Closed"}], "id": "7508105997", "name": "USPS COLLECTION BOX - BLUE BOX", "address": {"city": "RICHARDSON", "state": "TX", "street": "1701 N GREENVILLE AVE", "postcode": "75081"}}},
{"geometry": {"type": "Point", "coordinates": [-96.7049266631, 32.953424502]}, "type": "Feature", "properties": {"collection_times": [{"days": "Mon-Fri", "time": "5:00pm"}, {"days": "Sat-Sun", "time": "Closed"}], "id": "7508106074", "name": "USPS COLLECTION BOX - PO LOBBY", "address": {"city": "RICHARDSON", "state": "TX", "street": "1206 APOLLO RD", "postcode": "75081"}}},
{"geometry": {"type": "Point", "coordinates": [-96.7049266631, 32.953424502]}, "type": "Feature", "properties": {"collection_times": [{"days": "Mon-Fri", "time": "5:00pm"}, {"days": "Sat-Sun", "time": "Closed"}], "id": "7508106075", "name": "USPS COLLECTION BOX - PO LOBBY", "address": {"city": "RICHARDSON", "state": "TX", "street": "1206 APOLLO RD", "postcode": "75081"}}},
{"geometry": {"type": "Point", "coordinates": [-96.7354611238, 32.9271851419]}, "type": "Feature", "properties": {"collection_times": [{"days": "Mon-Fri", "time": "1:00pm"}, {"days": "Sat-Sun", "time": "Closed"}], "id": "7508107265", "name": "USPS COLLECTION BOX - BLUE BOX", "address": {"city": "RICHARDSON", "state": "TX", "street": "1221 ABRAMS RD", "postcode": "75081"}}},
{"geometry": {"type": "Point", "coordinates": [-96.7101245087, 32.9680823993]}, "type": "Feature", "properties": {"collection_times": [{"days": "Mon-Fri", "time": "1:00pm"}, {"days": "Sat-Sun", "time": "Closed"}], "id": "7508107321", "name": "USPS COLLECTION BOX - BLUE BOX", "address": {"city": "RICHARDSON", "state": "TX", "street": "959 E COLLINS BLVD", "postcode": "75081"}}},
{"geometry": {"type": "Point", "coordinates": [-96.7049266631, 32.953424502]}, "type": "Feature", "properties": {"collection_times": [{"days": "Mon-Fri", "time": "5:00pm"}, {"days": "Sat-Sun", "time": "Closed"}], "id": "7508107323", "name": "USPS COLLECTION BOX - PO LOBBY", "address": {"city": "RICHARDSON", "state": "TX", "street": "1206 APOLLO RD", "postcode": "75081"}}},
{"geometry": {"type": "Point", "coordinates": [-96.7049266631, 32.953424502]}, "type": "Feature", "properties": {"collection_times": [{"days": "Mon-Fri", "time": "5:00pm"}, {"days": "Sat-Sun", "time": "Closed"}], "id": "7508107324", "name": "USPS COLLECTION BOX - APC", "address": {"city": "RICHARDSON", "state": "TX", "street": "1206 APOLLO RD", "postcode": "75081"}}},
{"geometry": {"type": "Point", "coordinates": [-96.4607063583, 32.9177397578]}, "type": "Feature", "properties": {"collection_times": [{"days": "Mon-Sat", "time": "1:00pm"}, {"days": "Sun", "time": "Closed"}], "id": "7508700694", "name": "USPS COLLECTION BOX - BLUE BOX", "address": {"city": "ROCKWALL", "state": "TX", "street": "1109 RIDGE RD", "postcode": "75087"}}},
{"geometry": {"type": "Point", "coordinates": [-96.4602228063, 32.9311107271]}, "type": "Feature", "properties": {"collection_times": [{"days": "Mon-Sat", "time": "1:00pm"}, {"days": "Sun", "time": "Closed"}], "id": "7508700695", "name": "USPS COLLECTION BOX - BLUE BOX", "address": {"city": "ROCKWALL", "state": "TX", "street": "111 E RUSK ST", "postcode": "75087"}}},
{"geometry": {"type": "Point", "coordinates": [-96.4689121803, 32.8993203059]}, "type": "Feature", "properties": {"collection_times": [{"days": "Mon-Sat", "time": "1:00pm"}, {"days": "Sun", "time": "Closed"}], "id": "7508700699", "name": "USPS COLLECTION BOX - BLUE BOX", "address": {"city": "ROCKWALL", "state": "TX", "street": "2604 RIDGE RD", "postcode": "75087"}}},
{"geometry": {"type": "Point", "coordinates": [-96.4602863443, 32.92565173]}, "type": "Feature", "properties": {"collection_times": [{"days": "Mon-Fri", "time": "4:30pm"}, {"days": "Sat", "time": "1:00pm"}, {"days": "Sun", "time": "Closed"}], "id": "7508700701", "name": "USPS COLLECTION BOX - BLUE BOX", "address": {"city": "ROCKWALL", "state": "TX", "street": "609 S GOLIAD ST", "postcode": "75087"}}},
{"geometry": {"type": "Point", "coordinates": [-96.4602863443, 32.92565173]}, "type": "Feature", "properties": {"collection_times": [{"days": "Mon-Fri", "time": "4:30pm"}, {"days": "Sat", "time": "1:00pm"}, {"days": "Sun", "time": "Closed"}], "id": "7508700702", "name": "USPS COLLECTION BOX - BLUE BOX", "address": {"city": "ROCKWALL", "state": "TX", "street": "609 S GOLIAD ST", "postcode": "75087"}}},
{"geometry": {"type": "Point", "coordinates": [-96.4602863443, 32.92565173]}, "type": "Feature", "properties": {"collection_times": [{"days": "Mon-Fri", "time": "4:30pm"}, {"days": "Sat", "time": "1:00pm"}, {"days": "Sun", "time": "Closed"}], "id": "7508706265", "name": "USPS COLLECTION BOX - BLUE BOX", "address": {"city": "ROCKWALL", "state": "TX", "street": "609 S GOLIAD ST", "postcode": "75087"}}},
{"geometry": {"type": "Point", "coordinates": [-96.4683314987, 32.9069524628]}, "type": "Feature", "properties": {"collection_times": [{"days": "Mon-Sat", "time": "1:00pm"}, {"days": "Sun", "time": "Closed"}], "id": "7508707279", "name": "USPS COLLECTION BOX - BLUE BOX", "address": {"city": "ROCKWALL", "state": "TX", "street": "500 TURTLE COVE BLVD", "postcode": "75087"}}},
{"geometry": {"type": "Point", "coordinates": [-96.4606909905, 32.9178891476]}, "type": "Feature", "properties": {"collection_times": [{"days": "Mon-Sat", "time": "1:00pm"}, {"days": "Sun", "time": "Closed"}], "id": "7508707280", "name": "USPS COLLECTION BOX - BLUE BOX", "address": {"city": "ROCKWALL", "state": "TX", "street": "3021 RIDGE RD", "postcode": "75087"}}},
{"geometry": {"type": "Point", "coordinates": [-96.4602863443, 32.92565173]}, "type": "Feature", "properties": {"collection_times": [{"days": "Mon-Fri", "time": "4:30pm"}, {"days": "Sat", "time": "12:00pm"}, {"days": "Sun", "time": "Closed"}], "id": "7508707281", "name": "USPS COLLECTION BOX - PO LOBBY", "address": {"city": "ROCKWALL", "state": "TX", "street": "609 S GOLIAD ST", "postcode": "75087"}}},
{"geometry": {"type": "Point", "coordinates": [-96.4602863443, 32.92565173]}, "type": "Feature", "properties": {"collection_times": [{"days": "Mon-Fri", "time": "4:30pm"}, {"days": "Sat", "time": "12:00pm"}, {"days": "Sun", "time": "Closed"}], "id": "7508707282", "name": "USPS COLLECTION BOX - PO LOBBY", "address": {"city": "ROCKWALL", "state": "TX", "street": "609 S GOLIAD ST", "postcode": "75087"}}},
{"geometry": {"type": "Point", "coordinates": [-96.4602863443, 32.92565173]}, "type": "Feature", "properties": {"collection_times": [{"days": "Mon-Fri", "time": "4:30pm"}, {"days": "Sat", "time": "12:00pm"}, {"days": "Sun", "time": "Closed"}], "id": "7508707283", "name": "USPS COLLECTION BOX - PO LOBBY", "address": {"city": "ROCKWALL", "state": "TX", "street": "609 S GOLIAD ST", "postcode": "75087"}}},
{"geometry": {"type": "Point", "coordinates": [-96.4602863443, 32.92565173]}, "type": "Feature", "properties": {"collection_times": [{"days": "Mon-Fri", "time": "4:30pm"}, {"days": "Sat", "time": "12:00pm"}, {"days": "Sun", "time": "Closed"}], "id": "7508707284", "name": "USPS COLLECTION BOX - PO LOBBY", "address": {"city": "ROCKWALL", "state": "TX", "street": "609 S GOLIAD ST", "postcode": "75087"}}},
{"geometry": {"type": "Point", "coordinates": [-96.4724924487, 32.8958199378]}, "type": "Feature", "properties": {"collection_times": [{"days": "Mon-Sat", "time": "1:00pm"}, {"days": "Sun", "time": "Closed"}], "id": "7508707285", "name": "USPS COLLECTION BOX - BLUE BOX", "address": {"city": "ROCKWALL", "state": "TX", "street": "469 E I30", "postcode": "75087"}}},
{"geometry": {"type": "Point", "coordinates": [-96.4602863443, 32.92565173]}, "type": "Feature", "properties": {"collection_times": [{"days": "Mon-Fri", "time": "4:30pm"}, {"days": "Sat", "time": "12:00pm"}, {"days": "Sun", "time": "Closed"}], "id": "7508707286", "name": "USPS COLLECTION BOX - APC", "address": {"city": "ROCKWALL", "state": "TX", "street": "609 S GOLIAD ST", "postcode": "75087"}}},
{"geometry": {"type": "Point", "coordinates": [-96.4606909905, 32.9178891476]}, "type": "Feature", "properties": {"collection_times": [{"days": "Mon-Sat", "time": "1:00pm"}, {"days": "Sun", "time": "Closed"}], "id": "7508707287", "name": "USPS COLLECTION BOX - BLUE BOX", "address": {"city": "ROCKWALL", "state": "TX", "street": "1111 E YELLOWJACKET LN", "postcode": "75087"}}},
{"geometry": {"type": "Point", "coordinates": [-96.4703582095, 32.9292971831]}, "type": "Feature", "properties": {"collection_times": [{"days": "Mon-Sat", "time": "1:00pm"}, {"days": "Sun", "time": "Closed"}], "id": "7508707288", "name": "USPS COLLECTION BOX - BLUE BOX", "address": {"city": "ROCKWALL", "state": "TX", "street": "862 W RUSK ST", "postcode": "75087"}}},
{"geometry": {"type": "Point", "coordinates": [-96.4768410325, 32.8964727311]}, "type": "Feature", "properties": {"collection_times": [{"days": "Mon-Sat", "time": "12:00pm"}, {"days": "Sun", "time": "Closed"}], "id": "7508707289", "name": "USPS COLLECTION BOX - BLUE BOX", "address": {"city": "ROCKWALL", "state": "TX", "street": "4100 VILLAGE DR", "postcode": "75087"}}},
{"geometry": {"type": "Point", "coordinates": [-96.4505375764, 32.9364141098]}, "type": "Feature", "properties": {"collection_times": [{"days": "Mon-Sat", "time": "1:00pm"}, {"days": "Sun", "time": "Closed"}], "id": "7508707293", "name": "USPS COLLECTION BOX - BLUE BOX", "address": {"city": "ROCKWALL", "state": "TX", "street": "201 C B DAVIDSON", "postcode": "75087"}}},
{"geometry": {"type": "Point", "coordinates": [-96.5094659398, 32.9183750951]}, "type": "Feature", "properties": {"collection_times": [{"days": "Mon-Sat", "time": "11:00am"}, {"days": "Sun", "time": "Closed"}], "id": "7508800703", "name": "USPS COLLECTION BOX - BLUE BOX", "address": {"city": "ROWLETT", "state": "TX", "street": "6800 SCENIC DR", "postcode": "75088"}}},
{"geometry": {"type": "Point", "coordinates": [-96.569809014, 32.905445905]}, "type": "Feature", "properties": {"collection_times": [{"days": "Mon-Fri", "time": "5:00pm"}, {"days": "Sat", "time": "1:00pm"}, {"days": "Sun", "time": "Closed"}], "id": "7508800710", "name": "USPS COLLECTION BOX - BLUE BOX", "address": {"city": "ROWLETT", "state": "TX", "street": "3416 ENTERPRISE DR", "postcode": "75088"}}},
{"geometry": {"type": "Point", "coordinates": [-96.5196491202, 32.9163216332]}, "type": "Feature", "properties": {"collection_times": [{"days": "Mon-Sat", "time": "11:00am"}, {"days": "Sun", "time": "Closed"}], "id": "7508800711", "name": "USPS COLLECTION BOX - BLUE BOX", "address": {"city": "ROWLETT", "state": "TX", "street": "8500 LAKEVIEW PKWY", "postcode": "75088"}}},
{"geometry": {"type": "Point", "coordinates": [-96.569809014, 32.905445905]}, "type": "Feature", "properties": {"collection_times": [{"days": "Mon-Fri", "time": "5:00pm"}, {"days": "Sat", "time": "1:00pm"}, {"days": "Sun", "time": "Closed"}], "id": "7508805033", "name": "USPS COLLECTION BOX - BLUE BOX", "address": {"city": "ROWLETT", "state": "TX", "street": "3416 ENTERPRISE DR", "postcode": "75088"}}},
{"geometry": {"type": "Point", "coordinates": [-96.569809014, 32.905445905]}, "type": "Feature", "properties": {"collection_times": [{"days": "Mon-Fri", "time": "5:00pm"}, {"days": "Sat", "time": "1:00pm"}, {"days": "Sun", "time": "Closed"}], "id": "7508805034", "name": "USPS COLLECTION BOX - BLUE BOX", "address": {"city": "ROWLETT", "state": "TX", "street": "3416 ENTERPRISE DR", "postcode": "75088"}}},
{"geometry": {"type": "Point", "coordinates": [-96.5690901405, 32.9077171796]}, "type": "Feature", "properties": {"collection_times": [{"days": "Mon-Sat", "time": "11:00am"}, {"days": "Sun", "time": "Closed"}], "id": "7508807263", "name": "USPS COLLECTION BOX - BLUE BOX", "address": {"city": "ROWLETT", "state": "TX", "street": "3511 LAKEVIEW PKWY", "postcode": "75088"}}},
{"geometry": {"type": "Point", "coordinates": [-96.5813223461, 32.9080347847]}, "type": "Feature", "properties": {"collection_times": [{"days": "Mon-Sat", "time": "11:00am"}, {"days": "Sun", "time": "Closed"}], "id": "7508807264", "name": "USPS COLLECTION BOX - BLUE BOX", "address": {"city": "ROWLETT", "state": "TX", "street": "2212 LAKEVIEW PKWY", "postcode": "75088"}}},
{"geometry": {"type": "Point", "coordinates": [-96.569809014, 32.905445905]}, "type": "Feature", "properties": {"collection_times": [{"days": "Mon-Fri", "time": "5:00pm"}, {"days": "Sat", "time": "1:00pm"}, {"days": "Sun", "time": "Closed"}], "id": "7508807265", "name": "USPS COLLECTION BOX - PO LOBBY", "address": {"city": "ROWLETT", "state": "TX", "street": "3416 ENTERPRISE DR", "postcode": "75088"}}},
{"geometry": {"type": "Point", "coordinates": [-96.569809014, 32.905445905]}, "type": "Feature", "properties": {"collection_times": [{"days": "Mon-Fri", "time": "5:00pm"}, {"days": "Sat", "time": "1:00pm"}, {"days": "Sun", "time": "Closed"}], "id": "7508807266", "name": "USPS COLLECTION BOX - PO LOBBY", "address": {"city": "ROWLETT", "state": "TX", "street": "3416 ENTERPRISE DR", "postcode": "75088"}}},
{"geometry": {"type": "Point", "coordinates": [-96.569809014, 32.905445905]}, "type": "Feature", "properties": {"collection_times": [{"days": "Mon-Fri", "time": "5:00pm"}, {"days": "Sat", "time": "1:00pm"}, {"days": "Sun", "time": "Closed"}], "id": "7508807267", "name": "USPS COLLECTION BOX - APC", "address": {"city": "ROWLETT", "state": "TX", "street": "3416 ENTERPRISE DR", "postcode": "75088"}}},
{"geometry": {"type": "Point", "coordinates": [-96.6098693991, 33.6386455265]}, "type": "Feature", "properties": {"collection_times": [{"days": "Mon-Fri", "time": "1:00pm"}, {"days": "Sat-Sun", "time": "Closed"}], "id": "7509000718", "name": "USPS COLLECTION BOX - BLUE BOX", "address": {"city": "SHERMAN", "state": "TX", "street": "305 N TRAVIS ST", "postcode": "75090"}}},
{"geometry": {"type": "Point", "coordinates": [-96.6090313726, 33.6355324178]}, "type": "Feature", "properties": {"collection_times": [{"days": "Mon-Fri", "time": "1:00pm"}, {"days": "Sat-Sun", "time": "Closed"}], "id": "7509000720", "name": "USPS COLLECTION BOX - BLUE BOX", "address": {"city": "SHERMAN", "state": "TX", "street": "100 W LAMAR ST", "postcode": "75090"}}},
{"geometry": {"type": "Point", "coordinates": [-96.6030840338, 33.6728729769]}, "type": "Feature", "properties": {"collection_times": [{"days": "Mon-Fri", "time": "9:00am"}, {"days": "Sat-Sun", "time": "Closed"}], "id": "7509000721", "name": "USPS COLLECTION BOX - BLUE BOX", "address": {"city": "SHERMAN", "state": "TX", "street": "1117 GALLAGHER DR", "postcode": "75090"}}},
{"geometry": {"type": "Point", "coordinates": [-96.601229554, 33.6590316603]}, "type": "Feature", "properties": {"collection_times": [{"days": "Mon-Fri", "time": "9:30am"}, {"days": "Sat-Sun", "time": "Closed"}], "id": "7509000732", "name": "USPS COLLECTION BOX - BLUE BOX", "address": {"city": "SHERMAN", "state": "TX", "street": "2007 TEXOMA PKWY", "postcode": "75090"}}},
{"geometry": {"type": "Point", "coordinates": [-96.6076950589, 33.6597200018]}, "type": "Feature", "properties": {"collection_times": [{"days": "Mon-Fri", "time": "5:00pm"}, {"days": "Sat", "time": "1:00pm"}, {"days": "Sun", "time": "Closed"}], "id": "7509000751", "name": "USPS COLLECTION BOX - BLUE BOX", "address": {"city": "SHERMAN", "state": "TX", "street": "701 E PEYTON ST", "postcode": "75090"}}},
{"geometry": {"type": "Point", "coordinates": [-96.6076950589, 33.6597200018]}, "type": "Feature", "properties": {"collection_times": [{"days": "Mon-Fri", "time": "5:00pm"}, {"days": "Sat", "time": "1:00pm"}, {"days": "Sun", "time": "Closed"}], "id": "7509000757", "name": "USPS COLLECTION BOX - BLUE BOX", "address": {"city": "SHERMAN", "state": "TX", "street": "701 E PEYTON ST", "postcode": "75090"}}},
{"geometry": {"type": "Point", "coordinates": [-96.6098693991, 33.6386455265]}, "type": "Feature", "properties": {"collection_times": [{"days": "Mon-Fri", "time": "1:00pm"}, {"days": "Sat-Sun", "time": "Closed"}], "id": "7509005763", "name": "USPS COLLECTION BOX - BLUE BOX", "address": {"city": "SHERMAN", "state": "TX", "street": "305 N TRAVIS ST", "postcode": "75090"}}},
{"geometry": {"type": "Point", "coordinates": [-96.6096412725, 33.6375519676]}, "type": "Feature", "properties": {"collection_times": [{"days": "Mon-Fri", "time": "1:00pm"}, {"days": "Sat-Sun", "time": "Closed"}], "id": "7509006269", "name": "USPS COLLECTION BOX - BLUE BOX", "address": {"city": "SHERMAN", "state": "TX", "street": "100 W WALL ST", "postcode": "75090"}}},
{"geometry": {"type": "Point", "coordinates": [-96.6031358741, 33.6728745167]}, "type": "Feature", "properties": {"collection_times": [{"days": "Mon-Fri", "time": "9:00am"}, {"days": "Sat-Sun", "time": "Closed"}], "id": "7509006555", "name": "USPS COLLECTION BOX - BLUE BOX", "address": {"city": "SHERMAN", "state": "TX", "street": "1111 GALLAGHER DR", "postcode": "75090"}}},
{"geometry": {"type": "Point", "coordinates": [-96.6076950589, 33.6597200018]}, "type": "Feature", "properties": {"collection_times": [{"days": "Mon-Fri", "time": "5:00pm"}, {"days": "Sat", "time": "12:00pm"}, {"days": "Sun", "time": "Closed"}], "id": "7509007160", "name": "USPS COLLECTION BOX - PO LOBBY", "address": {"city": "SHERMAN", "state": "TX", "street": "701 E PEYTON ST", "postcode": "75090"}}},
{"geometry": {"type": "Point", "coordinates": [-96.6076950589, 33.6597200018]}, "type": "Feature", "properties": {"collection_times": [{"days": "Mon-Fri", "time": "5:00pm"}, {"days": "Sat", "time": "12:00pm"}, {"days": "Sun", "time": "Closed"}], "id": "7509007161", "name": "USPS COLLECTION BOX - PO LOBBY", "address": {"city": "SHERMAN", "state": "TX", "street": "701 E PEYTON ST", "postcode": "75090"}}},
{"geometry": {"type": "Point", "coordinates": [-96.5829501507, 33.6854452755]}, "type": "Feature", "properties": {"collection_times": [{"days": "Mon-Fri", "time": "1:00pm"}, {"days": "Sat-Sun", "time": "Closed"}], "id": "7509007305", "name": "USPS COLLECTION BOX - BLUE BOX", "address": {"city": "SHERMAN", "state": "TX", "street": "4800 TEXOMA PKWY", "postcode": "75090"}}},
{"geometry": {"type": "Point", "coordinates": [-96.6076950589, 33.6597200018]}, "type": "Feature", "properties": {"collection_times": [{"days": "Mon-Fri", "time": "5:00pm"}, {"days": "Sat", "time": "12:00pm"}, {"days": "Sun", "time": "Closed"}], "id": "7509007307", "name": "USPS COLLECTION BOX - APC", "address": {"city": "SHERMAN", "state": "TX", "street": "701 E PEYTON ST", "postcode": "75090"}}},
{"geometry": {"type": "Point", "coordinates": [-96.5457578452, 33.60391193]}, "type": "Feature", "properties": {"collection_times": [{"days": "Mon-Sat", "time": "1:00pm"}, {"days": "Sun", "time": "Closed"}], "id": "7509007309", "name": "USPS COLLECTION BOX - BLUE BOX", "address": {"city": "SHERMAN", "state": "TX", "street": "2920 N US HIGHWAY 75", "postcode": "75090"}}},
{"geometry": {"type": "Point", "coordinates": [-96.6149548362, 33.6548275215]}, "type": "Feature", "properties": {"collection_times": [{"days": "Mon-Fri", "time": "10:30am"}, {"days": "Sat-Sun", "time": "Closed"}], "id": "7509200000", "name": "USPS COLLECTION BOX - BLUE BOX", "address": {"city": "SHERMAN", "state": "TX", "street": "100 E TAYLOR ST", "postcode": "75092"}}},
{"geometry": {"type": "Point", "coordinates": [-96.6284358424, 33.6339193784]}, "type": "Feature", "properties": {"collection_times": [{"days": "Mon-Fri", "time": "1:00pm"}, {"days": "Sat-Sun", "time": "Closed"}], "id": "7509200003", "name": "USPS COLLECTION BOX - BLUE BOX", "address": {"city": "SHERMAN", "state": "TX", "street": "220 SUNSET BLVD", "postcode": "75092"}}},
{"geometry": {"type": "Point", "coordinates": [-96.6232396559, 33.6371475697]}, "type": "Feature", "properties": {"collection_times": [{"days": "Mon-Fri", "time": "9:00am"}, {"days": "Sat-Sun", "time": "Closed"}], "id": "7509200008", "name": "USPS COLLECTION BOX - BLUE BOX", "address": {"city": "SHERMAN", "state": "TX", "street": "425 N HIGHLAND AVE", "postcode": "75092"}}},
{"geometry": {"type": "Point", "coordinates": [-96.6230075659, 33.6359256548]}, "type": "Feature", "properties": {"collection_times": [{"days": "Mon-Fri", "time": "9:00am"}, {"days": "Sat-Sun", "time": "Closed"}], "id": "7509200009", "name": "USPS COLLECTION BOX - BLUE BOX", "address": {"city": "SHERMAN", "state": "TX", "street": "300 N HIGHLAND AVE", "postcode": "75092"}}},
{"geometry": {"type": "Point", "coordinates": [-96.6235840009, 33.6378178908]}, "type": "Feature", "properties": {"collection_times": [{"days": "Mon-Fri", "time": "9:00am"}, {"days": "Sat-Sun", "time": "Closed"}], "id": "7509200013", "name": "USPS COLLECTION BOX - BLUE BOX", "address": {"city": "SHERMAN", "state": "TX", "street": "500 N HIGHLAND AVE", "postcode": "75092"}}},
{"geometry": {"type": "Point", "coordinates": [-96.7707459697, 33.0176660375]}, "type": "Feature", "properties": {"collection_times": [{"days": "Mon-Fri", "time": "1:00pm"}, {"days": "Sat-Sun", "time": "Closed"}], "id": "7509300003", "name": "USPS COLLECTION BOX - BLUE BOX", "address": {"city": "PLANO", "state": "TX", "street": "4100 W 15TH ST", "postcode": "75093"}}},
{"geometry": {"type": "Point", "coordinates": [-96.838515777, 33.0451273337]}, "type": "Feature", "properties": {"collection_times": [{"days": "Mon-Fri", "time": "1:00pm"}, {"days": "Sat-Sun", "time": "Closed"}], "id": "7509300006", "name": "USPS COLLECTION BOX - BLUE BOX", "address": {"city": "PLANO", "state": "TX", "street": "6200 W PARKER RD", "postcode": "75093"}}},
{"geometry": {"type": "Point", "coordinates": [-96.7952310872, 33.0245054091]}, "type": "Feature", "properties": {"collection_times": [{"days": "Mon-Fri", "time": "1:00pm"}, {"days": "Sat-Sun", "time": "Closed"}], "id": "7509300018", "name": "USPS COLLECTION BOX - BLUE BOX", "address": {"city": "PLANO", "state": "TX", "street": "1801 PRESTON RD", "postcode": "75093"}}},
{"geometry": {"type": "Point", "coordinates": [-96.838515777, 33.0451273337]}, "type": "Feature", "properties": {"collection_times": [{"days": "Mon-Fri", "time": "1:00pm"}, {"days": "Sat-Sun", "time": "Closed"}], "id": "7509300019", "name": "USPS COLLECTION BOX - BLUE BOX", "address": {"city": "PLANO", "state": "TX", "street": "6200 W PARKER RD", "postcode": "75093"}}},
{"geometry": {"type": "Point", "coordinates": [-96.8373722264, 33.0450734896]}, "type": "Feature", "properties": {"collection_times": [{"days": "Mon-Fri", "time": "1:00pm"}, {"days": "Sat-Sun", "time": "Closed"}], "id": "7509300021", "name": "USPS COLLECTION BOX - BLUE BOX", "address": {"city": "PLANO", "state": "TX", "street": "6300 W PARKER RD", "postcode": "75093"}}},
{"geometry": {"type": "Point", "coordinates": [-96.8381833655, 33.0184764512]}, "type": "Feature", "properties": {"collection_times": [{"days": "Mon-Fri", "time": "1:00pm"}, {"days": "Sat-Sun", "time": "Closed"}], "id": "7509300023", "name": "USPS COLLECTION BOX - BLUE BOX", "address": {"city": "PLANO", "state": "TX", "street": "6404 INTERNATIONAL PKWY", "postcode": "75093"}}},
{"geometry": {"type": "Point", "coordinates": [-96.8107801211, 33.0159496508]}, "type": "Feature", "properties": {"collection_times": [{"days": "Mon-Fri", "time": "1:00pm"}, {"days": "Sat-Sun", "time": "Closed"}], "id": "7509300026", "name": "USPS COLLECTION BOX - BLUE BOX", "address": {"city": "PLANO", "state": "TX", "street": "5512 W PLANO PKWY", "postcode": "75093"}}},
{"geometry": {"type": "Point", "coordinates": [-96.8302397961, 33.0402866656]}, "type": "Feature", "properties": {"collection_times": [{"days": "Mon-Fri", "time": "1:00pm"}, {"days": "Sat-Sun", "time": "Closed"}], "id": "7509300028", "name": "USPS COLLECTION BOX - BLUE BOX", "address": {"city": "PLANO", "state": "TX", "street": "2901 DALLAS PKWY", "postcode": "75093"}}},
{"geometry": {"type": "Point", "coordinates": [-96.7982005355, 33.0161058014]}, "type": "Feature", "properties": {"collection_times": [{"days": "Mon-Fri", "time": "1:00pm"}, {"days": "Sat-Sun", "time": "Closed"}], "id": "7509300030", "name": "USPS COLLECTION BOX - BLUE BOX", "address": {"city": "PLANO", "state": "TX", "street": "5068 W PLANO PKWY", "postcode": "75093"}}},
{"geometry": {"type": "Point", "coordinates": [-96.8288083975, 33.0293799176]}, "type": "Feature", "properties": {"collection_times": [{"days": "Mon-Fri", "time": "1:00pm"}, {"days": "Sat-Sun", "time": "Closed"}], "id": "7509300031", "name": "USPS COLLECTION BOX - BLUE BOX", "address": {"city": "PLANO", "state": "TX", "street": "2108 DALLAS PKWY", "postcode": "75093"}}},
{"geometry": {"type": "Point", "coordinates": [-96.7924665711, 33.0143960719]}, "type": "Feature", "properties": {"collection_times": [{"days": "Mon-Fri", "time": "1:00pm"}, {"days": "Sat-Sun", "time": "Closed"}], "id": "7509300032", "name": "USPS COLLECTION BOX - BLUE BOX", "address": {"city": "PLANO", "state": "TX", "street": "4704 ALLIANCE BLVD", "postcode": "75093"}}},
{"geometry": {"type": "Point", "coordinates": [-96.803222158, 33.014463779]}, "type": "Feature", "properties": {"collection_times": [{"days": "Mon-Fri", "time": "1:00pm"}, {"days": "Sat-Sun", "time": "Closed"}], "id": "7509300035", "name": "USPS COLLECTION BOX - BLUE BOX", "address": {"city": "PLANO", "state": "TX", "street": "5164 VILLAGE CREEK DR", "postcode": "75093"}}},
{"geometry": {"type": "Point", "coordinates": [-96.6126970488, 33.0174990867]}, "type": "Feature", "properties": {"collection_times": [{"days": "Mon-Fri", "time": "12:30pm"}, {"days": "Sat-Sun", "time": "Closed"}], "id": "7509400000", "name": "USPS COLLECTION BOX - BLUE BOX", "address": {"city": "MURPHY", "state": "TX", "street": "206 N MURPHY RD", "postcode": "75094"}}},
{"geometry": {"type": "Point", "coordinates": [-96.669005267, 33.3482427272]}, "type": "Feature", "properties": {"collection_times": [{"days": "Mon-Fri", "time": "3:00pm"}, {"days": "Sat", "time": "9:30am"}, {"days": "Sun", "time": "Closed"}], "id": "7509700763", "name": "USPS COLLECTION BOX - BLUE BOX", "address": {"city": "WESTON", "state": "TX", "street": "101 MAIN ST", "postcode": "75097"}}},
{"geometry": {"type": "Point", "coordinates": [-96.669005267, 33.3482427272]}, "type": "Feature", "properties": {"collection_times": [{"days": "Mon-Fri", "time": "11:30am"}, {"days": "Sat", "time": "9:30am"}, {"days": "Sun", "time": "Closed"}], "id": "7509700764", "name": "USPS COLLECTION BOX - PO LOBBY", "address": {"city": "WESTON", "state": "TX", "street": "101 MAIN ST", "postcode": "75097"}}},
{"geometry": {"type": "Point", "coordinates": [-96.5388699053, 33.0154279659]}, "type": "Feature", "properties": {"collection_times": [{"days": "Mon-Sat", "time": "11:00am"}, {"days": "Sun", "time": "Closed"}], "id": "7509800764", "name": "USPS COLLECTION BOX - BLUE BOX", "address": {"city": "WYLIE", "state": "TX", "street": "201 N BALLARD AVE", "postcode": "75098"}}},
{"geometry": {"type": "Point", "coordinates": [-96.594189854, 33.030246732]}, "type": "Feature", "properties": {"collection_times": [{"days": "Mon-Sat", "time": "11:00am"}, {"days": "Sun", "time": "Closed"}], "id": "7509800765", "name": "USPS COLLECTION BOX - BLUE BOX", "address": {"city": "WYLIE", "state": "TX", "street": "216 SOUTHFORK BLVD", "postcode": "75098"}}},
{"geometry": {"type": "Point", "coordinates": [-96.550793195, 33.0076212178]}, "type": "Feature", "properties": {"collection_times": [{"days": "Mon-Fri", "time": "5:00pm"}, {"days": "Sat", "time": "1:00pm"}, {"days": "Sun", "time": "Closed"}], "id": "7509800766", "name": "USPS COLLECTION BOX - BLUE BOX", "address": {"city": "WYLIE", "state": "TX", "street": "940 W FM 544", "postcode": "75098"}}},
{"geometry": {"type": "Point", "coordinates": [-96.541585304, 33.0106361964]}, "type": "Feature", "properties": {"collection_times": [{"days": "Mon-Sat", "time": "11:00am"}, {"days": "Sun", "time": "Closed"}], "id": "7509805035", "name": "USPS COLLECTION BOX - BLUE BOX", "address": {"city": "WYLIE", "state": "TX", "street": "301 S HIGHWAY 78", "postcode": "75098"}}},
{"geometry": {"type": "Point", "coordinates": [-96.550793195, 33.0076212178]}, "type": "Feature", "properties": {"collection_times": [{"days": "Mon-Fri", "time": "5:00pm"}, {"days": "Sat", "time": "1:00pm"}, {"days": "Sun", "time": "Closed"}], "id": "7509805036", "name": "USPS COLLECTION BOX - BLUE BOX", "address": {"city": "WYLIE", "state": "TX", "street": "940 W FM 544", "postcode": "75098"}}},
{"geometry": {"type": "Point", "coordinates": [-96.550793195, 33.0076212178]}, "type": "Feature", "properties": {"collection_times": [{"days": "Mon-Fri", "time": "5:00pm"}, {"days": "Sat", "time": "1:00pm"}, {"days": "Sun", "time": "Closed"}], "id": "7509805037", "name": "USPS COLLECTION BOX - PO LOBBY", "address": {"city": "WYLIE", "state": "TX", "street": "940 W FM 544", "postcode": "75098"}}},
{"geometry": {"type": "Point", "coordinates": [-96.550793195, 33.0076212178]}, "type": "Feature", "properties": {"collection_times": [{"days": "Mon-Fri", "time": "5:00pm"}, {"days": "Sat", "time": "1:00pm"}, {"days": "Sun", "time": "Closed"}], "id": "7509805038", "name": "USPS COLLECTION BOX - PO LOBBY", "address": {"city": "WYLIE", "state": "TX", "street": "940 W FM 544", "postcode": "75098"}}},
{"geometry": {"type": "Point", "coordinates": [-96.550793195, 33.0076212178]}, "type": "Feature", "properties": {"collection_times": [{"days": "Mon-Fri", "time": "5:00pm"}, {"days": "Sat", "time": "1:00pm"}, {"days": "Sun", "time": "Closed"}], "id": "7509805039", "name": "USPS COLLECTION BOX - PO LOBBY", "address": {"city": "WYLIE", "state": "TX", "street": "940 W FM 544", "postcode": "75098"}}},
{"geometry": {"type": "Point", "coordinates": [-97.0219891532, 32.9526985155]}, "type": "Feature", "properties": {"collection_times": [{"days": "Mon-Sat", "time": "6:00pm"}, {"days": "Sun", "time": "Closed"}], "id": "7509900769", "name": "USPS COLLECTION BOX - BLUE BOX", "address": {"city": "COPPELL", "state": "TX", "street": "800 ROYAL LN", "postcode": "75099"}}},
{"geometry": {"type": "Point", "coordinates": [-97.0219891532, 32.9526985155]}, "type": "Feature", "properties": {"collection_times": [{"days": "Mon-Sat", "time": "6:00pm"}, {"days": "Sun", "time": "Closed"}], "id": "7509903307", "name": "USPS COLLECTION BOX - BLUE BOX", "address": {"city": "COPPELL", "state": "TX", "street": "800 ROYAL LN", "postcode": "75099"}}}
]}
