{"type": "FeatureCollection", "features": [
{"geometry": {"type": "Point", "coordinates": [-96.6931759118, 32.2660626466]}, "type": "Feature", "properties": {"collection_times": [{"days": "Mon-Fri", "time": "4:00pm"}, {"days": "Sat", "time": "9:00am"}, {"days": "Sun", "time": "Closed"}], "id": "7510100771", "name": "USPS COLLECTION BOX - BLUE BOX", "address": {"city": "BARDWELL", "state": "TX", "street": "100 ELLIS ST", "postcode": "75101"}}},
{"geometry": {"type": "Point", "coordinates": [-96.6931759118, 32.2660626466]}, "type": "Feature", "properties": {"collection_times": [{"days": "Mon-Fri", "time": "11:30am"}, {"days": "Sat", "time": "9:00am"}, {"days": "Sun", "time": "Closed"}], "id": "7510100773", "name": "USPS COLLECTION BOX - PO LOBBY", "address": {"city": "BARDWELL", "state": "TX", "street": "100 ELLIS ST", "postcode": "75101"}}},
{"geometry": {"type": "Point", "coordinates": [-96.6364751041, 32.0974393042]}, "type": "Feature", "properties": {"collection_times": [{"days": "Mon-Fri", "time": "12:00pm"}, {"days": "Sat", "time": "9:00am"}, {"days": "Sun", "time": "Closed"}], "id": "7510200772", "name": "USPS COLLECTION BOX - PO LOBBY", "address": {"city": "BARRY", "state": "TX", "street": "103 HOUSTON ST", "postcode": "75102"}}},
{"geometry": {"type": "Point", "coordinates": [-96.6364751041, 32.0974393042]}, "type": "Feature", "properties": {"collection_times": [{"days": "Mon-Fri", "time": "4:00pm"}, {"days": "Sat", "time": "9:00am"}, {"days": "Sun", "time": "Closed"}], "id": "7510200773", "name": "USPS COLLECTION BOX - BLUE BOX", "address": {"city": "BARRY", "state": "TX", "street": "103 HOUSTON ST", "postcode": "75102"}}},
{"geometry": {"type": "Point", "coordinates": [-95.8633217701, 32.556644343]}, "type": "Feature", "properties": {"collection_times": [{"days": "Mon-Fri", "time": "2:00pm"}, {"days": "Sat", "time": "12:00pm"}, {"days": "Sun", "time": "Closed"}], "id": "7510300774", "name": "USPS COLLECTION BOX - BLUE BOX", "address": {"city": "CANTON", "state": "TX", "street": "121 E DALLAS ST", "postcode": "75103"}}},
{"geometry": {"type": "Point", "coordinates": [-95.8637100858, 32.5446014021]}, "type": "Feature", "properties": {"collection_times": [{"days": "Mon-Fri", "time": "12:00pm"}, {"days": "Sat", "time": "11:00am"}, {"days": "Sun", "time": "Closed"}], "id": "7510300775", "name": "USPS COLLECTION BOX - BLUE BOX", "address": {"city": "CANTON", "state": "TX", "street": "301 E HIGHWAY 243", "postcode": "75103"}}},
{"geometry": {"type": "Point", "coordinates": [-95.8720233921, 32.5600540592]}, "type": "Feature", "properties": {"collection_times": [{"days": "Mon-Sat", "time": "4:30pm"}, {"days": "Sun", "time": "Closed"}], "id": "7510300776", "name": "USPS COLLECTION BOX - BLUE BOX", "address": {"city": "CANTON", "state": "TX", "street": "1001 W DALLAS ST", "postcode": "75103"}}},
{"geometry": {"type": "Point", "coordinates": [-95.8720233921, 32.5600540592]}, "type": "Feature", "properties": {"collection_times": [{"days": "Mon-Fri", "time": "4:30pm"}, {"days": "Sat", "time": "2:00pm"}, {"days": "Sun", "time": "Closed"}], "id": "7510306320", "name": "USPS COLLECTION BOX - PO LOBBY", "address": {"city": "CANTON", "state": "TX", "street": "1001 W DALLAS ST", "postcode": "75103"}}},
{"geometry": {"type": "Point", "coordinates": [-95.8633217701, 32.556644343]}, "type": "Feature", "properties": {"collection_times": [{"days": "Mon-Fri", "time": "2:00pm"}, {"days": "Sat", "time": "12:00pm"}, {"days": "Sun", "time": "Closed"}], "id": "7510306321", "name": "USPS COLLECTION BOX - BLUE BOX", "address": {"city": "CANTON", "state": "TX", "street": "121 E DALLAS ST", "postcode": "75103"}}},
{"geometry": {"type": "Point", "coordinates": [-95.8720233921, 32.5600540592]}, "type": "Feature", "properties": {"collection_times": [{"days": "Mon-Fri", "time": "4:30pm"}, {"days": "Sat", "time": "2:00pm"}, {"days": "Sun", "time": "Closed"}], "id": "7510306322", "name": "USPS COLLECTION BOX - PO LOBBY", "address": {"city": "CANTON", "state": "TX", "street": "1001 W DALLAS ST", "postcode": "75103"}}},
{"geometry": {"type": "Point", "coordinates": [-96.9411839016, 32.5810955033]}, "type": "Feature", "properties": {"collection_times": [{"days": "Mon-Sat", "time": "10:00am"}, {"days": "Sun", "time": "Closed"}], "id": "7510400778", "name": "USPS COLLECTION BOX - BLUE BOX", "address": {"city": "CEDAR HILL", "state": "TX", "street": "200 WEAVER ST", "postcode": "75104"}}},
{"geometry": {"type": "Point", "coordinates": [-96.955634302, 32.5886539286]}, "type": "Feature", "properties": {"collection_times": [{"days": "Mon-Sat", "time": "9:00am"}, {"days": "Sun", "time": "Closed"}], "id": "7510400781", "name": "USPS COLLECTION BOX - BLUE BOX", "address": {"city": "CEDAR HILL", "state": "TX", "street": "200 S MAIN ST", "postcode": "75104"}}},
{"geometry": {"type": "Point", "coordinates": [-96.9349814777, 32.5903728923]}, "type": "Feature", "properties": {"collection_times": [{"days": "Mon-Fri", "time": "5:00pm"}, {"days": "Sat", "time": "12:00pm"}, {"days": "Sun", "time": "Closed"}], "id": "7510406252", "name": "USPS COLLECTION BOX - BLUE BOX", "address": {"city": "CEDAR HILL", "state": "TX", "street": "475 E FM 1382", "postcode": "75104"}}},
{"geometry": {"type": "Point", "coordinates": [-96.9482970615, 32.5871538777]}, "type": "Feature", "properties": {"collection_times": [{"days": "Mon-Sat", "time": "9:00am"}, {"days": "Sun", "time": "Closed"}], "id": "7510406515", "name": "USPS COLLECTION BOX - BLUE BOX", "address": {"city": "CEDAR HILL", "state": "TX", "street": "112 W BELT LINE RD", "postcode": "75104"}}},
{"geometry": {"type": "Point", "coordinates": [-96.9349814777, 32.5903728923]}, "type": "Feature", "properties": {"collection_times": [{"days": "Mon-Fri", "time": "5:00pm"}, {"days": "Sat", "time": "12:00pm"}, {"days": "Sun", "time": "Closed"}], "id": "7510406521", "name": "USPS COLLECTION BOX - PO LOBBY", "address": {"city": "CEDAR HILL", "state": "TX", "street": "475 E FM 1382", "postcode": "75104"}}},
{"geometry": {"type": "Point", "coordinates": [-96.9349814777, 32.5903728923]}, "type": "Feature", "properties": {"collection_times": [{"days": "Mon-Fri", "time": "5:00pm"}, {"days": "Sat", "time": "12:00pm"}, {"days": "Sun", "time": "Closed"}], "id": "7510406522", "name": "USPS COLLECTION BOX - PO LOBBY", "address": {"city": "CEDAR HILL", "state": "TX", "street": "475 E FM 1382", "postcode": "75104"}}},
{"geometry": {"type": "Point", "coordinates": [-96.4127370162, 32.2402988828]}, "type": "Feature", "properties": {"collection_times": [{"days": "Mon-Sat", "time": "11:00am"}, {"days": "Sun", "time": "Closed"}], "id": "7510500000", "name": "USPS COLLECTION BOX - PO LOBBY", "address": {"city": "CHATFIELD", "state": "TX", "street": "4857 FM 1603", "postcode": "75105"}}},
{"geometry": {"type": "Point", "coordinates": [-96.4127370162, 32.2402988828]}, "type": "Feature", "properties": {"collection_times": [{"days": "Mon-Sat", "time": "11:00am"}, {"days": "Sun", "time": "Closed"}], "id": "7510500001", "name": "USPS COLLECTION BOX - BLUE BOX", "address": {"city": "CHATFIELD", "state": "TX", "street": "4857 FM 1603", "postcode": "75105"}}},
{"geometry": {"type": "Point", "coordinates": [-96.5008830848, 32.0816169727]}, "type": "Feature", "properties": {"collection_times": [{"days": "Mon-Fri", "time": "4:30pm"}, {"days": "Sat", "time": "9:00am"}, {"days": "Sun", "time": "Closed"}], "id": "7511000784", "name": "USPS COLLECTION BOX - BLUE BOX", "address": {"city": "CORSICANA", "state": "TX", "street": "330 HOSPITAL DR", "postcode": "75110"}}},
{"geometry": {"type": "Point", "coordinates": [-96.5016647393, 32.0723430731]}, "type": "Feature", "properties": {"collection_times": [{"days": "Mon-Fri", "time": "4:30pm"}, {"days": "Sat", "time": "9:30am"}, {"days": "Sun", "time": "Closed"}], "id": "7511000785", "name": "USPS COLLECTION BOX - BLUE BOX", "address": {"city": "CORSICANA", "state": "TX", "street": "3500 W 7TH AVE", "postcode": "75110"}}},
{"geometry": {"type": "Point", "coordinates": [-96.4647710631, 32.0928477447]}, "type": "Feature", "properties": {"collection_times": [{"days": "Mon-Fri", "time": "5:00pm"}, {"days": "Sat", "time": "3:30pm"}, {"days": "Sun", "time": "Closed"}], "id": "7511000788", "name": "USPS COLLECTION BOX - BLUE BOX", "address": {"city": "CORSICANA", "state": "TX", "street": "116 S MAIN ST", "postcode": "75110"}}},
{"geometry": {"type": "Point", "coordinates": [-96.4789655143, 32.090836635]}, "type": "Feature", "properties": {"collection_times": [{"days": "Mon-Fri", "time": "5:00pm"}, {"days": "Sat", "time": "2:30pm"}, {"days": "Sun", "time": "Closed"}], "id": "7511000789", "name": "USPS COLLECTION BOX - BLUE BOX", "address": {"city": "CORSICANA", "state": "TX", "street": "1321 W 2ND AVE", "postcode": "75110"}}},
{"geometry": {"type": "Point", "coordinates": [-96.4770512473, 32.0849461194]}, "type": "Feature", "properties": {"collection_times": [{"days": "Mon-Fri", "time": "4:30pm"}, {"days": "Sat", "time": "2:30pm"}, {"days": "Sun", "time": "Closed"}], "id": "7511000791", "name": "USPS COLLECTION BOX - BLUE BOX", "address": {"city": "CORSICANA", "state": "TX", "street": "1440 W 7TH AVE", "postcode": "75110"}}},
{"geometry": {"type": "Point", "coordinates": [-96.4642863974, 32.0945111824]}, "type": "Feature", "properties": {"collection_times": [{"days": "Mon-Fri", "time": "5:00pm"}, {"days": "Sat", "time": "2:30pm"}, {"days": "Sun", "time": "Closed"}], "id": "7511000792", "name": "USPS COLLECTION BOX - BLUE BOX", "address": {"city": "CORSICANA", "state": "TX", "street": "200 N BEATON ST", "postcode": "75110"}}},
{"geometry": {"type": "Point", "coordinates": [-96.4677818051, 32.0952338794]}, "type": "Feature", "properties": {"collection_times": [{"days": "Mon-Fri", "time": "5:00pm"}, {"days": "Sat", "time": "11:00am"}, {"days": "Sun", "time": "Closed"}], "id": "7511000793", "name": "USPS COLLECTION BOX - BLUE BOX", "address": {"city": "CORSICANA", "state": "TX", "street": "300 W 3RD AVE", "postcode": "75110"}}},
{"geometry": {"type": "Point", "coordinates": [-96.4677818051, 32.0952338794]}, "type": "Feature", "properties": {"collection_times": [{"days": "Mon-Fri", "time": "5:00pm"}, {"days": "Sat", "time": "11:00am"}, {"days": "Sun", "time": "Closed"}], "id": "7511005095", "name": "USPS COLLECTION BOX - BLUE BOX", "address": {"city": "CORSICANA", "state": "TX", "street": "300 W 3RD AVE", "postcode": "75110"}}},
{"geometry": {"type": "Point", "coordinates": [-96.4645059221, 32.0924536221]}, "type": "Feature", "properties": {"collection_times": [{"days": "Mon-Fri", "time": "5:00pm"}, {"days": "Sat", "time": "3:30pm"}, {"days": "Sun", "time": "Closed"}], "id": "7511005096", "name": "USPS COLLECTION BOX - BLUE BOX", "address": {"city": "CORSICANA", "state": "TX", "street": "116 S MAIN ST", "postcode": "75110"}}},
{"geometry": {"type": "Point", "coordinates": [-96.4647710631, 32.0928477447]}, "type": "Feature", "properties": {"collection_times": [{"days": "Mon-Fri", "time": "5:00pm"}, {"days": "Sat", "time": "3:30pm"}, {"days": "Sun", "time": "Closed"}], "id": "7511005097", "name": "USPS COLLECTION BOX - BLUE BOX", "address": {"city": "CORSICANA", "state": "TX", "street": "116 S MAIN ST", "postcode": "75110"}}},
{"geometry": {"type": "Point", "coordinates": [-96.4687672463, 32.0989304125]}, "type": "Feature", "properties": {"collection_times": [{"days": "Mon-Fri", "time": "5:00pm"}, {"days": "Sat", "time": "2:00pm"}, {"days": "Sun", "time": "Closed"}], "id": "7511007293", "name": "USPS COLLECTION BOX - BLUE BOX", "address": {"city": "CORSICANA", "state": "TX", "street": "725 N MAIN ST", "postcode": "75110"}}},
{"geometry": {"type": "Point", "coordinates": [-96.4541640219, 32.0972705368]}, "type": "Feature", "properties": {"collection_times": [{"days": "Mon-Fri", "time": "4:00pm"}, {"days": "Sat", "time": "10:00am"}, {"days": "Sun", "time": "Closed"}], "id": "7511007294", "name": "USPS COLLECTION BOX - BLUE BOX", "address": {"city": "CORSICANA", "state": "TX", "street": "1100 E 7TH AVE", "postcode": "75110"}}},
{"geometry": {"type": "Point", "coordinates": [-96.4963705739, 32.0756369353]}, "type": "Feature", "properties": {"collection_times": [{"days": "Mon-Fri", "time": "4:30pm"}, {"days": "Sat", "time": "12:30pm"}, {"days": "Sun", "time": "Closed"}], "id": "7511007295", "name": "USPS COLLECTION BOX - BLUE BOX", "address": {"city": "CORSICANA", "state": "TX", "street": "101 S 41ST ST", "postcode": "75110"}}},
{"geometry": {"type": "Point", "coordinates": [-96.4647710631, 32.0928477447]}, "type": "Feature", "properties": {"collection_times": [{"days": "Mon-Fri", "time": "5:00pm"}, {"days": "Sat", "time": "3:30pm"}, {"days": "Sun", "time": "Closed"}], "id": "7511007296", "name": "USPS COLLECTION BOX - PO LOBBY", "address": {"city": "CORSICANA", "state": "TX", "street": "116 S MAIN ST", "postcode": "75110"}}},
{"geometry": {"type": "Point", "coordinates": [-96.4647710631, 32.0928477447]}, "type": "Feature", "properties": {"collection_times": [{"days": "Mon-Fri", "time": "5:00pm"}, {"days": "Sat", "time": "3:30pm"}, {"days": "Sun", "time": "Closed"}], "id": "7511007299", "name": "USPS COLLECTION BOX - PO LOBBY", "address": {"city": "CORSICANA", "state": "TX", "street": "116 S MAIN ST", "postcode": "75110"}}},
{"geometry": {"type": "Point", "coordinates": [-96.4558076972, 32.627900795]}, "type": "Feature", "properties": {"collection_times": [{"days": "Mon-Fri", "time": "4:00pm"}, {"days": "Sat", "time": "9:30am"}, {"days": "Sun", "time": "Closed"}], "id": "7511400796", "name": "USPS COLLECTION BOX - BLUE BOX", "address": {"city": "CRANDALL", "state": "TX", "street": "123 S MAIN ST", "postcode": "75114"}}},
{"geometry": {"type": "Point", "coordinates": [-96.4558076972, 32.627900795]}, "type": "Feature", "properties": {"collection_times": [{"days": "Mon-Fri", "time": "4:30pm"}, {"days": "Sat", "time": "9:30am"}, {"days": "Sun", "time": "Closed"}], "id": "7511400797", "name": "USPS COLLECTION BOX - PO LOBBY", "address": {"city": "CRANDALL", "state": "TX", "street": "123 S MAIN ST", "postcode": "75114"}}},
{"geometry": {"type": "Point", "coordinates": [-96.8591773383, 32.6223401655]}, "type": "Feature", "properties": {"collection_times": [{"days": "Mon-Fri", "time": "4:00pm"}, {"days": "Sat", "time": "2:00pm"}, {"days": "Sun", "time": "Closed"}], "id": "7511500797", "name": "USPS COLLECTION BOX - BLUE BOX", "address": {"city": "DESOTO", "state": "TX", "street": "123 EXECUTIVE WAY", "postcode": "75115"}}},
{"geometry": {"type": "Point", "coordinates": [-96.8495888139, 32.6212496701]}, "type": "Feature", "properties": {"collection_times": [{"days": "Mon-Fri", "time": "3:30pm"}, {"days": "Sat", "time": "2:00pm"}, {"days": "Sun", "time": "Closed"}], "id": "7511500798", "name": "USPS COLLECTION BOX - BLUE BOX", "address": {"city": "DESOTO", "state": "TX", "street": "1600 OSPREY DR", "postcode": "75115"}}},
{"geometry": {"type": "Point", "coordinates": [-96.8571468847, 32.5869707394]}, "type": "Feature", "properties": {"collection_times": [{"days": "Mon-Fri", "time": "5:00pm"}, {"days": "Sat", "time": "3:30pm"}, {"days": "Sun", "time": "Closed"}], "id": "7511500799", "name": "USPS COLLECTION BOX - PO LOBBY", "address": {"city": "DESOTO", "state": "TX", "street": "229 S HAMPTON RD", "postcode": "75115"}}},
{"geometry": {"type": "Point", "coordinates": [-96.8571468847, 32.5869707394]}, "type": "Feature", "properties": {"collection_times": [{"days": "Mon-Fri", "time": "5:00pm"}, {"days": "Sat", "time": "3:30pm"}, {"days": "Sun", "time": "Closed"}], "id": "7511500800", "name": "USPS COLLECTION BOX - BLUE BOX", "address": {"city": "DESOTO", "state": "TX", "street": "229 S HAMPTON RD", "postcode": "75115"}}},
{"geometry": {"type": "Point", "coordinates": [-96.8522061611, 32.5897295358]}, "type": "Feature", "properties": {"collection_times": [{"days": "Mon-Sat", "time": "8:30am"}, {"days": "Sun", "time": "Closed"}], "id": "7511500801", "name": "USPS COLLECTION BOX - BLUE BOX", "address": {"city": "DESOTO", "state": "TX", "street": "300 E BELT LINE RD", "postcode": "75115"}}},
{"geometry": {"type": "Point", "coordinates": [-96.8571468847, 32.5869707394]}, "type": "Feature", "properties": {"collection_times": [{"days": "Mon-Fri", "time": "5:00pm"}, {"days": "Sat", "time": "3:30pm"}, {"days": "Sun", "time": "Closed"}], "id": "7511505146", "name": "USPS COLLECTION BOX - BLUE BOX", "address": {"city": "DESOTO", "state": "TX", "street": "229 S HAMPTON RD", "postcode": "75115"}}},
{"geometry": {"type": "Point", "coordinates": [-96.8555302758, 32.6042669185]}, "type": "Feature", "properties": {"collection_times": [{"days": "Mon-Fri", "time": "3:30pm"}, {"days": "Sat", "time": "2:00pm"}, {"days": "Sun", "time": "Closed"}], "id": "7511506570", "name": "USPS COLLECTION BOX - BLUE BOX", "address": {"city": "DESOTO", "state": "TX", "street": "211 E PLEASANT RUN RD", "postcode": "75115"}}},
{"geometry": {"type": "Point", "coordinates": [-96.8570728543, 32.6009593652]}, "type": "Feature", "properties": {"collection_times": [{"days": "Mon-Sat", "time": "9:00am"}, {"days": "Sun", "time": "Closed"}], "id": "7511506626", "name": "USPS COLLECTION BOX - BLUE BOX", "address": {"city": "DESOTO", "state": "TX", "street": "712 N HAMPTON RD", "postcode": "75115"}}},
{"geometry": {"type": "Point", "coordinates": [-96.8391557578, 32.5897567438]}, "type": "Feature", "properties": {"collection_times": [{"days": "Mon-Fri", "time": "3:00pm"}, {"days": "Sat", "time": "1:30pm"}, {"days": "Sun", "time": "Closed"}], "id": "7511506627", "name": "USPS COLLECTION BOX - BLUE BOX", "address": {"city": "DESOTO", "state": "TX", "street": "757 E BELT LINE RD", "postcode": "75115"}}},
{"geometry": {"type": "Point", "coordinates": [-96.8513875535, 32.6184884512]}, "type": "Feature", "properties": {"collection_times": [{"days": "Mon-Sat", "time": "12:45pm"}, {"days": "Sun", "time": "Closed"}], "id": "7511506628", "name": "USPS COLLECTION BOX - BLUE BOX", "address": {"city": "DESOTO", "state": "TX", "street": "320 E WINTERGREEN RD", "postcode": "75115"}}},
{"geometry": {"type": "Point", "coordinates": [-96.8234305254, 32.6057238437]}, "type": "Feature", "properties": {"collection_times": [{"days": "Mon-Sat", "time": "10:30am"}, {"days": "Sun", "time": "Closed"}], "id": "7511506630", "name": "USPS COLLECTION BOX - BLUE BOX", "address": {"city": "DESOTO", "state": "TX", "street": "1001 N I 35 E STE 500", "postcode": "75115"}}},
{"geometry": {"type": "Point", "coordinates": [-96.8406119803, 32.6056663589]}, "type": "Feature", "properties": {"collection_times": [{"days": "Mon-Fri", "time": "3:00pm"}, {"days": "Sat", "time": "1:30pm"}, {"days": "Sun", "time": "Closed"}], "id": "7511506631", "name": "USPS COLLECTION BOX - BLUE BOX", "address": {"city": "DESOTO", "state": "TX", "street": "900 N POLK ST", "postcode": "75115"}}},
{"geometry": {"type": "Point", "coordinates": [-96.8407728627, 32.6062720339]}, "type": "Feature", "properties": {"collection_times": [{"days": "Mon-Fri", "time": "3:00pm"}, {"days": "Sat", "time": "1:30pm"}, {"days": "Sun", "time": "Closed"}], "id": "7511506632", "name": "USPS COLLECTION BOX - BLUE BOX", "address": {"city": "DESOTO", "state": "TX", "street": "901 N POLK ST", "postcode": "75115"}}},
{"geometry": {"type": "Point", "coordinates": [-96.891224098, 32.589636629]}, "type": "Feature", "properties": {"collection_times": [{"days": "Mon-Fri", "time": "4:00pm"}, {"days": "Sat", "time": "2:30pm"}, {"days": "Sun", "time": "Closed"}], "id": "7511506633", "name": "USPS COLLECTION BOX - BLUE BOX", "address": {"city": "DESOTO", "state": "TX", "street": "1300 W BELT LINE RD", "postcode": "75115"}}},
{"geometry": {"type": "Point", "coordinates": [-96.8518891281, 32.6199080019]}, "type": "Feature", "properties": {"collection_times": [{"days": "Mon-Fri", "time": "3:30pm"}, {"days": "Sat", "time": "2:00pm"}, {"days": "Sun", "time": "Closed"}], "id": "7511506635", "name": "USPS COLLECTION BOX - BLUE BOX", "address": {"city": "DESOTO", "state": "TX", "street": "1509 FALCON DR", "postcode": "75115"}}},
{"geometry": {"type": "Point", "coordinates": [-96.856967571, 32.6189367926]}, "type": "Feature", "properties": {"collection_times": [{"days": "Mon-Fri", "time": "3:30pm"}, {"days": "Sat", "time": "2:00pm"}, {"days": "Sun", "time": "Closed"}], "id": "7511506636", "name": "USPS COLLECTION BOX - BLUE BOX", "address": {"city": "DESOTO", "state": "TX", "street": "1500 N HAMPTON RD", "postcode": "75115"}}},
{"geometry": {"type": "Point", "coordinates": [-96.8569097043, 32.6227731019]}, "type": "Feature", "properties": {"collection_times": [{"days": "Mon-Sat", "time": "9:45am"}, {"days": "Sun", "time": "Closed"}], "id": "7511506637", "name": "USPS COLLECTION BOX - BLUE BOX", "address": {"city": "DESOTO", "state": "TX", "street": "1700 N HAMPTON RD", "postcode": "75115"}}},
{"geometry": {"type": "Point", "coordinates": [-96.8784477398, 32.6451476144]}, "type": "Feature", "properties": {"collection_times": [{"days": "Mon-Fri", "time": "3:30pm"}, {"days": "Sat", "time": "2:00pm"}, {"days": "Sun", "time": "Closed"}], "id": "7511506638", "name": "USPS COLLECTION BOX - BLUE BOX", "address": {"city": "DESOTO", "state": "TX", "street": "2727 BOLTON BOONE DR", "postcode": "75115"}}},
{"geometry": {"type": "Point", "coordinates": [-96.8572006139, 32.6046927837]}, "type": "Feature", "properties": {"collection_times": [{"days": "Mon-Sat", "time": "10:00am"}, {"days": "Sun", "time": "Closed"}], "id": "7511506639", "name": "USPS COLLECTION BOX - BLUE BOX", "address": {"city": "DESOTO", "state": "TX", "street": "911 N HAMPTON RD", "postcode": "75115"}}},
{"geometry": {"type": "Point", "coordinates": [-96.8571923332, 32.6012693005]}, "type": "Feature", "properties": {"collection_times": [{"days": "Mon-Sat", "time": "9:30am"}, {"days": "Sun", "time": "Closed"}], "id": "7511506640", "name": "USPS COLLECTION BOX - BLUE BOX", "address": {"city": "DESOTO", "state": "TX", "street": "719 N HAMPTON RD", "postcode": "75115"}}},
{"geometry": {"type": "Point", "coordinates": [-96.8571468847, 32.5869707394]}, "type": "Feature", "properties": {"collection_times": [{"days": "Mon-Fri", "time": "5:00pm"}, {"days": "Sat", "time": "3:30pm"}, {"days": "Sun", "time": "Closed"}], "id": "7511506645", "name": "USPS COLLECTION BOX - PO LOBBY", "address": {"city": "DESOTO", "state": "TX", "street": "229 S HAMPTON RD", "postcode": "75115"}}},
{"geometry": {"type": "Point", "coordinates": [-96.8571468847, 32.5869707394]}, "type": "Feature", "properties": {"collection_times": [{"days": "Mon-Fri", "time": "5:00pm"}, {"days": "Sat", "time": "3:30pm"}, {"days": "Sun", "time": "Closed"}], "id": "7511506646", "name": "USPS COLLECTION BOX - APC", "address": {"city": "DESOTO", "state": "TX", "street": "229 S HAMPTON RD", "postcode": "75115"}}},
{"geometry": {"type": "Point", "coordinates": [-96.9084672743, 32.6489700032]}, "type": "Feature", "properties": {"collection_times": [{"days": "Mon-Fri", "time": "3:00pm"}, {"days": "Sat-Sun", "time": "Closed"}], "id": "7511600000", "name": "USPS COLLECTION BOX - BLUE BOX", "address": {"city": "DUNCANVILLE", "state": "TX", "street": "100 W DANIELS ST", "postcode": "75116"}}},
{"geometry": {"type": "Point", "coordinates": [-96.9020776484, 32.6618132083]}, "type": "Feature", "properties": {"collection_times": [{"days": "Mon-Fri", "time": "3:00pm"}, {"days": "Sat", "time": "1:30pm"}, {"days": "Sun", "time": "Closed"}], "id": "7511600003", "name": "USPS COLLECTION BOX - BLUE BOX", "address": {"city": "DUNCANVILLE", "state": "TX", "street": "410 E CAMP WISDOM RD", "postcode": "75116"}}},
{"geometry": {"type": "Point", "coordinates": [-96.9101321128, 32.66179303]}, "type": "Feature", "properties": {"collection_times": [{"days": "Mon-Fri", "time": "3:00pm"}, {"days": "Sat", "time": "1:30pm"}, {"days": "Sun", "time": "Closed"}], "id": "7511600005", "name": "USPS COLLECTION BOX - BLUE BOX", "address": {"city": "DUNCANVILLE", "state": "TX", "street": "222 W CAMP WISDOM RD", "postcode": "75116"}}},
{"geometry": {"type": "Point", "coordinates": [-96.9257921235, 32.6569074095]}, "type": "Feature", "properties": {"collection_times": [{"days": "Mon-Fri", "time": "3:00pm"}, {"days": "Sat", "time": "1:00pm"}, {"days": "Sun", "time": "Closed"}], "id": "7511600007", "name": "USPS COLLECTION BOX - BLUE BOX", "address": {"city": "DUNCANVILLE", "state": "TX", "street": "515 N CEDAR RIDGE DR", "postcode": "75116"}}},
{"geometry": {"type": "Point", "coordinates": [-96.9141060553, 32.6619658996]}, "type": "Feature", "properties": {"collection_times": [{"days": "Mon-Fri", "time": "3:00pm"}, {"days": "Sat-Sun", "time": "Closed"}], "id": "7511600010", "name": "USPS COLLECTION BOX - BLUE BOX", "address": {"city": "DUNCANVILLE", "state": "TX", "street": "801 LINK DR", "postcode": "75116"}}},
{"geometry": {"type": "Point", "coordinates": [-96.9075745555, 32.6571203421]}, "type": "Feature", "properties": {"collection_times": [{"days": "Mon-Fri", "time": "3:00pm"}, {"days": "Sat", "time": "1:00pm"}, {"days": "Sun", "time": "Closed"}], "id": "7511600011", "name": "USPS COLLECTION BOX - BLUE BOX", "address": {"city": "DUNCANVILLE", "state": "TX", "street": "550 N MAIN ST", "postcode": "75116"}}},
{"geometry": {"type": "Point", "coordinates": [-96.9006062565, 32.6472417043]}, "type": "Feature", "properties": {"collection_times": [{"days": "Mon-Fri", "time": "3:00pm"}, {"days": "Sat", "time": "1:00pm"}, {"days": "Sun", "time": "Closed"}], "id": "7511600013", "name": "USPS COLLECTION BOX - BLUE BOX", "address": {"city": "DUNCANVILLE", "state": "TX", "street": "500 E WHEATLAND RD", "postcode": "75116"}}},
{"geometry": {"type": "Point", "coordinates": [-95.8865330932, 32.6980683232]}, "type": "Feature", "properties": {"collection_times": [{"days": "Mon-Fri", "time": "3:00pm"}, {"days": "Sat", "time": "7:30am"}, {"days": "Sun", "time": "Closed"}], "id": "7511700802", "name": "USPS COLLECTION BOX - BLUE BOX", "address": {"city": "EDGEWOOD", "state": "TX", "street": "105 N MAIN ST", "postcode": "75117"}}},
{"geometry": {"type": "Point", "coordinates": [-95.8865330932, 32.6980683232]}, "type": "Feature", "properties": {"collection_times": [{"days": "Mon-Fri", "time": "3:00pm"}, {"days": "Sat", "time": "7:30am"}, {"days": "Sun", "time": "Closed"}], "id": "7511700804", "name": "USPS COLLECTION BOX - PO LOBBY", "address": {"city": "EDGEWOOD", "state": "TX", "street": "105 N MAIN ST", "postcode": "75117"}}},
{"geometry": {"type": "Point", "coordinates": [-96.1654279052, 32.7221244445]}, "type": "Feature", "properties": {"collection_times": [{"days": "Mon-Fri", "time": "12:00pm"}, {"days": "Sat", "time": "9:00am"}, {"days": "Sun", "time": "Closed"}], "id": "7511800803", "name": "USPS COLLECTION BOX - BLUE BOX", "address": {"city": "ELMO", "state": "TX", "street": "10482 COUNTY ROAD 376", "postcode": "75118"}}},
{"geometry": {"type": "Point", "coordinates": [-96.1654279052, 32.7221244445]}, "type": "Feature", "properties": {"collection_times": [{"days": "Mon-Fri", "time": "12:00pm"}, {"days": "Sat", "time": "9:00am"}, {"days": "Sun", "time": "Closed"}], "id": "7511800804", "name": "USPS COLLECTION BOX - PO LOBBY", "address": {"city": "ELMO", "state": "TX", "street": "10482 COUNTY ROAD 376", "postcode": "75118"}}},
{"geometry": {"type": "Point", "coordinates": [-96.6296448547, 32.3277154535]}, "type": "Feature", "properties": {"collection_times": [{"days": "Mon-Fri", "time": "5:00pm"}, {"days": "Sat", "time": "3:00pm"}, {"days": "Sun", "time": "Closed"}], "id": "7511900806", "name": "USPS COLLECTION BOX - BLUE BOX", "address": {"city": "ENNIS", "state": "TX", "street": "205 N MCKINNEY ST", "postcode": "75119"}}},
{"geometry": {"type": "Point", "coordinates": [-96.6296448547, 32.3277154535]}, "type": "Feature", "properties": {"collection_times": [{"days": "Mon-Fri", "time": "5:00pm"}, {"days": "Sat", "time": "3:00pm"}, {"days": "Sun", "time": "Closed"}], "id": "7511905178", "name": "USPS COLLECTION BOX - BLUE BOX", "address": {"city": "ENNIS", "state": "TX", "street": "205 N MCKINNEY ST", "postcode": "75119"}}},
{"geometry": {"type": "Point", "coordinates": [-96.6296448547, 32.3277154535]}, "type": "Feature", "properties": {"collection_times": [{"days": "Mon-Fri", "time": "5:00pm"}, {"days": "Sat", "time": "3:00pm"}, {"days": "Sun", "time": "Closed"}], "id": "7511906279", "name": "USPS COLLECTION BOX - PO LOBBY", "address": {"city": "ENNIS", "state": "TX", "street": "205 N MCKINNEY ST", "postcode": "75119"}}},
{"geometry": {"type": "Point", "coordinates": [-96.6296448547, 32.3277154535]}, "type": "Feature", "properties": {"collection_times": [{"days": "Mon-Fri", "time": "5:00pm"}, {"days": "Sat", "time": "3:00pm"}, {"days": "Sun", "time": "Closed"}], "id": "7511906280", "name": "USPS COLLECTION BOX - PO LOBBY", "address": {"city": "ENNIS", "state": "TX", "street": "205 N MCKINNEY ST", "postcode": "75119"}}},
{"geometry": {"type": "Point", "coordinates": [-96.626659629, 32.3269093271]}, "type": "Feature", "properties": {"collection_times": [{"days": "Mon-Fri", "time": "4:00pm"}, {"days": "Sat-Sun", "time": "Closed"}], "id": "7511906281", "name": "USPS COLLECTION BOX - BLUE BOX", "address": {"city": "ENNIS", "state": "TX", "street": "115 W BROWN ST", "postcode": "75119"}}},
{"geometry": {"type": "Point", "coordinates": [-96.6296448547, 32.3277154535]}, "type": "Feature", "properties": {"collection_times": [{"days": "Mon-Fri", "time": "5:00pm"}, {"days": "Sat", "time": "3:00pm"}, {"days": "Sun", "time": "Closed"}], "id": "7511906282", "name": "USPS COLLECTION BOX - BLUE BOX", "address": {"city": "ENNIS", "state": "TX", "street": "205 N MCKINNEY ST", "postcode": "75119"}}},
{"geometry": {"type": "Point", "coordinates": [-96.415197553, 33.0794031685]}, "type": "Feature", "properties": {"collection_times": [{"days": "Mon-Fri", "time": "4:00pm"}, {"days": "Sat", "time": "9:30am"}, {"days": "Sun", "time": "Closed"}], "id": "7512100075", "name": "USPS COLLECTION BOX - BLUE BOX", "address": {"city": "COPEVILLE", "state": "TX", "street": "15104 COUNTY ROAD 549", "postcode": "75121"}}},
{"geometry": {"type": "Point", "coordinates": [-96.415197553, 33.0794031685]}, "type": "Feature", "properties": {"collection_times": [{"days": "Mon-Fri", "time": "11:30am"}, {"days": "Sat", "time": "9:00am"}, {"days": "Sun", "time": "Closed"}], "id": "7512100077", "name": "USPS COLLECTION BOX - PO LOBBY", "address": {"city": "COPEVILLE", "state": "TX", "street": "15104 COUNTY ROAD 549", "postcode": "75121"}}},
{"geometry": {"type": "Point", "coordinates": [-96.0061685182, 32.307964444]}, "type": "Feature", "properties": {"collection_times": [{"days": "Mon-Fri", "time": "4:30pm"}, {"days": "Sat", "time": "11:00am"}, {"days": "Sun", "time": "Closed"}], "id": "7512400817", "name": "USPS COLLECTION BOX - BLUE BOX", "address": {"city": "EUSTACE", "state": "TX", "street": "202 US HIGHWAY 175 W", "postcode": "75124"}}},
{"geometry": {"type": "Point", "coordinates": [-96.0061685182, 32.307964444]}, "type": "Feature", "properties": {"collection_times": [{"days": "Mon-Fri", "time": "4:30pm"}, {"days": "Sat", "time": "11:00am"}, {"days": "Sun", "time": "Closed"}], "id": "7512400818", "name": "USPS COLLECTION BOX - PO LOBBY", "address": {"city": "EUSTACE", "state": "TX", "street": "202 US HIGHWAY 175 W", "postcode": "75124"}}},
{"geometry": {"type": "Point", "coordinates": [-96.0061685182, 32.307964444]}, "type": "Feature", "properties": {"collection_times": [{"days": "Mon-Fri", "time": "4:30pm"}, {"days": "Sat", "time": "11:00am"}, {"days": "Sun", "time": "Closed"}], "id": "7512400819", "name": "USPS COLLECTION BOX - PO LOBBY", "address": {"city": "EUSTACE", "state": "TX", "street": "202 US HIGHWAY 175 W", "postcode": "75124"}}},
{"geometry": {"type": "Point", "coordinates": [-96.6673066366, 32.5337658987]}, "type": "Feature", "properties": {"collection_times": [{"days": "Mon-Fri", "time": "4:00pm"}, {"days": "Sat", "time": "8:30am"}, {"days": "Sun", "time": "Closed"}], "id": "7512500821", "name": "USPS COLLECTION BOX - BLUE BOX", "address": {"city": "FERRIS", "state": "TX", "street": "413 W 6TH ST", "postcode": "75125"}}},
{"geometry": {"type": "Point", "coordinates": [-96.6673066366, 32.5337658987]}, "type": "Feature", "properties": {"collection_times": [{"days": "Mon-Fri", "time": "4:00pm"}, {"days": "Sat", "time": "8:30am"}, {"days": "Sun", "time": "Closed"}], "id": "7512505180", "name": "USPS COLLECTION BOX - BLUE BOX", "address": {"city": "FERRIS", "state": "TX", "street": "413 W 6TH ST", "postcode": "75125"}}},
{"geometry": {"type": "Point", "coordinates": [-96.6673066366, 32.5337658987]}, "type": "Feature", "properties": {"collection_times": [{"days": "Mon-Fri", "time": "4:00pm"}, {"days": "Sat-Sun", "time": "Closed"}], "id": "7512506693", "name": "USPS COLLECTION BOX - PO LOBBY", "address": {"city": "FERRIS", "state": "TX", "street": "413 W 6TH ST", "postcode": "75125"}}},
{"geometry": {"type": "Point", "coordinates": [-96.4699698818, 32.748762347]}, "type": "Feature", "properties": {"collection_times": [{"days": "Mon-Fri", "time": "4:30pm"}, {"days": "Sat", "time": "12:00pm"}, {"days": "Sun", "time": "Closed"}], "id": "7512600825", "name": "USPS COLLECTION BOX - BLUE BOX", "address": {"city": "FORNEY", "state": "TX", "street": "102 E BROAD ST", "postcode": "75126"}}},
{"geometry": {"type": "Point", "coordinates": [-96.4703887892, 32.7490780568]}, "type": "Feature", "properties": {"collection_times": [{"days": "Mon-Fri", "time": "4:30pm"}, {"days": "Sat", "time": "12:00pm"}, {"days": "Sun", "time": "Closed"}], "id": "7512606559", "name": "USPS COLLECTION BOX - BLUE BOX", "address": {"city": "FORNEY", "state": "TX", "street": "102 E BROAD ST", "postcode": "75126"}}},
{"geometry": {"type": "Point", "coordinates": [-96.4703887892, 32.7490780568]}, "type": "Feature", "properties": {"collection_times": [{"days": "Mon-Fri", "time": "4:30pm"}, {"days": "Sat", "time": "12:00pm"}, {"days": "Sun", "time": "Closed"}], "id": "7512606560", "name": "USPS COLLECTION BOX - PO LOBBY", "address": {"city": "FORNEY", "state": "TX", "street": "102 E BROAD ST", "postcode": "75126"}}},
{"geometry": {"type": "Point", "coordinates": [-96.4713569753, 32.7528485498]}, "type": "Feature", "properties": {"collection_times": [{"days": "Mon-Sat", "time": "1:00pm"}, {"days": "Sun", "time": "Closed"}], "id": "7512606561", "name": "USPS COLLECTION BOX - BLUE BOX", "address": {"city": "FORNEY", "state": "TX", "street": "425 PINSON RD", "postcode": "75126"}}},
{"geometry": {"type": "Point", "coordinates": [-96.4703887892, 32.7490780568]}, "type": "Feature", "properties": {"collection_times": [{"days": "Mon-Fri", "time": "4:30pm"}, {"days": "Sat", "time": "12:00pm"}, {"days": "Sun", "time": "Closed"}], "id": "7512606562", "name": "USPS COLLECTION BOX - PO LOBBY", "address": {"city": "FORNEY", "state": "TX", "street": "102 E BROAD ST", "postcode": "75126"}}},
{"geometry": {"type": "Point", "coordinates": [-96.4703887892, 32.7490780568]}, "type": "Feature", "properties": {"collection_times": [{"days": "Mon-Fri", "time": "4:30pm"}, {"days": "Sat", "time": "12:00pm"}, {"days": "Sun", "time": "Closed"}], "id": "7512606563", "name": "USPS COLLECTION BOX - BLUE BOX", "address": {"city": "FORNEY", "state": "TX", "street": "102 E BROAD ST", "postcode": "75126"}}},
{"geometry": {"type": "Point", "coordinates": [-96.4703887892, 32.7490780568]}, "type": "Feature", "properties": {"collection_times": [{"days": "Mon-Fri", "time": "4:30pm"}, {"days": "Sat", "time": "12:00pm"}, {"days": "Sun", "time": "Closed"}], "id": "7512606564", "name": "USPS COLLECTION BOX - BLUE BOX", "address": {"city": "FORNEY", "state": "TX", "street": "102 E BROAD ST", "postcode": "75126"}}},
{"geometry": {"type": "Point", "coordinates": [-95.7784160133, 32.6896552446]}, "type": "Feature", "properties": {"collection_times": [{"days": "Mon-Fri", "time": "3:45pm"}, {"days": "Sat", "time": "8:30am"}, {"days": "Sun", "time": "Closed"}], "id": "7512700826", "name": "USPS COLLECTION BOX - BLUE BOX", "address": {"city": "FRUITVALE", "state": "TX", "street": "121 VZ COUNTY ROAD 1910", "postcode": "75127"}}},
{"geometry": {"type": "Point", "coordinates": [-95.7784160133, 32.6896552446]}, "type": "Feature", "properties": {"collection_times": [{"days": "Mon-Fri", "time": "3:45pm"}, {"days": "Sat", "time": "8:30am"}, {"days": "Sun", "time": "Closed"}], "id": "7512700827", "name": "USPS COLLECTION BOX - PO LOBBY", "address": {"city": "FRUITVALE", "state": "TX", "street": "121 VZ COUNTY ROAD 1910", "postcode": "75127"}}},
{"geometry": {"type": "Point", "coordinates": [-95.7784160133, 32.6896552446]}, "type": "Feature", "properties": {"collection_times": [{"days": "Mon-Fri", "time": "3:45pm"}, {"days": "Sat", "time": "8:30am"}, {"days": "Sun", "time": "Closed"}], "id": "7512700828", "name": "USPS COLLECTION BOX - PO LOBBY", "address": {"city": "FRUITVALE", "state": "TX", "street": "121 VZ COUNTY ROAD 1910", "postcode": "75127"}}},
{"geometry": {"type": "Point", "coordinates": [-96.3920184889, 32.9373330043]}, "type": "Feature", "properties": {"collection_times": [{"days": "Mon-Fri", "time": "4:00pm"}, {"days": "Sat", "time": "9:30am"}, {"days": "Sun", "time": "Closed"}], "id": "7513200120", "name": "USPS COLLECTION BOX - BLUE BOX", "address": {"city": "FATE", "state": "TX", "street": "909 W HOLIDAY DR", "postcode": "75132"}}},
{"geometry": {"type": "Point", "coordinates": [-96.3920184889, 32.9373330043]}, "type": "Feature", "properties": {"collection_times": [{"days": "Mon-Fri", "time": "4:00pm"}, {"days": "Sat", "time": "9:30am"}, {"days": "Sun", "time": "Closed"}], "id": "7513200122", "name": "USPS COLLECTION BOX - PO LOBBY", "address": {"city": "FATE", "state": "TX", "street": "909 W HOLIDAY DR", "postcode": "75132"}}},
{"geometry": {"type": "Point", "coordinates": [-96.3920184889, 32.9373330043]}, "type": "Feature", "properties": {"collection_times": [{"days": "Mon-Fri", "time": "4:00pm"}, {"days": "Sat", "time": "9:30am"}, {"days": "Sun", "time": "Closed"}], "id": "7513200123", "name": "USPS COLLECTION BOX - PO LOBBY", "address": {"city": "FATE", "state": "TX", "street": "909 W HOLIDAY DR", "postcode": "75132"}}},
{"geometry": {"type": "Point", "coordinates": [-96.7581287906, 32.6042119463]}, "type": "Feature", "properties": {"collection_times": [{"days": "Mon-Sat", "time": "3:00pm"}, {"days": "Sun", "time": "Closed"}], "id": "7513400000", "name": "USPS COLLECTION BOX - BLUE BOX", "address": {"city": "LANCASTER", "state": "TX", "street": "1316 N DALLAS AVE", "postcode": "75134"}}},
{"geometry": {"type": "Point", "coordinates": [-96.7667302781, 32.6167849902]}, "type": "Feature", "properties": {"collection_times": [{"days": "Mon-Sat", "time": "3:00pm"}, {"days": "Sun", "time": "Closed"}], "id": "7513400002", "name": "USPS COLLECTION BOX - BLUE BOX", "address": {"city": "LANCASTER", "state": "TX", "street": "2601 N DALLAS AVE", "postcode": "75134"}}},
{"geometry": {"type": "Point", "coordinates": [-96.2237978094, 33.0587738097]}, "type": "Feature", "properties": {"collection_times": [{"days": "Mon-Fri", "time": "4:00pm"}, {"days": "Sat", "time": "9:00am"}, {"days": "Sun", "time": "Closed"}], "id": "7513500013", "name": "USPS COLLECTION BOX - BLUE BOX", "address": {"city": "CADDO MILLS", "state": "TX", "street": "2109 STATE HIGHWAY 66", "postcode": "75135"}}},
{"geometry": {"type": "Point", "coordinates": [-96.2237978094, 33.0587738097]}, "type": "Feature", "properties": {"collection_times": [{"days": "Mon-Fri", "time": "4:00pm"}, {"days": "Sat", "time": "9:00am"}, {"days": "Sun", "time": "Closed"}], "id": "7513506276", "name": "USPS COLLECTION BOX - PO LOBBY", "address": {"city": "CADDO MILLS", "state": "TX", "street": "2109 STATE HIGHWAY 66", "postcode": "75135"}}},
{"geometry": {"type": "Point", "coordinates": [-96.9005205712, 32.6338337948]}, "type": "Feature", "properties": {"collection_times": [{"days": "Mon-Fri", "time": "3:00pm"}, {"days": "Sat-Sun", "time": "Closed"}], "id": "7513700001", "name": "USPS COLLECTION BOX - BLUE BOX", "address": {"city": "DUNCANVILLE", "state": "TX", "street": "1422 ACTON AVE", "postcode": "75137"}}},
{"geometry": {"type": "Point", "coordinates": [-96.9084400431, 32.6224914267]}, "type": "Feature", "properties": {"collection_times": [{"days": "Mon-Fri", "time": "3:00pm"}, {"days": "Sat", "time": "1:00pm"}, {"days": "Sun", "time": "Closed"}], "id": "7513700002", "name": "USPS COLLECTION BOX - BLUE BOX", "address": {"city": "DUNCANVILLE", "state": "TX", "street": "100 SILVER CREEK DR", "postcode": "75137"}}},
{"geometry": {"type": "Point", "coordinates": [-96.925489286, 32.645244617]}, "type": "Feature", "properties": {"collection_times": [{"days": "Mon-Fri", "time": "5:00pm"}, {"days": "Sat", "time": "3:30pm"}, {"days": "Sun", "time": "Closed"}], "id": "7513700003", "name": "USPS COLLECTION BOX - BLUE BOX", "address": {"city": "DUNCANVILLE", "state": "TX", "street": "711 S CEDAR RIDGE DR", "postcode": "75137"}}},
{"geometry": {"type": "Point", "coordinates": [-96.9255136491, 32.6449798562]}, "type": "Feature", "properties": {"collection_times": [{"days": "Mon-Fri", "time": "5:00pm"}, {"days": "Sat", "time": "3:30pm"}, {"days": "Sun", "time": "Closed"}], "id": "7513700005", "name": "USPS COLLECTION BOX - BLUE BOX", "address": {"city": "DUNCANVILLE", "state": "TX", "street": "711 S CEDAR RIDGE DR", "postcode": "75137"}}},
{"geometry": {"type": "Point", "coordinates": [-96.9429763055, 32.6325621227]}, "type": "Feature", "properties": {"collection_times": [{"days": "Mon-Fri", "time": "3:00pm"}, {"days": "Sat", "time": "1:00pm"}, {"days": "Sun", "time": "Closed"}], "id": "7513700007", "name": "USPS COLLECTION BOX - BLUE BOX", "address": {"city": "DUNCANVILLE", "state": "TX", "street": "1500 S CLARK RD", "postcode": "75137"}}},
{"geometry": {"type": "Point", "coordinates": [-96.8913242482, 32.644640125]}, "type": "Feature", "properties": {"collection_times": [{"days": "Mon-Fri", "time": "3:00pm"}, {"days": "Sat", "time": "1:00pm"}, {"days": "Sun", "time": "Closed"}], "id": "7513700008", "name": "USPS COLLECTION BOX - BLUE BOX", "address": {"city": "DUNCANVILLE", "state": "TX", "street": "800 S COCKRELL HILL RD", "postcode": "75137"}}},
{"geometry": {"type": "Point", "coordinates": [-96.925489286, 32.645244617]}, "type": "Feature", "properties": {"collection_times": [{"days": "Mon-Fri", "time": "5:00pm"}, {"days": "Sat", "time": "3:00pm"}, {"days": "Sun", "time": "Closed"}], "id": "7513700009", "name": "USPS COLLECTION BOX - PO LOBBY", "address": {"city": "DUNCANVILLE", "state": "TX", "street": "711 S CEDAR RIDGE DR", "postcode": "75137"}}},
{"geometry": {"type": "Point", "coordinates": [-96.925489286, 32.645244617]}, "type": "Feature", "properties": {"collection_times": [{"days": "Mon-Fri", "time": "5:00pm"}, {"days": "Sat", "time": "3:00pm"}, {"days": "Sun", "time": "Closed"}], "id": "7513700010", "name": "USPS COLLECTION BOX - PO LOBBY", "address": {"city": "DUNCANVILLE", "state": "TX", "street": "711 S CEDAR RIDGE DR", "postcode": "75137"}}},
{"geometry": {"type": "Point", "coordinates": [-96.925489286, 32.645244617]}, "type": "Feature", "properties": {"collection_times": [{"days": "Mon-Fri", "time": "5:00pm"}, {"days": "Sat", "time": "3:00pm"}, {"days": "Sun", "time": "Closed"}], "id": "7513700012", "name": "USPS COLLECTION BOX - APC", "address": {"city": "DUNCANVILLE", "state": "TX", "street": "711 S CEDAR RIDGE DR", "postcode": "75137"}}},
{"geometry": {"type": "Point", "coordinates": [-95.7084475967, 32.6735221523]}, "type": "Feature", "properties": {"collection_times": [{"days": "Mon-Fri", "time": "4:30pm"}, {"days": "Sat", "time": "1:00pm"}, {"days": "Sun", "time": "Closed"}], "id": "7514000847", "name": "USPS COLLECTION BOX - BLUE BOX", "address": {"city": "GRAND SALINE", "state": "TX", "street": "200 N GREEN ST", "postcode": "75140"}}},
{"geometry": {"type": "Point", "coordinates": [-95.7084475967, 32.6735221523]}, "type": "Feature", "properties": {"collection_times": [{"days": "Mon-Fri", "time": "4:30pm"}, {"days": "Sat", "time": "1:00pm"}, {"days": "Sun", "time": "Closed"}], "id": "7514000848", "name": "USPS COLLECTION BOX - BLUE BOX", "address": {"city": "GRAND SALINE", "state": "TX", "street": "200 N GREEN ST", "postcode": "75140"}}},
{"geometry": {"type": "Point", "coordinates": [-95.7084475967, 32.6735221523]}, "type": "Feature", "properties": {"collection_times": [{"days": "Mon-Fri", "time": "4:30pm"}, {"days": "Sat-Sun", "time": "Closed"}], "id": "7514000849", "name": "USPS COLLECTION BOX - PO LOBBY", "address": {"city": "GRAND SALINE", "state": "TX", "street": "200 N GREEN ST", "postcode": "75140"}}},
{"geometry": {"type": "Point", "coordinates": [-95.7084475967, 32.6735221523]}, "type": "Feature", "properties": {"collection_times": [{"days": "Mon-Fri", "time": "4:30pm"}, {"days": "Sat-Sun", "time": "Closed"}], "id": "7514000850", "name": "USPS COLLECTION BOX - PO LOBBY", "address": {"city": "GRAND SALINE", "state": "TX", "street": "200 N GREEN ST", "postcode": "75140"}}},
{"geometry": {"type": "Point", "coordinates": [-96.7194215995, 32.6488868717]}, "type": "Feature", "properties": {"collection_times": [{"days": "Mon-Fri", "time": "5:00pm"}, {"days": "Sat", "time": "8:00am"}, {"days": "Sun", "time": "Closed"}], "id": "7514100849", "name": "USPS COLLECTION BOX - PO LOBBY", "address": {"city": "HUTCHINS", "state": "TX", "street": "720 LANCASTER HUTCHINS RD", "postcode": "75141"}}},
{"geometry": {"type": "Point", "coordinates": [-96.7093377813, 32.6486341522]}, "type": "Feature", "properties": {"collection_times": [{"days": "Mon-Sat", "time": "12:00pm"}, {"days": "Sun", "time": "Closed"}], "id": "7514100850", "name": "USPS COLLECTION BOX - BLUE BOX", "address": {"city": "HUTCHINS", "state": "TX", "street": "401 E PALESTINE ST", "postcode": "75141"}}},
{"geometry": {"type": "Point", "coordinates": [-96.7194215995, 32.6488868717]}, "type": "Feature", "properties": {"collection_times": [{"days": "Mon-Fri", "time": "5:00pm"}, {"days": "Sat", "time": "8:00am"}, {"days": "Sun", "time": "Closed"}], "id": "7514100851", "name": "USPS COLLECTION BOX - BLUE BOX", "address": {"city": "HUTCHINS", "state": "TX", "street": "720 LANCASTER HUTCHINS RD", "postcode": "75141"}}},
{"geometry": {"type": "Point", "coordinates": [-96.7194215995, 32.6488868717]}, "type": "Feature", "properties": {"collection_times": [{"days": "Mon-Fri", "time": "5:00pm"}, {"days": "Sat", "time": "8:00am"}, {"days": "Sun", "time": "Closed"}], "id": "7514105181", "name": "USPS COLLECTION BOX - BLUE BOX", "address": {"city": "HUTCHINS", "state": "TX", "street": "720 LANCASTER HUTCHINS RD", "postcode": "75141"}}},
{"geometry": {"type": "Point", "coordinates": [-96.7194215995, 32.6488868717]}, "type": "Feature", "properties": {"collection_times": [{"days": "Mon-Fri", "time": "5:00pm"}, {"days": "Sat", "time": "8:00am"}, {"days": "Sun", "time": "Closed"}], "id": "7514105182", "name": "USPS COLLECTION BOX - PO LOBBY", "address": {"city": "HUTCHINS", "state": "TX", "street": "720 LANCASTER HUTCHINS RD", "postcode": "75141"}}},
{"geometry": {"type": "Point", "coordinates": [-96.3125058752, 32.5890964368]}, "type": "Feature", "properties": {"collection_times": [{"days": "Mon-Sat", "time": "9:00am"}, {"days": "Sun", "time": "Closed"}], "id": "7514200853", "name": "USPS COLLECTION BOX - BLUE BOX", "address": {"city": "KAUFMAN", "state": "TX", "street": "101 N HOUSTON ST", "postcode": "75142"}}},
{"geometry": {"type": "Point", "coordinates": [-96.247198345, 32.5659474936]}, "type": "Feature", "properties": {"collection_times": [{"days": "Mon-Fri", "time": "10:00am"}, {"days": "Sat-Sun", "time": "Closed"}], "id": "7514200854", "name": "USPS COLLECTION BOX - BLUE BOX", "address": {"city": "KAUFMAN", "state": "TX", "street": "874 ED HALL DR", "postcode": "75142"}}},
{"geometry": {"type": "Point", "coordinates": [-96.3090127882, 32.5755357082]}, "type": "Feature", "properties": {"collection_times": [{"days": "Mon-Fri", "time": "4:30pm"}, {"days": "Sat", "time": "3:30pm"}, {"days": "Sun", "time": "Closed"}], "id": "7514200858", "name": "USPS COLLECTION BOX - BLUE BOX", "address": {"city": "KAUFMAN", "state": "TX", "street": "2231 S WASHINGTON ST", "postcode": "75142"}}},
{"geometry": {"type": "Point", "coordinates": [-96.3090127882, 32.5755357082]}, "type": "Feature", "properties": {"collection_times": [{"days": "Mon-Fri", "time": "4:30pm"}, {"days": "Sat", "time": "3:30pm"}, {"days": "Sun", "time": "Closed"}], "id": "7514205182", "name": "USPS COLLECTION BOX - BLUE BOX", "address": {"city": "KAUFMAN", "state": "TX", "street": "2231 S WASHINGTON ST", "postcode": "75142"}}},
{"geometry": {"type": "Point", "coordinates": [-96.3090127882, 32.5755357082]}, "type": "Feature", "properties": {"collection_times": [{"days": "Mon-Fri", "time": "4:30pm"}, {"days": "Sat", "time": "3:30pm"}, {"days": "Sun", "time": "Closed"}], "id": "7514205183", "name": "USPS COLLECTION BOX - PO LOBBY", "address": {"city": "KAUFMAN", "state": "TX", "street": "2231 S WASHINGTON ST", "postcode": "75142"}}},
{"geometry": {"type": "Point", "coordinates": [-96.3090127882, 32.5755357082]}, "type": "Feature", "properties": {"collection_times": [{"days": "Mon-Fri", "time": "4:30pm"}, {"days": "Sat", "time": "3:30pm"}, {"days": "Sun", "time": "Closed"}], "id": "7514205184", "name": "USPS COLLECTION BOX - PO LOBBY", "address": {"city": "KAUFMAN", "state": "TX", "street": "2231 S WASHINGTON ST", "postcode": "75142"}}},
{"geometry": {"type": "Point", "coordinates": [-96.3090446706, 32.5890383252]}, "type": "Feature", "properties": {"collection_times": [{"days": "Mon-Sat", "time": "12:30pm"}, {"days": "Sun", "time": "Closed"}], "id": "7514205185", "name": "USPS COLLECTION BOX - BLUE BOX", "address": {"city": "KAUFMAN", "state": "TX", "street": "100 N WASHINGTON ST", "postcode": "75142"}}},
{"geometry": {"type": "Point", "coordinates": [-96.2314074691, 32.442444067]}, "type": "Feature", "properties": {"collection_times": [{"days": "Mon-Fri", "time": "4:30pm"}, {"days": "Sat", "time": "10:00am"}, {"days": "Sun", "time": "Closed"}], "id": "7514300864", "name": "USPS COLLECTION BOX - PO LOBBY", "address": {"city": "KEMP", "state": "TX", "street": "101 W 9TH ST", "postcode": "75143"}}},
{"geometry": {"type": "Point", "coordinates": [-96.2314074691, 32.442444067]}, "type": "Feature", "properties": {"collection_times": [{"days": "Mon-Fri", "time": "4:30pm"}, {"days": "Sat", "time": "10:00am"}, {"days": "Sun", "time": "Closed"}], "id": "7514300865", "name": "USPS COLLECTION BOX - BLUE BOX", "address": {"city": "KEMP", "state": "TX", "street": "101 W 9TH ST", "postcode": "75143"}}},
{"geometry": {"type": "Point", "coordinates": [-96.2052825477, 32.3230940616]}, "type": "Feature", "properties": {"collection_times": [{"days": "Mon-Sat", "time": "11:00am"}, {"days": "Sun", "time": "Closed"}], "id": "7514305813", "name": "USPS COLLECTION BOX - BLUE BOX", "address": {"city": "KEMP", "state": "TX", "street": "422 E CEDAR CREEK PKWY", "postcode": "75143"}}},
{"geometry": {"type": "Point", "coordinates": [-96.1873330833, 32.2888177499]}, "type": "Feature", "properties": {"collection_times": [{"days": "Mon-Sat", "time": "11:00am"}, {"days": "Sun", "time": "Closed"}], "id": "7514306001", "name": "USPS COLLECTION BOX - BLUE BOX", "address": {"city": "KEMP", "state": "TX", "street": "701 N TOOL DR", "postcode": "75143"}}},
{"geometry": {"type": "Point", "coordinates": [-96.2052825477, 32.3230940616]}, "type": "Feature", "properties": {"collection_times": [{"days": "Mon-Sat", "time": "11:00am"}, {"days": "Sun", "time": "Closed"}], "id": "7514306002", "name": "USPS COLLECTION BOX - BLUE BOX", "address": {"city": "KEMP", "state": "TX", "street": "422 E CEDAR CREEK PKWY", "postcode": "75143"}}},
{"geometry": {"type": "Point", "coordinates": [-96.2403391629, 32.1314912124]}, "type": "Feature", "properties": {"collection_times": [{"days": "Mon-Sat", "time": "1:30pm"}, {"days": "Sun", "time": "Closed"}], "id": "7514400868", "name": "USPS COLLECTION BOX - BLUE BOX", "address": {"city": "KERENS", "state": "TX", "street": "1001 NW 2ND ST", "postcode": "75144"}}},
{"geometry": {"type": "Point", "coordinates": [-96.2277022802, 32.1313083333]}, "type": "Feature", "properties": {"collection_times": [{"days": "Mon-Fri", "time": "4:30pm"}, {"days": "Sat", "time": "11:00am"}, {"days": "Sun", "time": "Closed"}], "id": "7514400869", "name": "USPS COLLECTION BOX - BLUE BOX", "address": {"city": "KERENS", "state": "TX", "street": "106 S COLKET ST", "postcode": "75144"}}},
{"geometry": {"type": "Point", "coordinates": [-96.2277022802, 32.1313083333]}, "type": "Feature", "properties": {"collection_times": [{"days": "Mon-Fri", "time": "4:30pm"}, {"days": "Sat", "time": "8:30am"}, {"days": "Sun", "time": "Closed"}], "id": "7514400870", "name": "USPS COLLECTION BOX - PO LOBBY", "address": {"city": "KERENS", "state": "TX", "street": "106 S COLKET ST", "postcode": "75144"}}},
{"geometry": {"type": "Point", "coordinates": [-96.7877588359, 32.6041349358]}, "type": "Feature", "properties": {"collection_times": [{"days": "Mon-Sat", "time": "11:00am"}, {"days": "Sun", "time": "Closed"}], "id": "7514600874", "name": "USPS COLLECTION BOX - BLUE BOX", "address": {"city": "LANCASTER", "state": "TX", "street": "1400 W PLEASANT RUN RD", "postcode": "75146"}}},
{"geometry": {"type": "Point", "coordinates": [-96.7541815487, 32.5941234505]}, "type": "Feature", "properties": {"collection_times": [{"days": "Mon-Fri", "time": "5:00pm"}, {"days": "Sat", "time": "3:00pm"}, {"days": "Sun", "time": "Closed"}], "id": "7514600877", "name": "USPS COLLECTION BOX - BLUE BOX", "address": {"city": "LANCASTER", "state": "TX", "street": "200 N STATE ST", "postcode": "75146"}}},
{"geometry": {"type": "Point", "coordinates": [-96.8189455078, 32.6040648545]}, "type": "Feature", "properties": {"collection_times": [{"days": "Mon-Sat", "time": "3:00pm"}, {"days": "Sun", "time": "Closed"}], "id": "7514600880", "name": "USPS COLLECTION BOX - BLUE BOX", "address": {"city": "LANCASTER", "state": "TX", "street": "3200 W PLEASANT RUN RD", "postcode": "75146"}}},
{"geometry": {"type": "Point", "coordinates": [-96.8189455078, 32.6040648545]}, "type": "Feature", "properties": {"collection_times": [{"days": "Mon-Sat", "time": "3:00pm"}, {"days": "Sun", "time": "Closed"}], "id": "7514600882", "name": "USPS COLLECTION BOX - BLUE BOX", "address": {"city": "LANCASTER", "state": "TX", "street": "3200 W PLEASANT RUN RD", "postcode": "75146"}}},
{"geometry": {"type": "Point", "coordinates": [-96.7541815487, 32.5941234505]}, "type": "Feature", "properties": {"collection_times": [{"days": "Mon-Fri", "time": "5:00pm"}, {"days": "Sat", "time": "3:00pm"}, {"days": "Sun", "time": "Closed"}], "id": "7514605243", "name": "USPS COLLECTION BOX - BLUE BOX", "address": {"city": "LANCASTER", "state": "TX", "street": "200 N STATE ST", "postcode": "75146"}}},
{"geometry": {"type": "Point", "coordinates": [-96.7541815487, 32.5941234505]}, "type": "Feature", "properties": {"collection_times": [{"days": "Mon-Fri", "time": "5:00pm"}, {"days": "Sat", "time": "3:00pm"}, {"days": "Sun", "time": "Closed"}], "id": "7514605245", "name": "USPS COLLECTION BOX - PO LOBBY", "address": {"city": "LANCASTER", "state": "TX", "street": "200 N STATE ST", "postcode": "75146"}}},
{"geometry": {"type": "Point", "coordinates": [-96.7541815487, 32.5941234505]}, "type": "Feature", "properties": {"collection_times": [{"days": "Mon-Fri", "time": "5:00pm"}, {"days": "Sat", "time": "3:00pm"}, {"days": "Sun", "time": "Closed"}], "id": "7514605247", "name": "USPS COLLECTION BOX - PO LOBBY", "address": {"city": "LANCASTER", "state": "TX", "street": "200 N STATE ST", "postcode": "75146"}}},
{"geometry": {"type": "Point", "coordinates": [-96.1329887755, 32.3309716936]}, "type": "Feature", "properties": {"collection_times": [{"days": "Mon-Sat", "time": "11:00am"}, {"days": "Sun", "time": "Closed"}], "id": "7514700886", "name": "USPS COLLECTION BOX - BLUE BOX", "address": {"city": "GUN BARREL CITY", "state": "TX", "street": "1200 W MAIN ST", "postcode": "75147"}}},
{"geometry": {"type": "Point", "coordinates": [-96.1135116539, 32.3308644351]}, "type": "Feature", "properties": {"collection_times": [{"days": "Mon-Sat", "time": "11:30am"}, {"days": "Sun", "time": "Closed"}], "id": "7514700888", "name": "USPS COLLECTION BOX - BLUE BOX", "address": {"city": "GUN BARREL CITY", "state": "TX", "street": "135 W MAIN ST", "postcode": "75147"}}},
{"geometry": {"type": "Point", "coordinates": [-96.1407334559, 32.3309707631]}, "type": "Feature", "properties": {"collection_times": [{"days": "Mon-Sat", "time": "11:30am"}, {"days": "Sun", "time": "Closed"}], "id": "7514700889", "name": "USPS COLLECTION BOX - BLUE BOX", "address": {"city": "GUN BARREL CITY", "state": "TX", "street": "1716 W MAIN ST", "postcode": "75147"}}},
{"geometry": {"type": "Point", "coordinates": [-96.1033655607, 32.3589279452]}, "type": "Feature", "properties": {"collection_times": [{"days": "Mon-Fri", "time": "4:30pm"}, {"days": "Sat", "time": "12:00pm"}, {"days": "Sun", "time": "Closed"}], "id": "7514700890", "name": "USPS COLLECTION BOX - BLUE BOX", "address": {"city": "GUN BARREL CITY", "state": "TX", "street": "1401 S 3RD ST", "postcode": "75147"}}},
{"geometry": {"type": "Point", "coordinates": [-96.1033655607, 32.3589279452]}, "type": "Feature", "properties": {"collection_times": [{"days": "Mon-Fri", "time": "4:30pm"}, {"days": "Sat", "time": "12:00pm"}, {"days": "Sun", "time": "Closed"}], "id": "7514705925", "name": "USPS COLLECTION BOX - PO LOBBY", "address": {"city": "GUN BARREL CITY", "state": "TX", "street": "1401 S 3RD ST", "postcode": "75147"}}},
{"geometry": {"type": "Point", "coordinates": [-96.1033655607, 32.3589279452]}, "type": "Feature", "properties": {"collection_times": [{"days": "Mon-Fri", "time": "4:30pm"}, {"days": "Sat", "time": "12:00pm"}, {"days": "Sun", "time": "Closed"}], "id": "7514706203", "name": "USPS COLLECTION BOX - PO LOBBY", "address": {"city": "GUN BARREL CITY", "state": "TX", "street": "1401 S 3RD ST", "postcode": "75147"}}},
{"geometry": {"type": "Point", "coordinates": [-96.1003878962, 32.3662035123]}, "type": "Feature", "properties": {"collection_times": [{"days": "Mon-Sat", "time": "10:00am"}, {"days": "Sun", "time": "Closed"}], "id": "7514706204", "name": "USPS COLLECTION BOX - BLUE BOX", "address": {"city": "GUN BARREL CITY", "state": "TX", "street": "131 E MARKET ST", "postcode": "75147"}}},
{"geometry": {"type": "Point", "coordinates": [-96.012037184, 32.1673758782]}, "type": "Feature", "properties": {"collection_times": [{"days": "Mon-Sat", "time": "1:00pm"}, {"days": "Sun", "time": "Closed"}], "id": "7514800893", "name": "USPS COLLECTION BOX - BLUE BOX", "address": {"city": "MALAKOFF", "state": "TX", "street": "101 S TERRY ST", "postcode": "75148"}}},
{"geometry": {"type": "Point", "coordinates": [-96.0276002303, 32.1684874346]}, "type": "Feature", "properties": {"collection_times": [{"days": "Mon-Fri", "time": "4:30pm"}, {"days": "Sat", "time": "9:00am"}, {"days": "Sun", "time": "Closed"}], "id": "7514800894", "name": "USPS COLLECTION BOX - BLUE BOX", "address": {"city": "MALAKOFF", "state": "TX", "street": "609 W ROYALL BLVD", "postcode": "75148"}}},
{"geometry": {"type": "Point", "coordinates": [-96.0223042853, 32.2267305264]}, "type": "Feature", "properties": {"collection_times": [{"days": "Mon-Sat", "time": "11:00am"}, {"days": "Sun", "time": "Closed"}], "id": "7514807360", "name": "USPS COLLECTION BOX - BLUE BOX", "address": {"city": "MALAKOFF", "state": "TX", "street": "14388 ALAMO RD", "postcode": "75148"}}},
{"geometry": {"type": "Point", "coordinates": [-96.0276002303, 32.1684874346]}, "type": "Feature", "properties": {"collection_times": [{"days": "Mon-Fri", "time": "4:30pm"}, {"days": "Sat", "time": "9:00am"}, {"days": "Sun", "time": "Closed"}], "id": "7514807362", "name": "USPS COLLECTION BOX - PO LOBBY", "address": {"city": "MALAKOFF", "state": "TX", "street": "609 W ROYALL BLVD", "postcode": "75148"}}},
{"geometry": {"type": "Point", "coordinates": [-96.0276002303, 32.1684874346]}, "type": "Feature", "properties": {"collection_times": [{"days": "Mon-Fri", "time": "4:30pm"}, {"days": "Sat", "time": "9:00am"}, {"days": "Sun", "time": "Closed"}], "id": "7514807363", "name": "USPS COLLECTION BOX - PO LOBBY", "address": {"city": "MALAKOFF", "state": "TX", "street": "609 W ROYALL BLVD", "postcode": "75148"}}},
{"geometry": {"type": "Point", "coordinates": [-96.6225779935, 32.7487353337]}, "type": "Feature", "properties": {"collection_times": [{"days": "Mon-Fri", "time": "1:00pm"}, {"days": "Sat-Sun", "time": "Closed"}], "id": "7514900898", "name": "USPS COLLECTION BOX - BLUE BOX", "address": {"city": "MESQUITE", "state": "TX", "street": "1701 W BRUTON RD", "postcode": "75149"}}},
{"geometry": {"type": "Point", "coordinates": [-96.6071230887, 32.7877059993]}, "type": "Feature", "properties": {"collection_times": [{"days": "Mon-Fri", "time": "1:00pm"}, {"days": "Sat-Sun", "time": "Closed"}], "id": "7514900907", "name": "USPS COLLECTION BOX - BLUE BOX", "address": {"city": "MESQUITE", "state": "TX", "street": "1835 N GALLOWAY AVE", "postcode": "75149"}}},
{"geometry": {"type": "Point", "coordinates": [-96.5966243279, 32.7666209387]}, "type": "Feature", "properties": {"collection_times": [{"days": "Mon-Fri", "time": "3:00pm"}, {"days": "Sat", "time": "1:00pm"}, {"days": "Sun", "time": "Closed"}], "id": "7514900916", "name": "USPS COLLECTION BOX - BLUE BOX", "address": {"city": "MESQUITE", "state": "TX", "street": "200 W MAIN ST", "postcode": "75149"}}},
{"geometry": {"type": "Point", "coordinates": [-96.5979279486, 32.7757167101]}, "type": "Feature", "properties": {"collection_times": [{"days": "Mon-Fri", "time": "5:00pm"}, {"days": "Sat", "time": "1:00pm"}, {"days": "Sun", "time": "Closed"}], "id": "7514900920", "name": "USPS COLLECTION BOX - PO LOBBY", "address": {"city": "MESQUITE", "state": "TX", "street": "120 E GRUBB DR", "postcode": "75149"}}},
{"geometry": {"type": "Point", "coordinates": [-96.6009929953, 32.7824619422]}, "type": "Feature", "properties": {"collection_times": [{"days": "Mon-Sat", "time": "11:00am"}, {"days": "Sun", "time": "Closed"}], "id": "7514900923", "name": "USPS COLLECTION BOX - BLUE BOX", "address": {"city": "MESQUITE", "state": "TX", "street": "1336 N GALLOWAY AVE", "postcode": "75149"}}},
{"geometry": {"type": "Point", "coordinates": [-96.5979279486, 32.7757167101]}, "type": "Feature", "properties": {"collection_times": [{"days": "Mon-Fri", "time": "5:00pm"}, {"days": "Sat", "time": "1:00pm"}, {"days": "Sun", "time": "Closed"}], "id": "7514905262", "name": "USPS COLLECTION BOX - BLUE BOX", "address": {"city": "MESQUITE", "state": "TX", "street": "120 E GRUBB DR", "postcode": "75149"}}},
{"geometry": {"type": "Point", "coordinates": [-96.6307952805, 32.7682309458]}, "type": "Feature", "properties": {"collection_times": [{"days": "Mon-Sat", "time": "1:00pm"}, {"days": "Sun", "time": "Closed"}], "id": "7514906760", "name": "USPS COLLECTION BOX - BLUE BOX", "address": {"city": "MESQUITE", "state": "TX", "street": "2033 MILITARY PKWY", "postcode": "75149"}}},
{"geometry": {"type": "Point", "coordinates": [-96.5833361498, 32.7643118028]}, "type": "Feature", "properties": {"collection_times": [{"days": "Mon-Sat", "time": "1:00pm"}, {"days": "Sun", "time": "Closed"}], "id": "7514906761", "name": "USPS COLLECTION BOX - BLUE BOX", "address": {"city": "MESQUITE", "state": "TX", "street": "1200 E DAVIS ST", "postcode": "75149"}}},
{"geometry": {"type": "Point", "coordinates": [-96.5979279486, 32.7757167101]}, "type": "Feature", "properties": {"collection_times": [{"days": "Mon-Fri", "time": "5:00pm"}, {"days": "Sat", "time": "1:00pm"}, {"days": "Sun", "time": "Closed"}], "id": "7514907278", "name": "USPS COLLECTION BOX - BLUE BOX", "address": {"city": "MESQUITE", "state": "TX", "street": "120 E GRUBB DR", "postcode": "75149"}}},
{"geometry": {"type": "Point", "coordinates": [-96.5967378919, 32.7471588978]}, "type": "Feature", "properties": {"collection_times": [{"days": "Mon-Sat", "time": "1:00pm"}, {"days": "Sun", "time": "Closed"}], "id": "7514907282", "name": "USPS COLLECTION BOX - BLUE BOX", "address": {"city": "MESQUITE", "state": "TX", "street": "1433 S BELT LINE RD", "postcode": "75149"}}},
{"geometry": {"type": "Point", "coordinates": [-96.5979279486, 32.7757167101]}, "type": "Feature", "properties": {"collection_times": [{"days": "Mon-Fri", "time": "5:00pm"}, {"days": "Sat", "time": "1:00pm"}, {"days": "Sun", "time": "Closed"}], "id": "7514907283", "name": "USPS COLLECTION BOX - PO LOBBY", "address": {"city": "MESQUITE", "state": "TX", "street": "120 E GRUBB DR", "postcode": "75149"}}},
{"geometry": {"type": "Point", "coordinates": [-96.5979279486, 32.7757167101]}, "type": "Feature", "properties": {"collection_times": [{"days": "Mon-Fri", "time": "5:00pm"}, {"days": "Sat", "time": "1:00pm"}, {"days": "Sun", "time": "Closed"}], "id": "7514907286", "name": "USPS COLLECTION BOX - APC", "address": {"city": "MESQUITE", "state": "TX", "street": "120 E GRUBB DR", "postcode": "75149"}}},
{"geometry": {"type": "Point", "coordinates": [-96.6479493685, 32.8251714926]}, "type": "Feature", "properties": {"collection_times": [{"days": "Mon-Fri", "time": "3:00pm"}, {"days": "Sat", "time": "1:00pm"}, {"days": "Sun", "time": "Closed"}], "id": "7515000001", "name": "USPS COLLECTION BOX - BLUE BOX", "address": {"city": "MESQUITE", "state": "TX", "street": "4600 GUS THOMASSON RD", "postcode": "75150"}}},
{"geometry": {"type": "Point", "coordinates": [-96.6341334182, 32.833895422]}, "type": "Feature", "properties": {"collection_times": [{"days": "Mon-Fri", "time": "1:00pm"}, {"days": "Sat-Sun", "time": "Closed"}], "id": "7515000002", "name": "USPS COLLECTION BOX - BLUE BOX", "address": {"city": "MESQUITE", "state": "TX", "street": "2301 OATES DR", "postcode": "75150"}}},
{"geometry": {"type": "Point", "coordinates": [-96.6213316088, 32.8107666013]}, "type": "Feature", "properties": {"collection_times": [{"days": "Mon-Sat", "time": "1:00pm"}, {"days": "Sun", "time": "Closed"}], "id": "7515000006", "name": "USPS COLLECTION BOX - BLUE BOX", "address": {"city": "MESQUITE", "state": "TX", "street": "1638 N TOWN EAST BLVD", "postcode": "75150"}}},
{"geometry": {"type": "Point", "coordinates": [-96.6170895179, 32.792989094]}, "type": "Feature", "properties": {"collection_times": [{"days": "Mon-Sat", "time": "1:00pm"}, {"days": "Sun", "time": "Closed"}], "id": "7515000007", "name": "USPS COLLECTION BOX - BLUE BOX", "address": {"city": "MESQUITE", "state": "TX", "street": "1331 HIGHWAY 80 E", "postcode": "75150"}}},
{"geometry": {"type": "Point", "coordinates": [-96.619018924, 32.8108837143]}, "type": "Feature", "properties": {"collection_times": [{"days": "Mon-Sat", "time": "1:00pm"}, {"days": "Sun", "time": "Closed"}], "id": "7515000008", "name": "USPS COLLECTION BOX - BLUE BOX", "address": {"city": "MESQUITE", "state": "TX", "street": "1515 N TOWN EAST BLVD", "postcode": "75150"}}},
{"geometry": {"type": "Point", "coordinates": [-96.6117212502, 32.7958944412]}, "type": "Feature", "properties": {"collection_times": [{"days": "Mon-Fri", "time": "3:00pm"}, {"days": "Sat", "time": "1:00pm"}, {"days": "Sun", "time": "Closed"}], "id": "7515000012", "name": "USPS COLLECTION BOX - BLUE BOX", "address": {"city": "MESQUITE", "state": "TX", "street": "2110 N GALLOWAY AVE", "postcode": "75150"}}},
{"geometry": {"type": "Point", "coordinates": [-96.6215374437, 32.800082116]}, "type": "Feature", "properties": {"collection_times": [{"days": "Mon-Fri", "time": "3:00pm"}, {"days": "Sat", "time": "1:00pm"}, {"days": "Sun", "time": "Closed"}], "id": "7515000015", "name": "USPS COLLECTION BOX - BLUE BOX", "address": {"city": "MESQUITE", "state": "TX", "street": "2701 FRANKLIN DR", "postcode": "75150"}}},
{"geometry": {"type": "Point", "coordinates": [-96.6477289766, 32.8137796497]}, "type": "Feature", "properties": {"collection_times": [{"days": "Mon-Sat", "time": "11:30am"}, {"days": "Sun", "time": "Closed"}], "id": "7515000018", "name": "USPS COLLECTION BOX - BLUE BOX", "address": {"city": "MESQUITE", "state": "TX", "street": "3201 US HIGHWAY 67", "postcode": "75150"}}},
{"geometry": {"type": "Point", "coordinates": [-96.6523308926, 32.8108033127]}, "type": "Feature", "properties": {"collection_times": [{"days": "Mon-Sat", "time": "11:00am"}, {"days": "Sun", "time": "Closed"}], "id": "7515000019", "name": "USPS COLLECTION BOX - BLUE BOX", "address": {"city": "MESQUITE", "state": "TX", "street": "3500 US HIGHWAY 67", "postcode": "75150"}}},
{"geometry": {"type": "Point", "coordinates": [-96.6536323033, 32.7956661301]}, "type": "Feature", "properties": {"collection_times": [{"days": "Mon-Fri", "time": "3:00pm"}, {"days": "Sat", "time": "1:00pm"}, {"days": "Sun", "time": "Closed"}], "id": "7515000021", "name": "USPS COLLECTION BOX - BLUE BOX", "address": {"city": "MESQUITE", "state": "TX", "street": "3801 N TOWN EAST BLVD", "postcode": "75150"}}},
{"geometry": {"type": "Point", "coordinates": [-96.642657993, 32.8207022737]}, "type": "Feature", "properties": {"collection_times": [{"days": "Mon-Fri", "time": "12:00pm"}, {"days": "Sat-Sun", "time": "Closed"}], "id": "7515000024", "name": "USPS COLLECTION BOX - BLUE BOX", "address": {"city": "MESQUITE", "state": "TX", "street": "4200 GUS THOMASSON RD", "postcode": "75150"}}},
{"geometry": {"type": "Point", "coordinates": [-96.6294463448, 32.8158408447]}, "type": "Feature", "properties": {"collection_times": [{"days": "Mon-Fri", "time": "5:00pm"}, {"days": "Sat", "time": "1:00pm"}, {"days": "Sun", "time": "Closed"}], "id": "7515000030", "name": "USPS COLLECTION BOX - BLUE BOX", "address": {"city": "MESQUITE", "state": "TX", "street": "3500 GUS THOMASSON RD STE 35", "postcode": "75150"}}},
{"geometry": {"type": "Point", "coordinates": [-96.6294463448, 32.8158408447]}, "type": "Feature", "properties": {"collection_times": [{"days": "Mon-Fri", "time": "5:00pm"}, {"days": "Sat", "time": "1:00pm"}, {"days": "Sun", "time": "Closed"}], "id": "7515000031", "name": "USPS COLLECTION BOX - BLUE BOX", "address": {"city": "MESQUITE", "state": "TX", "street": "3500 GUS THOMASSON RD STE 35", "postcode": "75150"}}},
{"geometry": {"type": "Point", "coordinates": [-96.6294463448, 32.8158408447]}, "type": "Feature", "properties": {"collection_times": [{"days": "Mon-Fri", "time": "5:00pm"}, {"days": "Sat", "time": "1:00pm"}, {"days": "Sun", "time": "Closed"}], "id": "7515000032", "name": "USPS COLLECTION BOX - BLUE BOX", "address": {"city": "MESQUITE", "state": "TX", "street": "3500 GUS THOMASSON RD STE 35", "postcode": "75150"}}},
{"geometry": {"type": "Point", "coordinates": [-96.6294463448, 32.8158408447]}, "type": "Feature", "properties": {"collection_times": [{"days": "Mon-Fri", "time": "5:00pm"}, {"days": "Sat", "time": "1:00pm"}, {"days": "Sun", "time": "Closed"}], "id": "7515000038", "name": "USPS COLLECTION BOX - PO LOBBY", "address": {"city": "MESQUITE", "state": "TX", "street": "3500 GUS THOMASSON RD STE 35", "postcode": "75150"}}},
{"geometry": {"type": "Point", "coordinates": [-96.6294463448, 32.8158408447]}, "type": "Feature", "properties": {"collection_times": [{"days": "Mon-Fri", "time": "5:00pm"}, {"days": "Sat", "time": "1:00pm"}, {"days": "Sun", "time": "Closed"}], "id": "7515000039", "name": "USPS COLLECTION BOX - PO LOBBY", "address": {"city": "MESQUITE", "state": "TX", "street": "3500 GUS THOMASSON RD STE 35", "postcode": "75150"}}},
{"geometry": {"type": "Point", "coordinates": [-96.5957122665, 32.7972300019]}, "type": "Feature", "properties": {"collection_times": [{"days": "Mon-Sat", "time": "1:00pm"}, {"days": "Sun", "time": "Closed"}], "id": "7515000041", "name": "USPS COLLECTION BOX - BLUE BOX", "address": {"city": "MESQUITE", "state": "TX", "street": "2424 N BELT LINE RD", "postcode": "75150"}}},
{"geometry": {"type": "Point", "coordinates": [-96.611093099, 32.8111096594]}, "type": "Feature", "properties": {"collection_times": [{"days": "Mon-Fri", "time": "3:00pm"}, {"days": "Sat", "time": "1:00pm"}, {"days": "Sun", "time": "Closed"}], "id": "7515000044", "name": "USPS COLLECTION BOX - BLUE BOX", "address": {"city": "MESQUITE", "state": "TX", "street": "3344 N GALLOWAY AVE", "postcode": "75150"}}},
{"geometry": {"type": "Point", "coordinates": [-96.6464233514, 32.8028809969]}, "type": "Feature", "properties": {"collection_times": [{"days": "Mon-Fri", "time": "3:00pm"}, {"days": "Sat", "time": "1:00pm"}, {"days": "Sun", "time": "Closed"}], "id": "7515000045", "name": "USPS COLLECTION BOX - BLUE BOX", "address": {"city": "MESQUITE", "state": "TX", "street": "2828 MOTLEY DR", "postcode": "75150"}}},
{"geometry": {"type": "Point", "coordinates": [-96.6475148684, 32.813065502]}, "type": "Feature", "properties": {"collection_times": [{"days": "Mon-Sat", "time": "1:00pm"}, {"days": "Sun", "time": "Closed"}], "id": "7515000049", "name": "USPS COLLECTION BOX - BLUE BOX", "address": {"city": "MESQUITE", "state": "TX", "street": "3218 US HIGHWAY 67", "postcode": "75150"}}},
{"geometry": {"type": "Point", "coordinates": [-96.6306190196, 32.836577583]}, "type": "Feature", "properties": {"collection_times": [{"days": "Mon-Fri", "time": "3:00pm"}, {"days": "Sat", "time": "1:00pm"}, {"days": "Sun", "time": "Closed"}], "id": "7515000050", "name": "USPS COLLECTION BOX - BLUE BOX", "address": {"city": "MESQUITE", "state": "TX", "street": "1900 OATES DR", "postcode": "75150"}}},
{"geometry": {"type": "Point", "coordinates": [-96.6446673918, 32.8224718191]}, "type": "Feature", "properties": {"collection_times": [{"days": "Mon-Fri", "time": "3:00pm"}, {"days": "Sat", "time": "1:00pm"}, {"days": "Sun", "time": "Closed"}], "id": "7515000053", "name": "USPS COLLECTION BOX - BLUE BOX", "address": {"city": "MESQUITE", "state": "TX", "street": "4406 GUS THOMASSON RD", "postcode": "75150"}}},
{"geometry": {"type": "Point", "coordinates": [-96.6646302176, 32.4322306584]}, "type": "Feature", "properties": {"collection_times": [{"days": "Mon-Fri", "time": "4:00pm"}, {"days": "Sat", "time": "10:00am"}, {"days": "Sun", "time": "Closed"}], "id": "7515200961", "name": "USPS COLLECTION BOX - BLUE BOX", "address": {"city": "PALMER", "state": "TX", "street": "310 E JEFFERSON ST", "postcode": "75152"}}},
{"geometry": {"type": "Point", "coordinates": [-96.6646302176, 32.4322306584]}, "type": "Feature", "properties": {"collection_times": [{"days": "Mon-Fri", "time": "4:00pm"}, {"days": "Sat", "time": "10:00am"}, {"days": "Sun", "time": "Closed"}], "id": "7515205247", "name": "USPS COLLECTION BOX - PO LOBBY", "address": {"city": "PALMER", "state": "TX", "street": "310 E JEFFERSON ST", "postcode": "75152"}}},
{"geometry": {"type": "Point", "coordinates": [-96.6646302176, 32.4322306584]}, "type": "Feature", "properties": {"collection_times": [{"days": "Mon-Fri", "time": "4:00pm"}, {"days": "Sat", "time": "10:00am"}, {"days": "Sun", "time": "Closed"}], "id": "7515205248", "name": "USPS COLLECTION BOX - PO LOBBY", "address": {"city": "PALMER", "state": "TX", "street": "310 E JEFFERSON ST", "postcode": "75152"}}},
{"geometry": {"type": "Point", "coordinates": [-96.3323744065, 32.137933167]}, "type": "Feature", "properties": {"collection_times": [{"days": "Mon-Fri", "time": "4:00pm"}, {"days": "Sat", "time": "8:30am"}, {"days": "Sun", "time": "Closed"}], "id": "7515300964", "name": "USPS COLLECTION BOX - BLUE BOX", "address": {"city": "POWELL", "state": "TX", "street": "101 BROOKSHIRE ST", "postcode": "75153"}}},
{"geometry": {"type": "Point", "coordinates": [-96.3323744065, 32.137933167]}, "type": "Feature", "properties": {"collection_times": [{"days": "Mon-Fri", "time": "1:30pm"}, {"days": "Sat", "time": "8:30am"}, {"days": "Sun", "time": "Closed"}], "id": "7515305288", "name": "USPS COLLECTION BOX - PO LOBBY", "address": {"city": "POWELL", "state": "TX", "street": "101 BROOKSHIRE ST", "postcode": "75153"}}},
{"geometry": {"type": "Point", "coordinates": [-96.3323744065, 32.137933167]}, "type": "Feature", "properties": {"collection_times": [{"days": "Mon-Fri", "time": "1:30pm"}, {"days": "Sat", "time": "8:30am"}, {"days": "Sun", "time": "Closed"}], "id": "7515305289", "name": "USPS COLLECTION BOX - PO LOBBY", "address": {"city": "POWELL", "state": "TX", "street": "101 BROOKSHIRE ST", "postcode": "75153"}}},
{"geometry": {"type": "Point", "coordinates": [-96.8561992563, 32.5318212311]}, "type": "Feature", "properties": {"collection_times": [{"days": "Mon-Fri", "time": "4:30pm"}, {"days": "Sat", "time": "10:00am"}, {"days": "Sun", "time": "Closed"}], "id": "7515405294", "name": "USPS COLLECTION BOX - PO LOBBY", "address": {"city": "GLENN HEIGHTS", "state": "TX", "street": "104 E OVILLA RD", "postcode": "75154"}}},
{"geometry": {"type": "Point", "coordinates": [-96.8567948589, 32.5525112808]}, "type": "Feature", "properties": {"collection_times": [{"days": "Mon-Sat", "time": "10:30am"}, {"days": "Sun", "time": "Closed"}], "id": "7515406888", "name": "USPS COLLECTION BOX - BLUE BOX", "address": {"city": "GLENN HEIGHTS", "state": "TX", "street": "1938 S HAMPTON RD", "postcode": "75154"}}},
{"geometry": {"type": "Point", "coordinates": [-96.8567744037, 32.5319302596]}, "type": "Feature", "properties": {"collection_times": [{"days": "Mon-Sat", "time": "10:15am"}, {"days": "Sun", "time": "Closed"}], "id": "7515407310", "name": "USPS COLLECTION BOX - BLUE BOX", "address": {"city": "GLENN HEIGHTS", "state": "TX", "street": "101 W OVILLA RD", "postcode": "75154"}}},
{"geometry": {"type": "Point", "coordinates": [-96.8218282003, 32.528348906]}, "type": "Feature", "properties": {"collection_times": [{"days": "Mon-Sat", "time": "12:15pm"}, {"days": "Sun", "time": "Closed"}], "id": "7515407312", "name": "USPS COLLECTION BOX - BLUE BOX", "address": {"city": "GLENN HEIGHTS", "state": "TX", "street": "200 S I-35", "postcode": "75154"}}},
{"geometry": {"type": "Point", "coordinates": [-96.8561992563, 32.5318212311]}, "type": "Feature", "properties": {"collection_times": [{"days": "Mon-Fri", "time": "4:30pm"}, {"days": "Sat", "time": "10:00am"}, {"days": "Sun", "time": "Closed"}], "id": "7515407313", "name": "USPS COLLECTION BOX - PO LOBBY", "address": {"city": "GLENN HEIGHTS", "state": "TX", "street": "104 E OVILLA RD", "postcode": "75154"}}},
{"geometry": {"type": "Point", "coordinates": [-96.8908823565, 32.5068646281]}, "type": "Feature", "properties": {"collection_times": [{"days": "Mon-Sat", "time": "10:45am"}, {"days": "Sun", "time": "Closed"}], "id": "7515407315", "name": "USPS COLLECTION BOX - BLUE BOX", "address": {"city": "GLENN HEIGHTS", "state": "TX", "street": "3321 OVILLA RD", "postcode": "75154"}}},
{"geometry": {"type": "Point", "coordinates": [-96.8561992563, 32.5318212311]}, "type": "Feature", "properties": {"collection_times": [{"days": "Mon-Fri", "time": "4:30pm"}, {"days": "Sat", "time": "10:00am"}, {"days": "Sun", "time": "Closed"}], "id": "7515407316", "name": "USPS COLLECTION BOX - BLUE BOX", "address": {"city": "GLENN HEIGHTS", "state": "TX", "street": "104 E OVILLA RD", "postcode": "75154"}}},
{"geometry": {"type": "Point", "coordinates": [-96.7914939347, 32.5311684631]}, "type": "Feature", "properties": {"collection_times": [{"days": "Mon-Sat", "time": "1:00pm"}, {"days": "Sun", "time": "Closed"}], "id": "7515407318", "name": "USPS COLLECTION BOX - BLUE BOX", "address": {"city": "GLENN HEIGHTS", "state": "TX", "street": "600 N HIGHWAY 342", "postcode": "75154"}}},
{"geometry": {"type": "Point", "coordinates": [-96.8117543737, 32.5237004513]}, "type": "Feature", "properties": {"collection_times": [{"days": "Mon-Sat", "time": "11:45am"}, {"days": "Sun", "time": "Closed"}], "id": "7515407319", "name": "USPS COLLECTION BOX - BLUE BOX", "address": {"city": "GLENN HEIGHTS", "state": "TX", "street": "200 LAKEVIEW DR", "postcode": "75154"}}},
{"geometry": {"type": "Point", "coordinates": [-96.8543457034, 32.5191991807]}, "type": "Feature", "properties": {"collection_times": [{"days": "Mon-Sat", "time": "11:30am"}, {"days": "Sun", "time": "Closed"}], "id": "7515407320", "name": "USPS COLLECTION BOX - BLUE BOX", "address": {"city": "GLENN HEIGHTS", "state": "TX", "street": "301 LOCUST CT", "postcode": "75154"}}},
{"geometry": {"type": "Point", "coordinates": [-96.46803904, 32.2710029818]}, "type": "Feature", "properties": {"collection_times": [{"days": "Mon-Fri", "time": "4:00pm"}, {"days": "Sat", "time": "8:30am"}, {"days": "Sun", "time": "Closed"}], "id": "7515500966", "name": "USPS COLLECTION BOX - BLUE BOX", "address": {"city": "RICE", "state": "TX", "street": "300 E CALHOUN ST", "postcode": "75155"}}},
{"geometry": {"type": "Point", "coordinates": [-96.46803904, 32.2710029818]}, "type": "Feature", "properties": {"collection_times": [{"days": "Mon-Fri", "time": "4:00pm"}, {"days": "Sat", "time": "8:30am"}, {"days": "Sun", "time": "Closed"}], "id": "7515505945", "name": "USPS COLLECTION BOX - PO LOBBY", "address": {"city": "RICE", "state": "TX", "street": "300 E CALHOUN ST", "postcode": "75155"}}},
{"geometry": {"type": "Point", "coordinates": [-96.4530475936, 32.462890172]}, "type": "Feature", "properties": {"collection_times": [{"days": "Mon-Fri", "time": "12:00pm"}, {"days": "Sat", "time": "11:00am"}, {"days": "Sun", "time": "Closed"}], "id": "7515700967", "name": "USPS COLLECTION BOX - BLUE BOX", "address": {"city": "ROSSER", "state": "TX", "street": "208 MAIN ST", "postcode": "75157"}}},
{"geometry": {"type": "Point", "coordinates": [-96.4530475936, 32.462890172]}, "type": "Feature", "properties": {"collection_times": [{"days": "Mon-Fri", "time": "12:00pm"}, {"days": "Sat", "time": "11:00am"}, {"days": "Sun", "time": "Closed"}], "id": "7515705293", "name": "USPS COLLECTION BOX - PO LOBBY", "address": {"city": "ROSSER", "state": "TX", "street": "208 MAIN ST", "postcode": "75157"}}},
{"geometry": {"type": "Point", "coordinates": [-96.3822167934, 32.5141636095]}, "type": "Feature", "properties": {"collection_times": [{"days": "Mon-Fri", "time": "4:00pm"}, {"days": "Sat", "time": "8:00am"}, {"days": "Sun", "time": "Closed"}], "id": "7515800968", "name": "USPS COLLECTION BOX - BLUE BOX", "address": {"city": "SCURRY", "state": "TX", "street": "8315 S STATE HIGHWAY 34", "postcode": "75158"}}},
{"geometry": {"type": "Point", "coordinates": [-96.3822167934, 32.5141636095]}, "type": "Feature", "properties": {"collection_times": [{"days": "Mon-Fri", "time": "4:00pm"}, {"days": "Sat", "time": "8:00am"}, {"days": "Sun", "time": "Closed"}], "id": "7515805295", "name": "USPS COLLECTION BOX - PO LOBBY", "address": {"city": "SCURRY", "state": "TX", "street": "8315 S STATE HIGHWAY 34", "postcode": "75158"}}},
{"geometry": {"type": "Point", "coordinates": [-96.571551434, 32.6605402328]}, "type": "Feature", "properties": {"collection_times": [{"days": "Mon-Sat", "time": "12:30pm"}, {"days": "Sun", "time": "Closed"}], "id": "7515900969", "name": "USPS COLLECTION BOX - BLUE BOX", "address": {"city": "SEAGOVILLE", "state": "TX", "street": "101 W SIMONDS RD", "postcode": "75159"}}},
{"geometry": {"type": "Point", "coordinates": [-96.5396695855, 32.6402205903]}, "type": "Feature", "properties": {"collection_times": [{"days": "Mon-Sat", "time": "10:00am"}, {"days": "Sun", "time": "Closed"}], "id": "7515900971", "name": "USPS COLLECTION BOX - BLUE BOX", "address": {"city": "SEAGOVILLE", "state": "TX", "street": "115 N KAUFMAN ST", "postcode": "75159"}}},
{"geometry": {"type": "Point", "coordinates": [-96.5488842208, 32.6489361406]}, "type": "Feature", "properties": {"collection_times": [{"days": "Mon-Sat", "time": "10:00am"}, {"days": "Sun", "time": "Closed"}], "id": "7515900972", "name": "USPS COLLECTION BOX - BLUE BOX", "address": {"city": "SEAGOVILLE", "state": "TX", "street": "125 HALL RD", "postcode": "75159"}}},
{"geometry": {"type": "Point", "coordinates": [-96.5640929563, 32.6580619774]}, "type": "Feature", "properties": {"collection_times": [{"days": "Mon-Sat", "time": "1:00pm"}, {"days": "Sun", "time": "Closed"}], "id": "7515900974", "name": "USPS COLLECTION BOX - BLUE BOX", "address": {"city": "SEAGOVILLE", "state": "TX", "street": "2106 N HIGHWAY 175", "postcode": "75159"}}},
{"geometry": {"type": "Point", "coordinates": [-96.5423538876, 32.6523424804]}, "type": "Feature", "properties": {"collection_times": [{"days": "Mon-Sat", "time": "1:00pm"}, {"days": "Sun", "time": "Closed"}], "id": "7515900976", "name": "USPS COLLECTION BOX - BLUE BOX", "address": {"city": "SEAGOVILLE", "state": "TX", "street": "602 HALL RD", "postcode": "75159"}}},
{"geometry": {"type": "Point", "coordinates": [-96.5028387221, 32.5843335264]}, "type": "Feature", "properties": {"collection_times": [{"days": "Mon-Sat", "time": "11:30am"}, {"days": "Sun", "time": "Closed"}], "id": "7515905249", "name": "USPS COLLECTION BOX - BLUE BOX", "address": {"city": "SEAGOVILLE", "state": "TX", "street": "103 FM 3039", "postcode": "75159"}}},
{"geometry": {"type": "Point", "coordinates": [-96.5391881212, 32.6483960197]}, "type": "Feature", "properties": {"collection_times": [{"days": "Mon-Fri", "time": "3:00pm"}, {"days": "Sat-Sun", "time": "Closed"}], "id": "7515905254", "name": "USPS COLLECTION BOX - BLUE BOX", "address": {"city": "SEAGOVILLE", "state": "TX", "street": "702 N HIGHWAY 175", "postcode": "75159"}}},
{"geometry": {"type": "Point", "coordinates": [-96.2782394222, 32.7367531296]}, "type": "Feature", "properties": {"collection_times": [{"days": "Mon-Sat", "time": "9:30am"}, {"days": "Sun", "time": "Closed"}], "id": "7516000979", "name": "USPS COLLECTION BOX - BLUE BOX", "address": {"city": "TERRELL", "state": "TX", "street": "120 N FRANCES ST", "postcode": "75160"}}},
{"geometry": {"type": "Point", "coordinates": [-96.2390247524, 32.8296402036]}, "type": "Feature", "properties": {"collection_times": [{"days": "Mon-Sat", "time": "9:00am"}, {"days": "Sun", "time": "Closed"}], "id": "7516000980", "name": "USPS COLLECTION BOX - BLUE BOX", "address": {"city": "TERRELL", "state": "TX", "street": "654 N ROCKWALL AVE", "postcode": "75160"}}},
{"geometry": {"type": "Point", "coordinates": [-96.2780714975, 32.7221790863]}, "type": "Feature", "properties": {"collection_times": [{"days": "Mon-Fri", "time": "4:30pm"}, {"days": "Sat", "time": "2:30pm"}, {"days": "Sun", "time": "Closed"}], "id": "7516005000", "name": "USPS COLLECTION BOX - BLUE BOX", "address": {"city": "TERRELL", "state": "TX", "street": "1250 STATE HIGHWAY 34 S", "postcode": "75160"}}},
{"geometry": {"type": "Point", "coordinates": [-96.2780714975, 32.7221790863]}, "type": "Feature", "properties": {"collection_times": [{"days": "Mon-Fri", "time": "4:30pm"}, {"days": "Sat", "time": "2:30pm"}, {"days": "Sun", "time": "Closed"}], "id": "7516005001", "name": "USPS COLLECTION BOX - BLUE BOX", "address": {"city": "TERRELL", "state": "TX", "street": "1250 STATE HIGHWAY 34 S", "postcode": "75160"}}},
{"geometry": {"type": "Point", "coordinates": [-96.2780714975, 32.7221790863]}, "type": "Feature", "properties": {"collection_times": [{"days": "Mon-Fri", "time": "4:30pm"}, {"days": "Sat", "time": "2:30pm"}, {"days": "Sun", "time": "Closed"}], "id": "7516005002", "name": "USPS COLLECTION BOX - BLUE BOX", "address": {"city": "TERRELL", "state": "TX", "street": "1250 STATE HIGHWAY 34 S", "postcode": "75160"}}},
{"geometry": {"type": "Point", "coordinates": [-96.2978815219, 32.7380040698]}, "type": "Feature", "properties": {"collection_times": [{"days": "Mon-Sat", "time": "10:00am"}, {"days": "Sun", "time": "Closed"}], "id": "7516006574", "name": "USPS COLLECTION BOX - BLUE BOX", "address": {"city": "TERRELL", "state": "TX", "street": "1400 W MOORE AVE", "postcode": "75160"}}},
{"geometry": {"type": "Point", "coordinates": [-96.2780714975, 32.7221790863]}, "type": "Feature", "properties": {"collection_times": [{"days": "Mon-Fri", "time": "4:30pm"}, {"days": "Sat", "time": "2:30pm"}, {"days": "Sun", "time": "Closed"}], "id": "7516007101", "name": "USPS COLLECTION BOX - PO LOBBY", "address": {"city": "TERRELL", "state": "TX", "street": "1250 STATE HIGHWAY 34 S", "postcode": "75160"}}},
{"geometry": {"type": "Point", "coordinates": [-96.2561304747, 32.6795999044]}, "type": "Feature", "properties": {"collection_times": [{"days": "Mon-Sat", "time": "10:30am"}, {"days": "Sun", "time": "Closed"}], "id": "7516100000", "name": "USPS COLLECTION BOX - BLUE BOX", "address": {"city": "TERRELL", "state": "TX", "street": "1700 WILSON RD", "postcode": "75161"}}},
{"geometry": {"type": "Point", "coordinates": [-96.0916403046, 32.1454599719]}, "type": "Feature", "properties": {"collection_times": [{"days": "Mon-Fri", "time": "4:00pm"}, {"days": "Sat", "time": "9:00am"}, {"days": "Sun", "time": "Closed"}], "id": "7516300983", "name": "USPS COLLECTION BOX - BLUE BOX", "address": {"city": "TRINIDAD", "state": "TX", "street": "206 PARK ST", "postcode": "75163"}}},
{"geometry": {"type": "Point", "coordinates": [-96.0916403046, 32.1454599719]}, "type": "Feature", "properties": {"collection_times": [{"days": "Mon-Fri", "time": "4:00pm"}, {"days": "Sat-Sun", "time": "Closed"}], "id": "7516300984", "name": "USPS COLLECTION BOX - PO LOBBY", "address": {"city": "TRINIDAD", "state": "TX", "street": "206 PARK ST", "postcode": "75163"}}},
{"geometry": {"type": "Point", "coordinates": [-96.3093443777, 33.0623541377]}, "type": "Feature", "properties": {"collection_times": [{"days": "Mon-Fri", "time": "4:00pm"}, {"days": "Sat", "time": "9:00am"}, {"days": "Sun", "time": "Closed"}], "id": "7516400426", "name": "USPS COLLECTION BOX - BLUE BOX", "address": {"city": "JOSEPHINE", "state": "TX", "street": "408 MAIN ST", "postcode": "75164"}}},
{"geometry": {"type": "Point", "coordinates": [-96.3093443777, 33.0623541377]}, "type": "Feature", "properties": {"collection_times": [{"days": "Mon-Fri", "time": "11:30am"}, {"days": "Sat", "time": "9:00am"}, {"days": "Sun", "time": "Closed"}], "id": "7516405289", "name": "USPS COLLECTION BOX - PO LOBBY", "address": {"city": "JOSEPHINE", "state": "TX", "street": "408 MAIN ST", "postcode": "75164"}}},
{"geometry": {"type": "Point", "coordinates": [-96.3093443777, 33.0623541377]}, "type": "Feature", "properties": {"collection_times": [{"days": "Mon-Fri", "time": "11:30am"}, {"days": "Sat", "time": "9:00am"}, {"days": "Sun", "time": "Closed"}], "id": "7516405290", "name": "USPS COLLECTION BOX - PO LOBBY", "address": {"city": "JOSEPHINE", "state": "TX", "street": "408 MAIN ST", "postcode": "75164"}}},
{"geometry": {"type": "Point", "coordinates": [-96.8465607477, 32.3852212501]}, "type": "Feature", "properties": {"collection_times": [{"days": "Mon-Fri", "time": "3:00pm"}, {"days": "Sat", "time": "1:00pm"}, {"days": "Sun", "time": "Closed"}], "id": "7516500986", "name": "USPS COLLECTION BOX - BLUE BOX", "address": {"city": "WAXAHACHIE", "state": "TX", "street": "109 S JACKSON ST", "postcode": "75165"}}},
{"geometry": {"type": "Point", "coordinates": [-96.8492479962, 32.417866798]}, "type": "Feature", "properties": {"collection_times": [{"days": "Mon-Fri", "time": "3:00pm"}, {"days": "Sat", "time": "1:00pm"}, {"days": "Sun", "time": "Closed"}], "id": "7516500987", "name": "USPS COLLECTION BOX - BLUE BOX", "address": {"city": "WAXAHACHIE", "state": "TX", "street": "100 AMANDA LN", "postcode": "75165"}}},
{"geometry": {"type": "Point", "coordinates": [-96.844728946, 32.3972875145]}, "type": "Feature", "properties": {"collection_times": [{"days": "Mon-Fri", "time": "3:00pm"}, {"days": "Sat", "time": "1:00pm"}, {"days": "Sun", "time": "Closed"}], "id": "7516500992", "name": "USPS COLLECTION BOX - BLUE BOX", "address": {"city": "WAXAHACHIE", "state": "TX", "street": "1014 FERRIS AVE", "postcode": "75165"}}},
{"geometry": {"type": "Point", "coordinates": [-96.8322820823, 32.411970047]}, "type": "Feature", "properties": {"collection_times": [{"days": "Mon-Fri", "time": "3:00pm"}, {"days": "Sat", "time": "1:00pm"}, {"days": "Sun", "time": "Closed"}], "id": "7516500998", "name": "USPS COLLECTION BOX - BLUE BOX", "address": {"city": "WAXAHACHIE", "state": "TX", "street": "2100 BROWN ST", "postcode": "75165"}}},
{"geometry": {"type": "Point", "coordinates": [-96.8457966962, 32.3881515733]}, "type": "Feature", "properties": {"collection_times": [{"days": "Mon-Fri", "time": "5:00pm"}, {"days": "Sat", "time": "4:00pm"}, {"days": "Sun", "time": "Closed"}], "id": "7516501002", "name": "USPS COLLECTION BOX - BLUE BOX", "address": {"city": "WAXAHACHIE", "state": "TX", "street": "316 N COLLEGE ST", "postcode": "75165"}}},
{"geometry": {"type": "Point", "coordinates": [-96.842652574, 32.4073204293]}, "type": "Feature", "properties": {"collection_times": [{"days": "Mon-Fri", "time": "3:00pm"}, {"days": "Sat", "time": "1:00pm"}, {"days": "Sun", "time": "Closed"}], "id": "7516501005", "name": "USPS COLLECTION BOX - BLUE BOX", "address": {"city": "WAXAHACHIE", "state": "TX", "street": "507 N HIGHWAY 77", "postcode": "75165"}}},
{"geometry": {"type": "Point", "coordinates": [-96.8318026511, 32.4676207097]}, "type": "Feature", "properties": {"collection_times": [{"days": "Mon-Fri", "time": "3:00pm"}, {"days": "Sat", "time": "1:00pm"}, {"days": "Sun", "time": "Closed"}], "id": "7516506262", "name": "USPS COLLECTION BOX - BLUE BOX", "address": {"city": "WAXAHACHIE", "state": "TX", "street": "2980 N HIGHWAY 77", "postcode": "75165"}}},
{"geometry": {"type": "Point", "coordinates": [-96.8395862689, 32.4233082049]}, "type": "Feature", "properties": {"collection_times": [{"days": "Mon-Fri", "time": "3:00pm"}, {"days": "Sat", "time": "1:00pm"}, {"days": "Sun", "time": "Closed"}], "id": "7516506263", "name": "USPS COLLECTION BOX - BLUE BOX", "address": {"city": "WAXAHACHIE", "state": "TX", "street": "1200 N HIGHWAY 77", "postcode": "75165"}}},
{"geometry": {"type": "Point", "coordinates": [-96.8456247096, 32.3884088186]}, "type": "Feature", "properties": {"collection_times": [{"days": "Mon-Fri", "time": "5:00pm"}, {"days": "Sat", "time": "4:00pm"}, {"days": "Sun", "time": "Closed"}], "id": "7516506264", "name": "USPS COLLECTION BOX - PO LOBBY", "address": {"city": "WAXAHACHIE", "state": "TX", "street": "316 N COLLEGE ST", "postcode": "75165"}}},
{"geometry": {"type": "Point", "coordinates": [-96.8397141917, 32.4233272443]}, "type": "Feature", "properties": {"collection_times": [{"days": "Mon-Fri", "time": "3:00pm"}, {"days": "Sat", "time": "1:00pm"}, {"days": "Sun", "time": "Closed"}], "id": "7516506266", "name": "USPS COLLECTION BOX - BLUE BOX", "address": {"city": "WAXAHACHIE", "state": "TX", "street": "1201 N HIGHWAY 77", "postcode": "75165"}}},
{"geometry": {"type": "Point", "coordinates": [-96.4410353267, 33.0219570648]}, "type": "Feature", "properties": {"collection_times": [{"days": "Mon-Fri", "time": "4:00pm"}, {"days": "Sat", "time": "9:30am"}, {"days": "Sun", "time": "Closed"}], "id": "7516600431", "name": "USPS COLLECTION BOX - BLUE BOX", "address": {"city": "LAVON", "state": "TX", "street": "609 MAIN ST", "postcode": "75166"}}},
{"geometry": {"type": "Point", "coordinates": [-96.4410353267, 33.0219570648]}, "type": "Feature", "properties": {"collection_times": [{"days": "Mon-Fri", "time": "4:00pm"}, {"days": "Sat", "time": "9:30am"}, {"days": "Sun", "time": "Closed"}], "id": "7516605820", "name": "USPS COLLECTION BOX - PO LOBBY", "address": {"city": "LAVON", "state": "TX", "street": "609 MAIN ST", "postcode": "75166"}}},
{"geometry": {"type": "Point", "coordinates": [-96.0079748272, 32.7107533048]}, "type": "Feature", "properties": {"collection_times": [{"days": "Mon-Fri", "time": "4:00pm"}, {"days": "Sat", "time": "10:30am"}, {"days": "Sun", "time": "Closed"}], "id": "7516901008", "name": "USPS COLLECTION BOX - BLUE BOX", "address": {"city": "WILLS POINT", "state": "TX", "street": "415 N 4TH ST", "postcode": "75169"}}},
{"geometry": {"type": "Point", "coordinates": [-96.0079748272, 32.7107533048]}, "type": "Feature", "properties": {"collection_times": [{"days": "Mon-Fri", "time": "4:00pm"}, {"days": "Sat", "time": "10:30am"}, {"days": "Sun", "time": "Closed"}], "id": "7516901009", "name": "USPS COLLECTION BOX - BLUE BOX", "address": {"city": "WILLS POINT", "state": "TX", "street": "415 N 4TH ST", "postcode": "75169"}}},
{"geometry": {"type": "Point", "coordinates": [-96.0079748272, 32.7107533048]}, "type": "Feature", "properties": {"collection_times": [{"days": "Mon-Fri", "time": "4:00pm"}, {"days": "Sat", "time": "10:30am"}, {"days": "Sun", "time": "Closed"}], "id": "7516905296", "name": "USPS COLLECTION BOX - PO LOBBY", "address": {"city": "WILLS POINT", "state": "TX", "street": "415 N 4TH ST", "postcode": "75169"}}},
{"geometry": {"type": "Point", "coordinates": [-96.0079748272, 32.7107533048]}, "type": "Feature", "properties": {"collection_times": [{"days": "Mon-Fri", "time": "4:00pm"}, {"days": "Sat", "time": "10:30am"}, {"days": "Sun", "time": "Closed"}], "id": "7516905297", "name": "USPS COLLECTION BOX - PO LOBBY", "address": {"city": "WILLS POINT", "state": "TX", "street": "415 N 4TH ST", "postcode": "75169"}}},
{"geometry": {"type": "Point", "coordinates": [-96.0159606708, 32.7081455748]}, "type": "Feature", "properties": {"collection_times": [{"days": "Mon-Sat", "time": "12:00pm"}, {"days": "Sun", "time": "Closed"}], "id": "7516905299", "name": "USPS COLLECTION BOX - BLUE BOX", "address": {"city": "WILLS POINT", "state": "TX", "street": "1105 W SOUTH COMMERCE ST", "postcode": "75169"}}},
{"geometry": {"type": "Point", "coordinates": [-96.6820327822, 32.5913466407]}, "type": "Feature", "properties": {"collection_times": [{"days": "Mon-Fri", "time": "4:00pm"}, {"days": "Sat", "time": "8:00am"}, {"days": "Sun", "time": "Closed"}], "id": "7517201010", "name": "USPS COLLECTION BOX - BLUE BOX", "address": {"city": "WILMER", "state": "TX", "street": "120 BLACKWELL BLVD", "postcode": "75172"}}},
{"geometry": {"type": "Point", "coordinates": [-96.6820327822, 32.5913466407]}, "type": "Feature", "properties": {"collection_times": [{"days": "Mon-Fri", "time": "4:00pm"}, {"days": "Sat-Sun", "time": "Closed"}], "id": "7517205292", "name": "USPS COLLECTION BOX - PO LOBBY", "address": {"city": "WILMER", "state": "TX", "street": "120 BLACKWELL BLVD", "postcode": "75172"}}},
{"geometry": {"type": "Point", "coordinates": [-96.6820327822, 32.5913466407]}, "type": "Feature", "properties": {"collection_times": [{"days": "Mon-Fri", "time": "4:00pm"}, {"days": "Sat-Sun", "time": "Closed"}], "id": "7517205293", "name": "USPS COLLECTION BOX - PO LOBBY", "address": {"city": "WILMER", "state": "TX", "street": "120 BLACKWELL BLVD", "postcode": "75172"}}},
{"geometry": {"type": "Point", "coordinates": [-96.3750122741, 33.0420480581]}, "type": "Feature", "properties": {"collection_times": [{"days": "Mon-Fri", "time": "3:30pm"}, {"days": "Sat", "time": "9:00am"}, {"days": "Sun", "time": "Closed"}], "id": "7517300505", "name": "USPS COLLECTION BOX - PO LOBBY", "address": {"city": "NEVADA", "state": "TX", "street": "102 S FM 1138", "postcode": "75173"}}},
{"geometry": {"type": "Point", "coordinates": [-96.3750122741, 33.0420480581]}, "type": "Feature", "properties": {"collection_times": [{"days": "Mon-Fri", "time": "4:00pm"}, {"days": "Sat", "time": "9:00am"}, {"days": "Sun", "time": "Closed"}], "id": "7517300506", "name": "USPS COLLECTION BOX - BLUE BOX", "address": {"city": "NEVADA", "state": "TX", "street": "102 S FM 1138", "postcode": "75173"}}},
{"geometry": {"type": "Point", "coordinates": [-96.605411347, 32.7128199649]}, "type": "Feature", "properties": {"collection_times": [{"days": "Mon-Sat", "time": "1:00pm"}, {"days": "Sun", "time": "Closed"}], "id": "7518000001", "name": "USPS COLLECTION BOX - BLUE BOX", "address": {"city": "MESQUITE", "state": "TX", "street": "4202 PIONEER RD", "postcode": "75180"}}},
{"geometry": {"type": "Point", "coordinates": [-96.6211524976, 32.7194146599]}, "type": "Feature", "properties": {"collection_times": [{"days": "Mon-Sat", "time": "1:00pm"}, {"days": "Sun", "time": "Closed"}], "id": "7518000003", "name": "USPS COLLECTION BOX - BLUE BOX", "address": {"city": "MESQUITE", "state": "TX", "street": "11921 ELAM RD", "postcode": "75180"}}},
{"geometry": {"type": "Point", "coordinates": [-96.6226494251, 32.7230726703]}, "type": "Feature", "properties": {"collection_times": [{"days": "Mon-Fri", "time": "5:00pm"}, {"days": "Sat", "time": "1:00pm"}, {"days": "Sun", "time": "Closed"}], "id": "7518000005", "name": "USPS COLLECTION BOX - BLUE BOX", "address": {"city": "MESQUITE", "state": "TX", "street": "3400 HICKORY TREE RD", "postcode": "75180"}}},
{"geometry": {"type": "Point", "coordinates": [-96.6226494251, 32.7230726703]}, "type": "Feature", "properties": {"collection_times": [{"days": "Mon-Fri", "time": "5:00pm"}, {"days": "Sat", "time": "1:00pm"}, {"days": "Sun", "time": "Closed"}], "id": "7518000008", "name": "USPS COLLECTION BOX - PO LOBBY", "address": {"city": "MESQUITE", "state": "TX", "street": "3400 HICKORY TREE RD", "postcode": "75180"}}},
{"geometry": {"type": "Point", "coordinates": [-96.5526218032, 32.7436561563]}, "type": "Feature", "properties": {"collection_times": [{"days": "Mon-Fri", "time": "3:00pm"}, {"days": "Sat-Sun", "time": "Closed"}], "id": "7518100003", "name": "USPS COLLECTION BOX - BLUE BOX", "address": {"city": "MESQUITE", "state": "TX", "street": "1919 FAITHON P LUCAS SR BLVD", "postcode": "75181"}}},
{"geometry": {"type": "Point", "coordinates": [-96.5526218032, 32.7436561563]}, "type": "Feature", "properties": {"collection_times": [{"days": "Mon-Fri", "time": "3:00pm"}, {"days": "Sat-Sun", "time": "Closed"}], "id": "7518100004", "name": "USPS COLLECTION BOX - BLUE BOX", "address": {"city": "MESQUITE", "state": "TX", "street": "1919 FAITHON P LUCAS SR BLVD", "postcode": "75181"}}},
{"geometry": {"type": "Point", "coordinates": [-96.3310272197, 32.9754287987]}, "type": "Feature", "properties": {"collection_times": [{"days": "Mon-Fri", "time": "4:00pm"}, {"days": "Sat", "time": "11:00am"}, {"days": "Sun", "time": "Closed"}], "id": "7518900714", "name": "USPS COLLECTION BOX - PO LOBBY", "address": {"city": "ROYSE CITY", "state": "TX", "street": "217 E MAIN ST", "postcode": "75189"}}},
{"geometry": {"type": "Point", "coordinates": [-96.3310272197, 32.9754287987]}, "type": "Feature", "properties": {"collection_times": [{"days": "Mon-Fri", "time": "4:00pm"}, {"days": "Sat", "time": "11:00am"}, {"days": "Sun", "time": "Closed"}], "id": "7518900715", "name": "USPS COLLECTION BOX - BLUE BOX", "address": {"city": "ROYSE CITY", "state": "TX", "street": "217 E MAIN ST", "postcode": "75189"}}},
{"geometry": {"type": "Point", "coordinates": [-96.3310272197, 32.9754287987]}, "type": "Feature", "properties": {"collection_times": [{"days": "Mon-Fri", "time": "4:00pm"}, {"days": "Sat", "time": "11:00am"}, {"days": "Sun", "time": "Closed"}], "id": "7518905250", "name": "USPS COLLECTION BOX - BLUE BOX", "address": {"city": "ROYSE CITY", "state": "TX", "street": "217 E MAIN ST", "postcode": "75189"}}},
{"geometry": {"type": "Point", "coordinates": [-96.258875005, 32.9167829328]}, "type": "Feature", "properties": {"collection_times": [{"days": "Mon-Fri", "time": "10:00am"}, {"days": "Sat-Sun", "time": "Closed"}], "id": "7518905251", "name": "USPS COLLECTION BOX - BLUE BOX", "address": {"city": "ROYSE CITY", "state": "TX", "street": "STATE HWY 276", "postcode": "75189"}}}
]}
