{"type": "FeatureCollection", "features": [
{"geometry": {"type": "Point", "coordinates": [-96.8056526055, 32.800615429]}, "type": "Feature", "properties": {"collection_times": [{"days": "Mon-Fri", "time": "1:00pm"}, {"days": "Sat-Sun", "time": "Closed"}], "id": "7520107059", "name": "USPS COLLECTION BOX - BLUE BOX", "address": {"city": "DALLAS", "state": "TX", "street": "2701 CEDAR SPRINGS RD", "postcode": "75201"}}},
{"geometry": {"type": "Point", "coordinates": [-96.7947486612, 32.7823897817]}, "type": "Feature", "properties": {"collection_times": [{"days": "Mon-Fri", "time": "12:00pm"}, {"days": "Sat-Sun", "time": "Closed"}], "id": "7520107061", "name": "USPS COLLECTION BOX - BLUE BOX", "address": {"city": "DALLAS", "state": "TX", "street": "1929 ELM ST", "postcode": "75201"}}},
{"geometry": {"type": "Point", "coordinates": [-96.798313611, 32.7832935311]}, "type": "Feature", "properties": {"collection_times": [{"days": "Mon-Fri", "time": "5:00pm"}, {"days": "Sat-Sun", "time": "Closed"}], "id": "7520107063", "name": "USPS COLLECTION BOX - PO LOBBY", "address": {"city": "DALLAS", "state": "TX", "street": "400 N ERVAY ST", "postcode": "75201"}}},
{"geometry": {"type": "Point", "coordinates": [-96.798313611, 32.7832935311]}, "type": "Feature", "properties": {"collection_times": [{"days": "Mon-Fri", "time": "5:00pm"}, {"days": "Sat-Sun", "time": "Closed"}], "id": "7520107064", "name": "USPS COLLECTION BOX - PO LOBBY", "address": {"city": "DALLAS", "state": "TX", "street": "400 N ERVAY ST", "postcode": "75201"}}},
{"geometry": {"type": "Point", "coordinates": [-96.798313611, 32.7832935311]}, "type": "Feature", "properties": {"collection_times": [{"days": "Mon-Fri", "time": "5:00pm"}, {"days": "Sat-Sun", "time": "Closed"}], "id": "7520107065", "name": "USPS COLLECTION BOX - PO LOBBY", "address": {"city": "DALLAS", "state": "TX", "street": "400 N ERVAY ST", "postcode": "75201"}}},
{"geometry": {"type": "Point", "coordinates": [-96.7937585246, 32.7749383232]}, "type": "Feature", "properties": {"collection_times": [{"days": "Mon-Fri", "time": "12:00pm"}, {"days": "Sat-Sun", "time": "Closed"}], "id": "7520107067", "name": "USPS COLLECTION BOX - BLUE BOX", "address": {"city": "DALLAS", "state": "TX", "street": "912 S ERVAY ST", "postcode": "75201"}}},
{"geometry": {"type": "Point", "coordinates": [-96.7996263702, 32.7831147301]}, "type": "Feature", "properties": {"collection_times": [{"days": "Mon-Fri", "time": "5:00pm"}, {"days": "Sat", "time": "1:00pm"}, {"days": "Sun", "time": "Closed"}], "id": "7520107068", "name": "USPS COLLECTION BOX - BLUE BOX", "address": {"city": "DALLAS", "state": "TX", "street": "1600 FEDERAL", "postcode": "75201"}}},
{"geometry": {"type": "Point", "coordinates": [-96.7996263702, 32.7831147301]}, "type": "Feature", "properties": {"collection_times": [{"days": "Mon-Fri", "time": "5:00pm"}, {"days": "Sat", "time": "1:00pm"}, {"days": "Sun", "time": "Closed"}], "id": "7520107069", "name": "USPS COLLECTION BOX - BLUE BOX", "address": {"city": "DALLAS", "state": "TX", "street": "1600 FEDERAL", "postcode": "75201"}}},
{"geometry": {"type": "Point", "coordinates": [-96.7980656782, 32.7842683205]}, "type": "Feature", "properties": {"collection_times": [{"days": "Mon-Fri", "time": "5:00pm"}, {"days": "Sat", "time": "1:00pm"}, {"days": "Sun", "time": "Closed"}], "id": "7520107072", "name": "USPS COLLECTION BOX - BLUE BOX", "address": {"city": "DALLAS", "state": "TX", "street": "1800 FEDERAL ST", "postcode": "75201"}}},
{"geometry": {"type": "Point", "coordinates": [-96.7980515592, 32.7895724033]}, "type": "Feature", "properties": {"collection_times": [{"days": "Mon-Fri", "time": "1:00pm"}, {"days": "Sat-Sun", "time": "Closed"}], "id": "7520107073", "name": "USPS COLLECTION BOX - BLUE BOX", "address": {"city": "DALLAS", "state": "TX", "street": "2301 FLORA ST", "postcode": "75201"}}},
{"geometry": {"type": "Point", "coordinates": [-96.7927058748, 32.7791603087]}, "type": "Feature", "properties": {"collection_times": [{"days": "Mon-Fri", "time": "4:00pm"}, {"days": "Sat-Sun", "time": "Closed"}], "id": "7520107075", "name": "USPS COLLECTION BOX - BLUE BOX", "address": {"city": "DALLAS", "state": "TX", "street": "500 S HARWOOD ST", "postcode": "75201"}}},
{"geometry": {"type": "Point", "coordinates": [-96.8066267522, 32.7973861525]}, "type": "Feature", "properties": {"collection_times": [{"days": "Mon-Fri", "time": "1:00pm"}, {"days": "Sat-Sun", "time": "Closed"}], "id": "7520107076", "name": "USPS COLLECTION BOX - BLUE BOX", "address": {"city": "DALLAS", "state": "TX", "street": "2905 MAPLE AVE", "postcode": "75201"}}},
{"geometry": {"type": "Point", "coordinates": [-96.8072785144, 32.777335983]}, "type": "Feature", "properties": {"collection_times": [{"days": "Mon-Fri", "time": "1:00pm"}, {"days": "Sat-Sun", "time": "Closed"}], "id": "7520201144", "name": "USPS COLLECTION BOX - BLUE BOX", "address": {"city": "DALLAS", "state": "TX", "street": "500 JACKSON ST", "postcode": "75202"}}},
{"geometry": {"type": "Point", "coordinates": [-96.8039994288, 32.7810627832]}, "type": "Feature", "properties": {"collection_times": [{"days": "Mon-Fri", "time": "1:00pm"}, {"days": "Sat-Sun", "time": "Closed"}], "id": "7520201145", "name": "USPS COLLECTION BOX - BLUE BOX", "address": {"city": "DALLAS", "state": "TX", "street": "1914 LAWS ST", "postcode": "75202"}}},
{"geometry": {"type": "Point", "coordinates": [-96.8066433136, 32.7812044568]}, "type": "Feature", "properties": {"collection_times": [{"days": "Mon-Fri", "time": "4:00pm"}, {"days": "Sat-Sun", "time": "Closed"}], "id": "7520201146", "name": "USPS COLLECTION BOX - BLUE BOX", "address": {"city": "DALLAS", "state": "TX", "street": "311 N MARKET ST", "postcode": "75202"}}},
{"geometry": {"type": "Point", "coordinates": [-96.8035169328, 32.7823010509]}, "type": "Feature", "properties": {"collection_times": [{"days": "Mon-Fri", "time": "4:00pm"}, {"days": "Sat-Sun", "time": "Closed"}], "id": "7520201153", "name": "USPS COLLECTION BOX - BLUE BOX", "address": {"city": "DALLAS", "state": "TX", "street": "1005 SAN JACINTO ST", "postcode": "75202"}}},
{"geometry": {"type": "Point", "coordinates": [-96.801351029, 32.781820824]}, "type": "Feature", "properties": {"collection_times": [{"days": "Mon-Fri", "time": "5:00pm"}, {"days": "Sat-Sun", "time": "Closed"}], "id": "7520201162", "name": "USPS COLLECTION BOX - BLUE BOX", "address": {"city": "DALLAS", "state": "TX", "street": "300 N FIELD ST", "postcode": "75202"}}},
{"geometry": {"type": "Point", "coordinates": [-96.8059560145, 32.7825755062]}, "type": "Feature", "properties": {"collection_times": [{"days": "Mon-Fri", "time": "5:00pm"}, {"days": "Sat-Sun", "time": "Closed"}], "id": "7520201166", "name": "USPS COLLECTION BOX - BLUE BOX", "address": {"city": "DALLAS", "state": "TX", "street": "1801 N LAMAR ST", "postcode": "75202"}}},
{"geometry": {"type": "Point", "coordinates": [-96.8080012013, 32.7795212212]}, "type": "Feature", "properties": {"collection_times": [{"days": "Mon-Fri", "time": "5:00pm"}, {"days": "Sat-Sun", "time": "Closed"}], "id": "7520201178", "name": "USPS COLLECTION BOX - BLUE BOX", "address": {"city": "DALLAS", "state": "TX", "street": "500 ELM ST", "postcode": "75202"}}},
{"geometry": {"type": "Point", "coordinates": [-96.8058331151, 32.7785418441]}, "type": "Feature", "properties": {"collection_times": [{"days": "Mon-Fri", "time": "4:00pm"}, {"days": "Sat-Sun", "time": "Closed"}], "id": "7520201181", "name": "USPS COLLECTION BOX - BLUE BOX", "address": {"city": "DALLAS", "state": "TX", "street": "701 COMMERCE ST", "postcode": "75202"}}},
{"geometry": {"type": "Point", "coordinates": [-96.8083986468, 32.7834173042]}, "type": "Feature", "properties": {"collection_times": [{"days": "Mon-Fri", "time": "5:00pm"}, {"days": "Sat-Sun", "time": "Closed"}], "id": "7520201183", "name": "USPS COLLECTION BOX - BLUE BOX", "address": {"city": "DALLAS", "state": "TX", "street": "703 MCKINNEY AVE", "postcode": "75202"}}},
{"geometry": {"type": "Point", "coordinates": [-96.801351029, 32.781820824]}, "type": "Feature", "properties": {"collection_times": [{"days": "Mon-Fri", "time": "5:00pm"}, {"days": "Sat-Sun", "time": "Closed"}], "id": "7520205727", "name": "USPS COLLECTION BOX - BLUE BOX", "address": {"city": "DALLAS", "state": "TX", "street": "300 N FIELD ST", "postcode": "75202"}}},
{"geometry": {"type": "Point", "coordinates": [-96.8019469665, 32.7800759139]}, "type": "Feature", "properties": {"collection_times": [{"days": "Mon-Fri", "time": "5:00pm"}, {"days": "Sat-Sun", "time": "Closed"}], "id": "7520206056", "name": "USPS COLLECTION BOX - BLUE BOX", "address": {"city": "DALLAS", "state": "TX", "street": "1201 MAIN ST", "postcode": "75202"}}},
{"geometry": {"type": "Point", "coordinates": [-96.7884789787, 32.7416841637]}, "type": "Feature", "properties": {"collection_times": [{"days": "Mon-Fri", "time": "3:00pm"}, {"days": "Sat-Sun", "time": "Closed"}], "id": "7520301202", "name": "USPS COLLECTION BOX - BLUE BOX", "address": {"city": "DALLAS", "state": "TX", "street": "2919 CEDAR CREST BLVD", "postcode": "75203"}}},
{"geometry": {"type": "Point", "coordinates": [-96.8197185591, 32.7450212909]}, "type": "Feature", "properties": {"collection_times": [{"days": "Mon-Fri", "time": "1:00pm"}, {"days": "Sat-Sun", "time": "Closed"}], "id": "7520301210", "name": "USPS COLLECTION BOX - BLUE BOX", "address": {"city": "DALLAS", "state": "TX", "street": "320 E JEFFERSON BLVD", "postcode": "75203"}}},
{"geometry": {"type": "Point", "coordinates": [-96.7911077975, 32.80224034]}, "type": "Feature", "properties": {"collection_times": [{"days": "Mon-Fri", "time": "2:00pm"}, {"days": "Sat-Sun", "time": "Closed"}], "id": "7520401216", "name": "USPS COLLECTION BOX - EXPRESS", "address": {"city": "DALLAS", "state": "TX", "street": "2633 MCKINNEY AVE", "postcode": "75204"}}},
{"geometry": {"type": "Point", "coordinates": [-96.7806810433, 32.7978680647]}, "type": "Feature", "properties": {"collection_times": [{"days": "Mon-Fri", "time": "4:00pm"}, {"days": "Sat-Sun", "time": "Closed"}], "id": "7520401218", "name": "USPS COLLECTION BOX - BLUE BOX", "address": {"city": "DALLAS", "state": "TX", "street": "4100 BRYAN ST", "postcode": "75204"}}},
{"geometry": {"type": "Point", "coordinates": [-96.7763567595, 32.799298715]}, "type": "Feature", "properties": {"collection_times": [{"days": "Mon-Fri", "time": "4:00pm"}, {"days": "Sat-Sun", "time": "Closed"}], "id": "7520401222", "name": "USPS COLLECTION BOX - BLUE BOX", "address": {"city": "DALLAS", "state": "TX", "street": "4502 LIVE OAK ST", "postcode": "75204"}}},
{"geometry": {"type": "Point", "coordinates": [-96.7906142196, 32.8139369313]}, "type": "Feature", "properties": {"collection_times": [{"days": "Mon-Fri", "time": "3:00pm"}, {"days": "Sat-Sun", "time": "Closed"}], "id": "7520401223", "name": "USPS COLLECTION BOX - BLUE BOX", "address": {"city": "DALLAS", "state": "TX", "street": "4111 N CENTRAL EXPY", "postcode": "75204"}}},
{"geometry": {"type": "Point", "coordinates": [-96.7799589313, 32.7936400509]}, "type": "Feature", "properties": {"collection_times": [{"days": "Mon-Fri", "time": "2:00pm"}, {"days": "Sat-Sun", "time": "Closed"}], "id": "7520401250", "name": "USPS COLLECTION BOX - BLUE BOX", "address": {"city": "DALLAS", "state": "TX", "street": "3909 SWISS AVE", "postcode": "75204"}}},
{"geometry": {"type": "Point", "coordinates": [-96.8000648788, 32.7978948248]}, "type": "Feature", "properties": {"collection_times": [{"days": "Mon-Fri", "time": "2:00pm"}, {"days": "Sat-Sun", "time": "Closed"}], "id": "7520401283", "name": "USPS COLLECTION BOX - BLUE BOX", "address": {"city": "DALLAS", "state": "TX", "street": "2828 WOODSIDE ST", "postcode": "75204"}}},
{"geometry": {"type": "Point", "coordinates": [-96.8014453919, 32.7974086287]}, "type": "Feature", "properties": {"collection_times": [{"days": "Mon-Fri", "time": "2:00pm"}, {"days": "Sat-Sun", "time": "Closed"}], "id": "7520405540", "name": "USPS COLLECTION BOX - BLUE BOX", "address": {"city": "DALLAS", "state": "TX", "street": "2633 MCKINNEY AVE", "postcode": "75204"}}},
{"geometry": {"type": "Point", "coordinates": [-96.8030991686, 32.8032453482]}, "type": "Feature", "properties": {"collection_times": [{"days": "Mon-Fri", "time": "12:30pm"}, {"days": "Sat-Sun", "time": "Closed"}], "id": "7520405546", "name": "USPS COLLECTION BOX - BLUE BOX", "address": {"city": "DALLAS", "state": "TX", "street": "3000 CARLISLE ST", "postcode": "75204"}}},
{"geometry": {"type": "Point", "coordinates": [-96.8002872751, 32.806769383]}, "type": "Feature", "properties": {"collection_times": [{"days": "Mon-Fri", "time": "12:30pm"}, {"days": "Sat-Sun", "time": "Closed"}], "id": "7520407346", "name": "USPS COLLECTION BOX - BLUE BOX", "address": {"city": "DALLAS", "state": "TX", "street": "3400 CARLISLE ST", "postcode": "75204"}}},
{"geometry": {"type": "Point", "coordinates": [-96.7850796109, 32.831134344]}, "type": "Feature", "properties": {"collection_times": [{"days": "Mon-Sat", "time": "1:00pm"}, {"days": "Sun", "time": "Closed"}], "id": "7520501333", "name": "USPS COLLECTION BOX - BLUE BOX", "address": {"city": "DALLAS", "state": "TX", "street": "5200 ABBOTT AVE", "postcode": "75205"}}},
{"geometry": {"type": "Point", "coordinates": [-96.7817964435, 32.8439095626]}, "type": "Feature", "properties": {"collection_times": [{"days": "Mon-Sat", "time": "1:00pm"}, {"days": "Sun", "time": "Closed"}], "id": "7520501336", "name": "USPS COLLECTION BOX - BLUE BOX", "address": {"city": "DALLAS", "state": "TX", "street": "3101 UNIVERSITY BLVD", "postcode": "75205"}}},
{"geometry": {"type": "Point", "coordinates": [-96.8036610741, 32.8239471301]}, "type": "Feature", "properties": {"collection_times": [{"days": "Mon-Sat", "time": "1:00pm"}, {"days": "Sun", "time": "Closed"}], "id": "7520501341", "name": "USPS COLLECTION BOX - BLUE BOX", "address": {"city": "DALLAS", "state": "TX", "street": "4200 ARMSTRONG PKWY", "postcode": "75205"}}},
{"geometry": {"type": "Point", "coordinates": [-96.8130259879, 32.8322415802]}, "type": "Feature", "properties": {"collection_times": [{"days": "Mon-Sat", "time": "1:00pm"}, {"days": "Sun", "time": "Closed"}], "id": "7520501342", "name": "USPS COLLECTION BOX - BLUE BOX", "address": {"city": "DALLAS", "state": "TX", "street": "4500 BEVERLY DR", "postcode": "75205"}}},
{"geometry": {"type": "Point", "coordinates": [-96.7905754974, 32.8199224192]}, "type": "Feature", "properties": {"collection_times": [{"days": "Mon-Fri", "time": "3:00pm"}, {"days": "Sat-Sun", "time": "Closed"}], "id": "7520501344", "name": "USPS COLLECTION BOX - BLUE BOX", "address": {"city": "DALLAS", "state": "TX", "street": "4400 COLE AVE", "postcode": "75205"}}},
{"geometry": {"type": "Point", "coordinates": [-96.790747894, 32.8165879424]}, "type": "Feature", "properties": {"collection_times": [{"days": "Mon-Fri", "time": "2:00pm"}, {"days": "Sat-Sun", "time": "Closed"}], "id": "7520501348", "name": "USPS COLLECTION BOX - BLUE BOX", "address": {"city": "DALLAS", "state": "TX", "street": "4200 MCKINNEY AVE", "postcode": "75205"}}},
{"geometry": {"type": "Point", "coordinates": [-96.7869566872, 32.8452965115]}, "type": "Feature", "properties": {"collection_times": [{"days": "Mon-Fri", "time": "2:00pm"}, {"days": "Sat-Sun", "time": "Closed"}], "id": "7520501354", "name": "USPS COLLECTION BOX - BLUE BOX", "address": {"city": "DALLAS", "state": "TX", "street": "6500 HILLCREST AVE", "postcode": "75205"}}},
{"geometry": {"type": "Point", "coordinates": [-96.7839588925, 32.8286553068]}, "type": "Feature", "properties": {"collection_times": [{"days": "Mon-Fri", "time": "5:00pm"}, {"days": "Sat-Sun", "time": "Closed"}], "id": "7520501361", "name": "USPS COLLECTION BOX - BLUE BOX", "address": {"city": "DALLAS", "state": "TX", "street": "5031 MCKINNEY AVE", "postcode": "75205"}}},
{"geometry": {"type": "Point", "coordinates": [-96.7895885942, 32.8219219044]}, "type": "Feature", "properties": {"collection_times": [{"days": "Mon-Fri", "time": "3:00pm"}, {"days": "Sat-Sun", "time": "Closed"}], "id": "7520501371", "name": "USPS COLLECTION BOX - BLUE BOX", "address": {"city": "DALLAS", "state": "TX", "street": "4514 COLE AVE", "postcode": "75205"}}},
{"geometry": {"type": "Point", "coordinates": [-96.8042768657, 32.8375606764]}, "type": "Feature", "properties": {"collection_times": [{"days": "Mon-Fri", "time": "2:00pm"}, {"days": "Sat", "time": "1:00pm"}, {"days": "Sun", "time": "Closed"}], "id": "7520501377", "name": "USPS COLLECTION BOX - BLUE BOX", "address": {"city": "DALLAS", "state": "TX", "street": "5500 PRESTON RD", "postcode": "75205"}}},
{"geometry": {"type": "Point", "coordinates": [-96.7816189997, 32.8317298171]}, "type": "Feature", "properties": {"collection_times": [{"days": "Mon-Fri", "time": "5:00pm"}, {"days": "Sat-Sun", "time": "Closed"}], "id": "7520505298", "name": "USPS COLLECTION BOX - BLUE BOX", "address": {"city": "DALLAS", "state": "TX", "street": "4931 AIRLINE RD", "postcode": "75205"}}},
{"geometry": {"type": "Point", "coordinates": [-96.7968058269, 32.828648209]}, "type": "Feature", "properties": {"collection_times": [{"days": "Mon-Sat", "time": "1:00pm"}, {"days": "Sun", "time": "Closed"}], "id": "7520505300", "name": "USPS COLLECTION BOX - BLUE BOX", "address": {"city": "DALLAS", "state": "TX", "street": "4700 DREXEL DR", "postcode": "75205"}}},
{"geometry": {"type": "Point", "coordinates": [-96.7869566872, 32.8452965115]}, "type": "Feature", "properties": {"collection_times": [{"days": "Mon-Fri", "time": "2:00pm"}, {"days": "Sat-Sun", "time": "Closed"}], "id": "7520505302", "name": "USPS COLLECTION BOX - BLUE BOX", "address": {"city": "DALLAS", "state": "TX", "street": "6500 HILLCREST AVE", "postcode": "75205"}}},
{"geometry": {"type": "Point", "coordinates": [-96.7839588925, 32.8286553068]}, "type": "Feature", "properties": {"collection_times": [{"days": "Mon-Fri", "time": "5:00pm"}, {"days": "Sat-Sun", "time": "Closed"}], "id": "7520505304", "name": "USPS COLLECTION BOX - BLUE BOX", "address": {"city": "DALLAS", "state": "TX", "street": "5031 MCKINNEY AVE", "postcode": "75205"}}},
{"geometry": {"type": "Point", "coordinates": [-96.7895885942, 32.8219219044]}, "type": "Feature", "properties": {"collection_times": [{"days": "Mon-Fri", "time": "3:00pm"}, {"days": "Sat-Sun", "time": "Closed"}], "id": "7520507240", "name": "USPS COLLECTION BOX - BLUE BOX", "address": {"city": "DALLAS", "state": "TX", "street": "4514 COLE AVE", "postcode": "75205"}}},
{"geometry": {"type": "Point", "coordinates": [-96.8042768657, 32.8375606764]}, "type": "Feature", "properties": {"collection_times": [{"days": "Mon-Fri", "time": "2:00pm"}, {"days": "Sat", "time": "1:00pm"}, {"days": "Sun", "time": "Closed"}], "id": "7520507241", "name": "USPS COLLECTION BOX - BLUE BOX", "address": {"city": "DALLAS", "state": "TX", "street": "5500 PRESTON RD", "postcode": "75205"}}},
{"geometry": {"type": "Point", "coordinates": [-96.7724435108, 32.8419630916]}, "type": "Feature", "properties": {"collection_times": [{"days": "Mon-Fri", "time": "5:00pm"}, {"days": "Sat", "time": "3:00pm"}, {"days": "Sun", "time": "Closed"}], "id": "7520601378", "name": "USPS COLLECTION BOX - BLUE BOX", "address": {"city": "DALLAS", "state": "TX", "street": "5606 SMU BLVD", "postcode": "75206"}}},
{"geometry": {"type": "Point", "coordinates": [-96.7761759188, 32.8061344785]}, "type": "Feature", "properties": {"collection_times": [{"days": "Mon-Sat", "time": "1:00pm"}, {"days": "Sun", "time": "Closed"}], "id": "7520601389", "name": "USPS COLLECTION BOX - BLUE BOX", "address": {"city": "DALLAS", "state": "TX", "street": "4900 ROSS AVE", "postcode": "75206"}}},
{"geometry": {"type": "Point", "coordinates": [-96.7669124538, 32.8511007702]}, "type": "Feature", "properties": {"collection_times": [{"days": "Mon-Sat", "time": "1:00pm"}, {"days": "Sun", "time": "Closed"}], "id": "7520601394", "name": "USPS COLLECTION BOX - BLUE BOX", "address": {"city": "DALLAS", "state": "TX", "street": "5809 E LOVERS LN", "postcode": "75206"}}},
{"geometry": {"type": "Point", "coordinates": [-96.7693322718, 32.8530803977]}, "type": "Feature", "properties": {"collection_times": [{"days": "Mon-Sat", "time": "1:00pm"}, {"days": "Sun", "time": "Closed"}], "id": "7520601396", "name": "USPS COLLECTION BOX - BLUE BOX", "address": {"city": "DALLAS", "state": "TX", "street": "5500 GREENVILLE AVE STE 200", "postcode": "75206"}}},
{"geometry": {"type": "Point", "coordinates": [-96.7698237158, 32.8260409675]}, "type": "Feature", "properties": {"collection_times": [{"days": "Mon-Fri", "time": "1:00pm"}, {"days": "Sat", "time": "12:00pm"}, {"days": "Sun", "time": "Closed"}], "id": "7520601398", "name": "USPS COLLECTION BOX - BLUE BOX", "address": {"city": "DALLAS", "state": "TX", "street": "5707 MARQUITA AVE", "postcode": "75206"}}},
{"geometry": {"type": "Point", "coordinates": [-96.7724435108, 32.8419630916]}, "type": "Feature", "properties": {"collection_times": [{"days": "Mon-Fri", "time": "5:00pm"}, {"days": "Sat", "time": "3:00pm"}, {"days": "Sun", "time": "Closed"}], "id": "7520605310", "name": "USPS COLLECTION BOX - BLUE BOX", "address": {"city": "DALLAS", "state": "TX", "street": "5606 SMU BLVD", "postcode": "75206"}}},
{"geometry": {"type": "Point", "coordinates": [-96.77123262, 32.8173119133]}, "type": "Feature", "properties": {"collection_times": [{"days": "Mon-Fri", "time": "1:00pm"}, {"days": "Sat-Sun", "time": "Closed"}], "id": "7520606882", "name": "USPS COLLECTION BOX - BLUE BOX", "address": {"city": "DALLAS", "state": "TX", "street": "2218 GREENVILLE AVE", "postcode": "75206"}}},
{"geometry": {"type": "Point", "coordinates": [-96.7627518127, 32.8479143297]}, "type": "Feature", "properties": {"collection_times": [{"days": "Mon-Sat", "time": "1:00pm"}, {"days": "Sun", "time": "Closed"}], "id": "7520607363", "name": "USPS COLLECTION BOX - BLUE BOX", "address": {"city": "DALLAS", "state": "TX", "street": "6060 BIRCHBROOK DR", "postcode": "75206"}}},
{"geometry": {"type": "Point", "coordinates": [-96.7708836471, 32.8366083399]}, "type": "Feature", "properties": {"collection_times": [{"days": "Mon-Sat", "time": "1:00pm"}, {"days": "Sun", "time": "Closed"}], "id": "7520607364", "name": "USPS COLLECTION BOX - BLUE BOX", "address": {"city": "DALLAS", "state": "TX", "street": "5665 E MOCKINGBIRD LN", "postcode": "75206"}}},
{"geometry": {"type": "Point", "coordinates": [-96.7701454807, 32.8499379215]}, "type": "Feature", "properties": {"collection_times": [{"days": "Mon-Fri", "time": "5:00pm"}, {"days": "Sat", "time": "2:00pm"}, {"days": "Sun", "time": "Closed"}], "id": "7520607368", "name": "USPS COLLECTION BOX - PO LOBBY", "address": {"city": "DALLAS", "state": "TX", "street": "5111 GREENVILLE AVE", "postcode": "75206"}}},
{"geometry": {"type": "Point", "coordinates": [-96.7701454807, 32.8499379215]}, "type": "Feature", "properties": {"collection_times": [{"days": "Mon-Fri", "time": "5:00pm"}, {"days": "Sat", "time": "2:00pm"}, {"days": "Sun", "time": "Closed"}], "id": "7520607369", "name": "USPS COLLECTION BOX - PO LOBBY", "address": {"city": "DALLAS", "state": "TX", "street": "5111 GREENVILLE AVE", "postcode": "75206"}}},
{"geometry": {"type": "Point", "coordinates": [-96.77743535, 32.8367117157]}, "type": "Feature", "properties": {"collection_times": [{"days": "Mon-Fri", "time": "5:00pm"}, {"days": "Sat-Sun", "time": "Closed"}], "id": "7520607383", "name": "USPS COLLECTION BOX - BLUE BOX", "address": {"city": "DALLAS", "state": "TX", "street": "5307 E MOCKINGBIRD LN", "postcode": "75206"}}},
{"geometry": {"type": "Point", "coordinates": [-96.7701454807, 32.8499379215]}, "type": "Feature", "properties": {"collection_times": [{"days": "Mon-Fri", "time": "5:00pm"}, {"days": "Sat", "time": "2:00pm"}, {"days": "Sun", "time": "Closed"}], "id": "7520607387", "name": "USPS COLLECTION BOX - APC", "address": {"city": "DALLAS", "state": "TX", "street": "5111 GREENVILLE AVE", "postcode": "75206"}}},
{"geometry": {"type": "Point", "coordinates": [-96.8402182923, 32.8018549598]}, "type": "Feature", "properties": {"collection_times": [{"days": "Mon-Fri", "time": "1:30pm"}, {"days": "Sat-Sun", "time": "Closed"}], "id": "7520701444", "name": "USPS COLLECTION BOX - BLUE BOX", "address": {"city": "DALLAS", "state": "TX", "street": "1320 CHEMICAL ST", "postcode": "75207"}}},
{"geometry": {"type": "Point", "coordinates": [-96.8448683146, 32.8052606706]}, "type": "Feature", "properties": {"collection_times": [{"days": "Mon-Fri", "time": "1:00pm"}, {"days": "Sat-Sun", "time": "Closed"}], "id": "7520701449", "name": "USPS COLLECTION BOX - BLUE BOX", "address": {"city": "DALLAS", "state": "TX", "street": "1200 DOLTON DR", "postcode": "75207"}}},
{"geometry": {"type": "Point", "coordinates": [-96.8164266422, 32.7869988719]}, "type": "Feature", "properties": {"collection_times": [{"days": "Mon-Fri", "time": "1:30pm"}, {"days": "Sat-Sun", "time": "Closed"}], "id": "7520701450", "name": "USPS COLLECTION BOX - BLUE BOX", "address": {"city": "DALLAS", "state": "TX", "street": "1000 DRAGON ST", "postcode": "75207"}}},
{"geometry": {"type": "Point", "coordinates": [-96.8508315628, 32.8072839701]}, "type": "Feature", "properties": {"collection_times": [{"days": "Mon-Fri", "time": "12:00pm"}, {"days": "Sat-Sun", "time": "Closed"}], "id": "7520701457", "name": "USPS COLLECTION BOX - BLUE BOX", "address": {"city": "DALLAS", "state": "TX", "street": "1100 LUPO DR", "postcode": "75207"}}},
{"geometry": {"type": "Point", "coordinates": [-96.8134646622, 32.7776766951]}, "type": "Feature", "properties": {"collection_times": [{"days": "Mon-Fri", "time": "3:00pm"}, {"days": "Sat-Sun", "time": "Closed"}], "id": "7520701459", "name": "USPS COLLECTION BOX - BLUE BOX", "address": {"city": "DALLAS", "state": "TX", "street": "133 N RIVERFRONT BLVD", "postcode": "75207"}}},
{"geometry": {"type": "Point", "coordinates": [-96.8257578731, 32.8019291227]}, "type": "Feature", "properties": {"collection_times": [{"days": "Mon-Sat", "time": "2:00pm"}, {"days": "Sun", "time": "Closed"}], "id": "7520701469", "name": "USPS COLLECTION BOX - BLUE BOX", "address": {"city": "DALLAS", "state": "TX", "street": "2100 N STEMMONS FWY", "postcode": "75207"}}},
{"geometry": {"type": "Point", "coordinates": [-96.8295820709, 32.7951763851]}, "type": "Feature", "properties": {"collection_times": [{"days": "Mon-Fri", "time": "1:30pm"}, {"days": "Sat", "time": "1:00pm"}, {"days": "Sun", "time": "Closed"}], "id": "7520705649", "name": "USPS COLLECTION BOX - BLUE BOX", "address": {"city": "DALLAS", "state": "TX", "street": "2025 IRVING BLVD", "postcode": "75207"}}},
{"geometry": {"type": "Point", "coordinates": [-96.8144354643, 32.7816977507]}, "type": "Feature", "properties": {"collection_times": [{"days": "Mon-Fri", "time": "12:00pm"}, {"days": "Sat-Sun", "time": "Closed"}], "id": "7520705879", "name": "USPS COLLECTION BOX - BLUE BOX", "address": {"city": "DALLAS", "state": "TX", "street": "505 N RIVERFRONT BLVD", "postcode": "75207"}}},
{"geometry": {"type": "Point", "coordinates": [-96.8185190387, 32.7932386983]}, "type": "Feature", "properties": {"collection_times": [{"days": "Mon-Fri", "time": "3:15pm"}, {"days": "Sat", "time": "1:00pm"}, {"days": "Sun", "time": "Closed"}], "id": "7520705880", "name": "USPS COLLECTION BOX - BLUE BOX", "address": {"city": "DALLAS", "state": "TX", "street": "1502 SLOCUM ST", "postcode": "75207"}}},
{"geometry": {"type": "Point", "coordinates": [-96.8250770501, 32.7949233965]}, "type": "Feature", "properties": {"collection_times": [{"days": "Mon-Fri", "time": "3:15pm"}, {"days": "Sat", "time": "1:00pm"}, {"days": "Sun", "time": "Closed"}], "id": "7520706598", "name": "USPS COLLECTION BOX - BLUE BOX", "address": {"city": "DALLAS", "state": "TX", "street": "1502 SLOCUM ST", "postcode": "75207"}}},
{"geometry": {"type": "Point", "coordinates": [-96.8134646622, 32.7776766951]}, "type": "Feature", "properties": {"collection_times": [{"days": "Mon-Fri", "time": "3:00pm"}, {"days": "Sat-Sun", "time": "Closed"}], "id": "7520706599", "name": "USPS COLLECTION BOX - BLUE BOX", "address": {"city": "DALLAS", "state": "TX", "street": "133 N RIVERFRONT BLVD", "postcode": "75207"}}},
{"geometry": {"type": "Point", "coordinates": [-96.8134646622, 32.7776766951]}, "type": "Feature", "properties": {"collection_times": [{"days": "Mon-Fri", "time": "3:00pm"}, {"days": "Sat-Sun", "time": "Closed"}], "id": "7520706600", "name": "USPS COLLECTION BOX - BLUE BOX", "address": {"city": "DALLAS", "state": "TX", "street": "133 N RIVERFRONT BLVD", "postcode": "75207"}}},
{"geometry": {"type": "Point", "coordinates": [-96.8441271949, 32.7443992033]}, "type": "Feature", "properties": {"collection_times": [{"days": "Mon-Fri", "time": "1:00pm"}, {"days": "Sat-Sun", "time": "Closed"}], "id": "7520801503", "name": "USPS COLLECTION BOX - BLUE BOX", "address": {"city": "DALLAS", "state": "TX", "street": "1401 W JEFFERSON BLVD", "postcode": "75208"}}},
{"geometry": {"type": "Point", "coordinates": [-96.8568918616, 32.7426116035]}, "type": "Feature", "properties": {"collection_times": [{"days": "Mon-Sat", "time": "1:00pm"}, {"days": "Sun", "time": "Closed"}], "id": "7520801505", "name": "USPS COLLECTION BOX - BLUE BOX", "address": {"city": "DALLAS", "state": "TX", "street": "315 S HAMPTON RD", "postcode": "75208"}}},
{"geometry": {"type": "Point", "coordinates": [-96.8306798568, 32.7422543499]}, "type": "Feature", "properties": {"collection_times": [{"days": "Mon-Fri", "time": "5:00pm"}, {"days": "Sat", "time": "3:00pm"}, {"days": "Sun", "time": "Closed"}], "id": "7520801525", "name": "USPS COLLECTION BOX - PO LOBBY", "address": {"city": "DALLAS", "state": "TX", "street": "515 CENTRE ST", "postcode": "75208"}}},
{"geometry": {"type": "Point", "coordinates": [-96.8309700053, 32.7422976685]}, "type": "Feature", "properties": {"collection_times": [{"days": "Mon-Fri", "time": "5:00pm"}, {"days": "Sat", "time": "3:00pm"}, {"days": "Sun", "time": "Closed"}], "id": "7520805281", "name": "USPS COLLECTION BOX - BLUE BOX", "address": {"city": "DALLAS", "state": "TX", "street": "515 CENTRE ST", "postcode": "75208"}}},
{"geometry": {"type": "Point", "coordinates": [-96.8306798568, 32.7422543499]}, "type": "Feature", "properties": {"collection_times": [{"days": "Mon-Fri", "time": "5:00pm"}, {"days": "Sat", "time": "3:00pm"}, {"days": "Sun", "time": "Closed"}], "id": "7520807205", "name": "USPS COLLECTION BOX - PO LOBBY", "address": {"city": "DALLAS", "state": "TX", "street": "515 CENTRE ST", "postcode": "75208"}}},
{"geometry": {"type": "Point", "coordinates": [-96.8179198949, 32.8229493676]}, "type": "Feature", "properties": {"collection_times": [{"days": "Mon-Fri", "time": "1:00pm"}, {"days": "Sat-Sun", "time": "Closed"}], "id": "7520901540", "name": "USPS COLLECTION BOX - BLUE BOX", "address": {"city": "DALLAS", "state": "TX", "street": "4310 WESTSIDE DR", "postcode": "75209"}}},
{"geometry": {"type": "Point", "coordinates": [-96.8213510424, 32.8487159249]}, "type": "Feature", "properties": {"collection_times": [{"days": "Mon-Sat", "time": "1:00pm"}, {"days": "Sun", "time": "Closed"}], "id": "7520905442", "name": "USPS COLLECTION BOX - BLUE BOX", "address": {"city": "DALLAS", "state": "TX", "street": "7611 INWOOD RD", "postcode": "75209"}}},
{"geometry": {"type": "Point", "coordinates": [-96.8179198949, 32.8229493676]}, "type": "Feature", "properties": {"collection_times": [{"days": "Mon-Fri", "time": "1:00pm"}, {"days": "Sat-Sun", "time": "Closed"}], "id": "7520905445", "name": "USPS COLLECTION BOX - BLUE BOX", "address": {"city": "DALLAS", "state": "TX", "street": "4310 WESTSIDE DR", "postcode": "75209"}}},
{"geometry": {"type": "Point", "coordinates": [-96.843356271, 32.8523581574]}, "type": "Feature", "properties": {"collection_times": [{"days": "Mon-Fri", "time": "1:00pm"}, {"days": "Sat-Sun", "time": "Closed"}], "id": "7520905448", "name": "USPS COLLECTION BOX - BLUE BOX", "address": {"city": "DALLAS", "state": "TX", "street": "8111 LEMMON AVE", "postcode": "75209"}}},
{"geometry": {"type": "Point", "coordinates": [-96.7459988678, 32.771429116]}, "type": "Feature", "properties": {"collection_times": [{"days": "Mon-Fri", "time": "12:45pm"}, {"days": "Sat-Sun", "time": "Closed"}], "id": "7521000001", "name": "USPS COLLECTION BOX - BLUE BOX", "address": {"city": "DALLAS", "state": "TX", "street": "2800 LAGOW ST", "postcode": "75210"}}},
{"geometry": {"type": "Point", "coordinates": [-96.738983126, 32.7769699712]}, "type": "Feature", "properties": {"collection_times": [{"days": "Mon-Fri", "time": "1:00pm"}, {"days": "Sat-Sun", "time": "Closed"}], "id": "7521000002", "name": "USPS COLLECTION BOX - BLUE BOX", "address": {"city": "DALLAS", "state": "TX", "street": "2900 TROY ST", "postcode": "75210"}}},
{"geometry": {"type": "Point", "coordinates": [-96.8731283819, 32.7262874211]}, "type": "Feature", "properties": {"collection_times": [{"days": "Mon-Fri", "time": "2:00pm"}, {"days": "Sat-Sun", "time": "Closed"}], "id": "7521101556", "name": "USPS COLLECTION BOX - BLUE BOX", "address": {"city": "DALLAS", "state": "TX", "street": "3214 FALLS DR", "postcode": "75211"}}},
{"geometry": {"type": "Point", "coordinates": [-96.8739526939, 32.7543783723]}, "type": "Feature", "properties": {"collection_times": [{"days": "Mon-Fri", "time": "12:30pm"}, {"days": "Sat", "time": "11:00am"}, {"days": "Sun", "time": "Closed"}], "id": "7521101566", "name": "USPS COLLECTION BOX - BLUE BOX", "address": {"city": "DALLAS", "state": "TX", "street": "1010 N WESTMORELAND RD", "postcode": "75211"}}},
{"geometry": {"type": "Point", "coordinates": [-96.8567612555, 32.7619434384]}, "type": "Feature", "properties": {"collection_times": [{"days": "Mon-Sat", "time": "1:00pm"}, {"days": "Sun", "time": "Closed"}], "id": "7521101569", "name": "USPS COLLECTION BOX - BLUE BOX", "address": {"city": "DALLAS", "state": "TX", "street": "2100 FORT WORTH AVE", "postcode": "75211"}}},
{"geometry": {"type": "Point", "coordinates": [-96.8913680818, 32.7219810887]}, "type": "Feature", "properties": {"collection_times": [{"days": "Mon-Fri", "time": "5:00pm"}, {"days": "Sat", "time": "3:00pm"}, {"days": "Sun", "time": "Closed"}], "id": "7521101570", "name": "USPS COLLECTION BOX - BLUE BOX", "address": {"city": "DALLAS", "state": "TX", "street": "2202 S COCKRELL HILL RD", "postcode": "75211"}}},
{"geometry": {"type": "Point", "coordinates": [-96.8882651163, 32.7381471164]}, "type": "Feature", "properties": {"collection_times": [{"days": "Mon-Fri", "time": "12:30pm"}, {"days": "Sat-Sun", "time": "Closed"}], "id": "7521101576", "name": "USPS COLLECTION BOX - BLUE BOX", "address": {"city": "DALLAS", "state": "TX", "street": "4131 W JEFFERSON BLVD", "postcode": "75211"}}},
{"geometry": {"type": "Point", "coordinates": [-96.8913916768, 32.721955957]}, "type": "Feature", "properties": {"collection_times": [{"days": "Mon-Fri", "time": "5:00pm"}, {"days": "Sat", "time": "3:00pm"}, {"days": "Sun", "time": "Closed"}], "id": "7521105461", "name": "USPS COLLECTION BOX - BLUE BOX", "address": {"city": "DALLAS", "state": "TX", "street": "2202 S COCKRELL HILL RD", "postcode": "75211"}}},
{"geometry": {"type": "Point", "coordinates": [-96.8913916768, 32.721955957]}, "type": "Feature", "properties": {"collection_times": [{"days": "Mon-Fri", "time": "5:00pm"}, {"days": "Sat", "time": "3:00pm"}, {"days": "Sun", "time": "Closed"}], "id": "7521106763", "name": "USPS COLLECTION BOX - PO LOBBY", "address": {"city": "DALLAS", "state": "TX", "street": "2202 S COCKRELL HILL RD", "postcode": "75211"}}},
{"geometry": {"type": "Point", "coordinates": [-96.8913916768, 32.721955957]}, "type": "Feature", "properties": {"collection_times": [{"days": "Mon-Fri", "time": "5:00pm"}, {"days": "Sat", "time": "3:00pm"}, {"days": "Sun", "time": "Closed"}], "id": "7521106764", "name": "USPS COLLECTION BOX - PO LOBBY", "address": {"city": "DALLAS", "state": "TX", "street": "2202 S COCKRELL HILL RD", "postcode": "75211"}}},
{"geometry": {"type": "Point", "coordinates": [-96.8738882938, 32.7868857569]}, "type": "Feature", "properties": {"collection_times": [{"days": "Mon-Fri", "time": "1:00pm"}, {"days": "Sat", "time": "12:00pm"}, {"days": "Sun", "time": "Closed"}], "id": "7521201587", "name": "USPS COLLECTION BOX - BLUE BOX", "address": {"city": "DALLAS", "state": "TX", "street": "3301 BERNAL DR", "postcode": "75212"}}},
{"geometry": {"type": "Point", "coordinates": [-96.8535547343, 32.7870423593]}, "type": "Feature", "properties": {"collection_times": [{"days": "Mon-Fri", "time": "12:00pm"}, {"days": "Sat", "time": "11:30am"}, {"days": "Sun", "time": "Closed"}], "id": "7521201588", "name": "USPS COLLECTION BOX - BLUE BOX", "address": {"city": "DALLAS", "state": "TX", "street": "2002 BICKERS ST", "postcode": "75212"}}},
{"geometry": {"type": "Point", "coordinates": [-96.8585299502, 32.7788281457]}, "type": "Feature", "properties": {"collection_times": [{"days": "Mon-Sat", "time": "1:00pm"}, {"days": "Sun", "time": "Closed"}], "id": "7521206332", "name": "USPS COLLECTION BOX - BLUE BOX", "address": {"city": "DALLAS", "state": "TX", "street": "2231 SINGLETON BLVD", "postcode": "75212"}}},
{"geometry": {"type": "Point", "coordinates": [-96.7511992099, 32.8365361794]}, "type": "Feature", "properties": {"collection_times": [{"days": "Mon-Fri", "time": "3:00pm"}, {"days": "Sat", "time": "1:00pm"}, {"days": "Sun", "time": "Closed"}], "id": "7521401613", "name": "USPS COLLECTION BOX - BLUE BOX", "address": {"city": "DALLAS", "state": "TX", "street": "6465 E MOCKINGBIRD LN STE 318", "postcode": "75214"}}},
{"geometry": {"type": "Point", "coordinates": [-96.7434742875, 32.8290015763]}, "type": "Feature", "properties": {"collection_times": [{"days": "Mon-Fri", "time": "2:00pm"}, {"days": "Sat", "time": "1:00pm"}, {"days": "Sun", "time": "Closed"}], "id": "7521401614", "name": "USPS COLLECTION BOX - BLUE BOX", "address": {"city": "DALLAS", "state": "TX", "street": "330 MEDALLION CTR", "postcode": "75214"}}},
{"geometry": {"type": "Point", "coordinates": [-96.7571707867, 32.812535125]}, "type": "Feature", "properties": {"collection_times": [{"days": "Mon-Sat", "time": "5:00pm"}, {"days": "Sun", "time": "Closed"}], "id": "7521401618", "name": "USPS COLLECTION BOX - PO LOBBY", "address": {"city": "DALLAS", "state": "TX", "street": "6120 SWISS AVE", "postcode": "75214"}}},
{"geometry": {"type": "Point", "coordinates": [-96.7556151957, 32.836432079]}, "type": "Feature", "properties": {"collection_times": [{"days": "Mon-Fri", "time": "3:00pm"}, {"days": "Sat", "time": "1:00pm"}, {"days": "Sun", "time": "Closed"}], "id": "7521401622", "name": "USPS COLLECTION BOX - BLUE BOX", "address": {"city": "DALLAS", "state": "TX", "street": "6260 E MOCKINGBIRD LN", "postcode": "75214"}}},
{"geometry": {"type": "Point", "coordinates": [-96.7571707867, 32.812535125]}, "type": "Feature", "properties": {"collection_times": [{"days": "Mon-Sat", "time": "5:00pm"}, {"days": "Sun", "time": "Closed"}], "id": "7521405217", "name": "USPS COLLECTION BOX - BLUE BOX", "address": {"city": "DALLAS", "state": "TX", "street": "6120 SWISS AVE", "postcode": "75214"}}},
{"geometry": {"type": "Point", "coordinates": [-96.7571707867, 32.812535125]}, "type": "Feature", "properties": {"collection_times": [{"days": "Mon-Sat", "time": "5:00pm"}, {"days": "Sun", "time": "Closed"}], "id": "7521405218", "name": "USPS COLLECTION BOX - BLUE BOX", "address": {"city": "DALLAS", "state": "TX", "street": "6120 SWISS AVE", "postcode": "75214"}}},
{"geometry": {"type": "Point", "coordinates": [-96.7571707867, 32.812535125]}, "type": "Feature", "properties": {"collection_times": [{"days": "Mon-Sat", "time": "5:00pm"}, {"days": "Sun", "time": "Closed"}], "id": "7521407328", "name": "USPS COLLECTION BOX - PO LOBBY", "address": {"city": "DALLAS", "state": "TX", "street": "6120 SWISS AVE", "postcode": "75214"}}},
{"geometry": {"type": "Point", "coordinates": [-96.7540040056, 32.8128190351]}, "type": "Feature", "properties": {"collection_times": [{"days": "Mon-Fri", "time": "4:00pm"}, {"days": "Sat-Sun", "time": "Closed"}], "id": "7521407329", "name": "USPS COLLECTION BOX - BLUE BOX", "address": {"city": "DALLAS", "state": "TX", "street": "6301 GASTON AVE", "postcode": "75214"}}},
{"geometry": {"type": "Point", "coordinates": [-96.7571707867, 32.812535125]}, "type": "Feature", "properties": {"collection_times": [{"days": "Mon-Sat", "time": "5:00pm"}, {"days": "Sun", "time": "Closed"}], "id": "7521407330", "name": "USPS COLLECTION BOX - APC", "address": {"city": "DALLAS", "state": "TX", "street": "6120 SWISS AVE", "postcode": "75214"}}},
{"geometry": {"type": "Point", "coordinates": [-96.7926595557, 32.7704016755]}, "type": "Feature", "properties": {"collection_times": [{"days": "Mon-Fri", "time": "3:00pm"}, {"days": "Sat-Sun", "time": "Closed"}], "id": "7521501629", "name": "USPS COLLECTION BOX - BLUE BOX", "address": {"city": "DALLAS", "state": "TX", "street": "1401 S AKARD ST", "postcode": "75215"}}},
{"geometry": {"type": "Point", "coordinates": [-96.7714345741, 32.7664294942]}, "type": "Feature", "properties": {"collection_times": [{"days": "Mon-Fri", "time": "3:00pm"}, {"days": "Sat-Sun", "time": "Closed"}], "id": "7521501630", "name": "USPS COLLECTION BOX - BLUE BOX", "address": {"city": "DALLAS", "state": "TX", "street": "2536 MARTIN LUTHER KING JR BLVD", "postcode": "75215"}}},
{"geometry": {"type": "Point", "coordinates": [-96.7855640853, 32.7660522135]}, "type": "Feature", "properties": {"collection_times": [{"days": "Mon-Fri", "time": "3:00pm"}, {"days": "Sat-Sun", "time": "Closed"}], "id": "7521501658", "name": "USPS COLLECTION BOX - BLUE BOX", "address": {"city": "DALLAS", "state": "TX", "street": "1400 PARKER ST", "postcode": "75215"}}},
{"geometry": {"type": "Point", "coordinates": [-96.7638549562, 32.7549518348]}, "type": "Feature", "properties": {"collection_times": [{"days": "Mon-Fri", "time": "5:00pm"}, {"days": "Sat", "time": "3:00pm"}, {"days": "Sun", "time": "Closed"}], "id": "7521501665", "name": "USPS COLLECTION BOX - PO LOBBY", "address": {"city": "DALLAS", "state": "TX", "street": "3055 AL LIPSCOMB WAY", "postcode": "75215"}}},
{"geometry": {"type": "Point", "coordinates": [-96.7638549562, 32.7549518348]}, "type": "Feature", "properties": {"collection_times": [{"days": "Mon-Fri", "time": "5:00pm"}, {"days": "Sat", "time": "3:00pm"}, {"days": "Sun", "time": "Closed"}], "id": "7521501666", "name": "USPS COLLECTION BOX - BLUE BOX", "address": {"city": "DALLAS", "state": "TX", "street": "3055 AL LIPSCOMB WAY", "postcode": "75215"}}},
{"geometry": {"type": "Point", "coordinates": [-96.7669704188, 32.7565811659]}, "type": "Feature", "properties": {"collection_times": [{"days": "Mon-Fri", "time": "3:00pm"}, {"days": "Sat", "time": "12:00pm"}, {"days": "Sun", "time": "Closed"}], "id": "7521501668", "name": "USPS COLLECTION BOX - BLUE BOX", "address": {"city": "DALLAS", "state": "TX", "street": "3808 S CENTRAL EXPY", "postcode": "75215"}}},
{"geometry": {"type": "Point", "coordinates": [-96.7638549562, 32.7549518348]}, "type": "Feature", "properties": {"collection_times": [{"days": "Mon-Fri", "time": "5:00pm"}, {"days": "Sat", "time": "3:00pm"}, {"days": "Sun", "time": "Closed"}], "id": "7521505509", "name": "USPS COLLECTION BOX - BLUE BOX", "address": {"city": "DALLAS", "state": "TX", "street": "3055 AL LIPSCOMB WAY", "postcode": "75215"}}},
{"geometry": {"type": "Point", "coordinates": [-96.767079251, 32.7702810137]}, "type": "Feature", "properties": {"collection_times": [{"days": "Mon-Fri", "time": "3:00pm"}, {"days": "Sat-Sun", "time": "Closed"}], "id": "7521506327", "name": "USPS COLLECTION BOX - BLUE BOX", "address": {"city": "DALLAS", "state": "TX", "street": "2922 MARTIN LUTHER KING JR BLVD", "postcode": "75215"}}},
{"geometry": {"type": "Point", "coordinates": [-96.7638549562, 32.7549518348]}, "type": "Feature", "properties": {"collection_times": [{"days": "Mon-Fri", "time": "5:00pm"}, {"days": "Sat", "time": "3:00pm"}, {"days": "Sun", "time": "Closed"}], "id": "7521507256", "name": "USPS COLLECTION BOX - PO LOBBY", "address": {"city": "DALLAS", "state": "TX", "street": "3055 AL LIPSCOMB WAY", "postcode": "75215"}}},
{"geometry": {"type": "Point", "coordinates": [-96.7460146714, 32.7615702676]}, "type": "Feature", "properties": {"collection_times": [{"days": "Mon-Fri", "time": "1:00pm"}, {"days": "Sat-Sun", "time": "Closed"}], "id": "7521507257", "name": "USPS COLLECTION BOX - BLUE BOX", "address": {"city": "DALLAS", "state": "TX", "street": "3400 HATCHER ST", "postcode": "75215"}}},
{"geometry": {"type": "Point", "coordinates": [-96.8120410997, 32.7271064481]}, "type": "Feature", "properties": {"collection_times": [{"days": "Mon-Fri", "time": "1:00pm"}, {"days": "Sat", "time": "12:00pm"}, {"days": "Sun", "time": "Closed"}], "id": "7521601690", "name": "USPS COLLECTION BOX - BLUE BOX", "address": {"city": "DALLAS", "state": "TX", "street": "1703 IDAHO AVE", "postcode": "75216"}}},
{"geometry": {"type": "Point", "coordinates": [-96.7731998807, 32.6940535039]}, "type": "Feature", "properties": {"collection_times": [{"days": "Mon-Sat", "time": "1:00pm"}, {"days": "Sun", "time": "Closed"}], "id": "7521601692", "name": "USPS COLLECTION BOX - BLUE BOX", "address": {"city": "DALLAS", "state": "TX", "street": "2837 E LEDBETTER DR", "postcode": "75216"}}},
{"geometry": {"type": "Point", "coordinates": [-96.8143928778, 32.7232181742]}, "type": "Feature", "properties": {"collection_times": [{"days": "Mon-Fri", "time": "1:00pm"}, {"days": "Sat", "time": "12:00pm"}, {"days": "Sun", "time": "Closed"}], "id": "7521601695", "name": "USPS COLLECTION BOX - BLUE BOX", "address": {"city": "DALLAS", "state": "TX", "street": "2018 S MARSALIS AVE", "postcode": "75216"}}},
{"geometry": {"type": "Point", "coordinates": [-96.8016883683, 32.7085204943]}, "type": "Feature", "properties": {"collection_times": [{"days": "Mon-Fri", "time": "5:00pm"}, {"days": "Sat", "time": "2:00pm"}, {"days": "Sun", "time": "Closed"}], "id": "7521601697", "name": "USPS COLLECTION BOX - BLUE BOX", "address": {"city": "DALLAS", "state": "TX", "street": "1502 E KIEST BLVD", "postcode": "75216"}}},
{"geometry": {"type": "Point", "coordinates": [-96.8144410355, 32.6893516785]}, "type": "Feature", "properties": {"collection_times": [{"days": "Mon-Fri", "time": "3:00pm"}, {"days": "Sat", "time": "1:00pm"}, {"days": "Sun", "time": "Closed"}], "id": "7521601703", "name": "USPS COLLECTION BOX - BLUE BOX", "address": {"city": "DALLAS", "state": "TX", "street": "4498 S MARSALIS AVE", "postcode": "75216"}}},
{"geometry": {"type": "Point", "coordinates": [-96.8016883683, 32.7085204943]}, "type": "Feature", "properties": {"collection_times": [{"days": "Mon-Fri", "time": "5:00pm"}, {"days": "Sat", "time": "2:00pm"}, {"days": "Sun", "time": "Closed"}], "id": "7521605482", "name": "USPS COLLECTION BOX - BLUE BOX", "address": {"city": "DALLAS", "state": "TX", "street": "1502 E KIEST BLVD", "postcode": "75216"}}},
{"geometry": {"type": "Point", "coordinates": [-96.8016883683, 32.7085204943]}, "type": "Feature", "properties": {"collection_times": [{"days": "Mon-Fri", "time": "5:00pm"}, {"days": "Sat", "time": "2:00pm"}, {"days": "Sun", "time": "Closed"}], "id": "7521605484", "name": "USPS COLLECTION BOX - PO LOBBY", "address": {"city": "DALLAS", "state": "TX", "street": "1502 E KIEST BLVD", "postcode": "75216"}}},
{"geometry": {"type": "Point", "coordinates": [-96.8016883683, 32.7085204943]}, "type": "Feature", "properties": {"collection_times": [{"days": "Mon-Fri", "time": "5:00pm"}, {"days": "Sat", "time": "2:00pm"}, {"days": "Sun", "time": "Closed"}], "id": "7521605485", "name": "USPS COLLECTION BOX - PO LOBBY", "address": {"city": "DALLAS", "state": "TX", "street": "1502 E KIEST BLVD", "postcode": "75216"}}},
{"geometry": {"type": "Point", "coordinates": [-96.8016883683, 32.7085204943]}, "type": "Feature", "properties": {"collection_times": [{"days": "Mon-Fri", "time": "5:00pm"}, {"days": "Sat", "time": "2:00pm"}, {"days": "Sun", "time": "Closed"}], "id": "7521605486", "name": "USPS COLLECTION BOX - BLUE BOX", "address": {"city": "DALLAS", "state": "TX", "street": "1502 E KIEST BLVD", "postcode": "75216"}}},
{"geometry": {"type": "Point", "coordinates": [-96.7886020064, 32.6864802006]}, "type": "Feature", "properties": {"collection_times": [{"days": "Mon-Sat", "time": "1:00pm"}, {"days": "Sun", "time": "Closed"}], "id": "7521605487", "name": "USPS COLLECTION BOX - BLUE BOX", "address": {"city": "DALLAS", "state": "TX", "street": "2130 E LEDBETTER DR", "postcode": "75216"}}},
{"geometry": {"type": "Point", "coordinates": [-96.6499698624, 32.7341155922]}, "type": "Feature", "properties": {"collection_times": [{"days": "Mon-Fri", "time": "2:00pm"}, {"days": "Sat", "time": "1:00pm"}, {"days": "Sun", "time": "Closed"}], "id": "7521701715", "name": "USPS COLLECTION BOX - BLUE BOX", "address": {"city": "DALLAS", "state": "TX", "street": "10121 LAKE JUNE RD", "postcode": "75217"}}},
{"geometry": {"type": "Point", "coordinates": [-96.6815181155, 32.7112525976]}, "type": "Feature", "properties": {"collection_times": [{"days": "Mon-Sat", "time": "1:00pm"}, {"days": "Sun", "time": "Closed"}], "id": "7521701719", "name": "USPS COLLECTION BOX - BLUE BOX", "address": {"city": "DALLAS", "state": "TX", "street": "7932 GREAT TRINITY FOREST WAY", "postcode": "75217"}}},
{"geometry": {"type": "Point", "coordinates": [-96.6571384966, 32.7126671756]}, "type": "Feature", "properties": {"collection_times": [{"days": "Mon-Sat", "time": "1:00pm"}, {"days": "Sun", "time": "Closed"}], "id": "7521701721", "name": "USPS COLLECTION BOX - BLUE BOX", "address": {"city": "DALLAS", "state": "TX", "street": "129 SAINT AUGUSTINE CTR", "postcode": "75217"}}},
{"geometry": {"type": "Point", "coordinates": [-96.6829105377, 32.7174713596]}, "type": "Feature", "properties": {"collection_times": [{"days": "Mon-Fri", "time": "5:00pm"}, {"days": "Sat", "time": "3:00pm"}, {"days": "Sun", "time": "Closed"}], "id": "7521701723", "name": "USPS COLLECTION BOX - PO LOBBY", "address": {"city": "DALLAS", "state": "TX", "street": "350 S BUCKNER BLVD", "postcode": "75217"}}},
{"geometry": {"type": "Point", "coordinates": [-96.6754046631, 32.7342469007]}, "type": "Feature", "properties": {"collection_times": [{"days": "Mon-Fri", "time": "2:00pm"}, {"days": "Sat", "time": "1:00pm"}, {"days": "Sun", "time": "Closed"}], "id": "7521701725", "name": "USPS COLLECTION BOX - BLUE BOX", "address": {"city": "DALLAS", "state": "TX", "street": "8411 LAKE JUNE RD", "postcode": "75217"}}},
{"geometry": {"type": "Point", "coordinates": [-96.679360746, 32.7147388056]}, "type": "Feature", "properties": {"collection_times": [{"days": "Mon-Fri", "time": "2:00pm"}, {"days": "Sat", "time": "1:00pm"}, {"days": "Sun", "time": "Closed"}], "id": "7521705432", "name": "USPS COLLECTION BOX - BLUE BOX", "address": {"city": "DALLAS", "state": "TX", "street": "230 PLEASANT GROVE SHOPPING CTR", "postcode": "75217"}}},
{"geometry": {"type": "Point", "coordinates": [-96.6829105377, 32.7174713596]}, "type": "Feature", "properties": {"collection_times": [{"days": "Mon-Fri", "time": "5:00pm"}, {"days": "Sat", "time": "3:00pm"}, {"days": "Sun", "time": "Closed"}], "id": "7521705433", "name": "USPS COLLECTION BOX - BLUE BOX", "address": {"city": "DALLAS", "state": "TX", "street": "350 S BUCKNER BLVD", "postcode": "75217"}}},
{"geometry": {"type": "Point", "coordinates": [-96.6829105377, 32.7174713596]}, "type": "Feature", "properties": {"collection_times": [{"days": "Mon-Fri", "time": "5:00pm"}, {"days": "Sat", "time": "3:00pm"}, {"days": "Sun", "time": "Closed"}], "id": "7521706113", "name": "USPS COLLECTION BOX - BLUE BOX", "address": {"city": "DALLAS", "state": "TX", "street": "350 S BUCKNER BLVD", "postcode": "75217"}}},
{"geometry": {"type": "Point", "coordinates": [-96.6829105377, 32.7174713596]}, "type": "Feature", "properties": {"collection_times": [{"days": "Mon-Fri", "time": "5:00pm"}, {"days": "Sat", "time": "3:00pm"}, {"days": "Sun", "time": "Closed"}], "id": "7521706114", "name": "USPS COLLECTION BOX - PO LOBBY", "address": {"city": "DALLAS", "state": "TX", "street": "350 S BUCKNER BLVD", "postcode": "75217"}}},
{"geometry": {"type": "Point", "coordinates": [-96.6829105377, 32.7174713596]}, "type": "Feature", "properties": {"collection_times": [{"days": "Mon-Fri", "time": "5:00pm"}, {"days": "Sat", "time": "3:00pm"}, {"days": "Sun", "time": "Closed"}], "id": "7521706115", "name": "USPS COLLECTION BOX - PO LOBBY", "address": {"city": "DALLAS", "state": "TX", "street": "350 S BUCKNER BLVD", "postcode": "75217"}}},
{"geometry": {"type": "Point", "coordinates": [-96.6829105377, 32.7174713596]}, "type": "Feature", "properties": {"collection_times": [{"days": "Mon-Fri", "time": "5:00pm"}, {"days": "Sat", "time": "3:00pm"}, {"days": "Sun", "time": "Closed"}], "id": "7521706116", "name": "USPS COLLECTION BOX - PO LOBBY", "address": {"city": "DALLAS", "state": "TX", "street": "350 S BUCKNER BLVD", "postcode": "75217"}}},
{"geometry": {"type": "Point", "coordinates": [-96.6677639311, 32.7487440628]}, "type": "Feature", "properties": {"collection_times": [{"days": "Mon-Fri", "time": "4:00pm"}, {"days": "Sat", "time": "1:00pm"}, {"days": "Sun", "time": "Closed"}], "id": "7521706118", "name": "USPS COLLECTION BOX - BLUE BOX", "address": {"city": "DALLAS", "state": "TX", "street": "9009 BRUTON RD", "postcode": "75217"}}},
{"geometry": {"type": "Point", "coordinates": [-96.7036342359, 32.8346745966]}, "type": "Feature", "properties": {"collection_times": [{"days": "Mon-Fri", "time": "2:30pm"}, {"days": "Sat-Sun", "time": "Closed"}], "id": "7521801730", "name": "USPS COLLECTION BOX - BLUE BOX", "address": {"city": "DALLAS", "state": "TX", "street": "1151 N BUCKNER BLVD", "postcode": "75218"}}},
{"geometry": {"type": "Point", "coordinates": [-96.6901029282, 32.8435215521]}, "type": "Feature", "properties": {"collection_times": [{"days": "Mon-Fri", "time": "2:30pm"}, {"days": "Sat-Sun", "time": "Closed"}], "id": "7521801738", "name": "USPS COLLECTION BOX - BLUE BOX", "address": {"city": "DALLAS", "state": "TX", "street": "10520 GARLAND RD", "postcode": "75218"}}},
{"geometry": {"type": "Point", "coordinates": [-96.7017629787, 32.8612939616]}, "type": "Feature", "properties": {"collection_times": [{"days": "Mon-Sat", "time": "1:00pm"}, {"days": "Sun", "time": "Closed"}], "id": "7521801741", "name": "USPS COLLECTION BOX - BLUE BOX", "address": {"city": "DALLAS", "state": "TX", "street": "11135 E LAKE HIGHLANDS DR", "postcode": "75218"}}},
{"geometry": {"type": "Point", "coordinates": [-96.6848068209, 32.8480156132]}, "type": "Feature", "properties": {"collection_times": [{"days": "Mon-Fri", "time": "5:00pm"}, {"days": "Sat", "time": "1:00pm"}, {"days": "Sun", "time": "Closed"}], "id": "7521801742", "name": "USPS COLLECTION BOX - BLUE BOX", "address": {"city": "DALLAS", "state": "TX", "street": "11225 GARLAND RD", "postcode": "75218"}}},
{"geometry": {"type": "Point", "coordinates": [-96.6999214876, 32.8316552907]}, "type": "Feature", "properties": {"collection_times": [{"days": "Mon-Fri", "time": "5:00pm"}, {"days": "Sat", "time": "3:00pm"}, {"days": "Sun", "time": "Closed"}], "id": "7521801743", "name": "USPS COLLECTION BOX - PO LOBBY", "address": {"city": "DALLAS", "state": "TX", "street": "1351 N BUCKNER BLVD", "postcode": "75218"}}},
{"geometry": {"type": "Point", "coordinates": [-96.6999214876, 32.8316552907]}, "type": "Feature", "properties": {"collection_times": [{"days": "Mon-Fri", "time": "5:00pm"}, {"days": "Sat", "time": "3:00pm"}, {"days": "Sun", "time": "Closed"}], "id": "7521801744", "name": "USPS COLLECTION BOX - BLUE BOX", "address": {"city": "DALLAS", "state": "TX", "street": "1351 N BUCKNER BLVD", "postcode": "75218"}}},
{"geometry": {"type": "Point", "coordinates": [-96.703541704, 32.841434866]}, "type": "Feature", "properties": {"collection_times": [{"days": "Mon-Fri", "time": "2:00pm"}, {"days": "Sat-Sun", "time": "Closed"}], "id": "7521801746", "name": "USPS COLLECTION BOX - BLUE BOX", "address": {"city": "DALLAS", "state": "TX", "street": "718 N BUCKNER BLVD", "postcode": "75218"}}},
{"geometry": {"type": "Point", "coordinates": [-96.7001791782, 32.8318580736]}, "type": "Feature", "properties": {"collection_times": [{"days": "Mon-Fri", "time": "5:00pm"}, {"days": "Sat", "time": "3:00pm"}, {"days": "Sun", "time": "Closed"}], "id": "7521805435", "name": "USPS COLLECTION BOX - BLUE BOX", "address": {"city": "DALLAS", "state": "TX", "street": "1351 N BUCKNER BLVD", "postcode": "75218"}}},
{"geometry": {"type": "Point", "coordinates": [-96.6848068209, 32.8480156132]}, "type": "Feature", "properties": {"collection_times": [{"days": "Mon-Fri", "time": "5:00pm"}, {"days": "Sat", "time": "1:00pm"}, {"days": "Sun", "time": "Closed"}], "id": "7521805438", "name": "USPS COLLECTION BOX - BLUE BOX", "address": {"city": "DALLAS", "state": "TX", "street": "11225 GARLAND RD", "postcode": "75218"}}},
{"geometry": {"type": "Point", "coordinates": [-96.6872496312, 32.8460211444]}, "type": "Feature", "properties": {"collection_times": [{"days": "Mon-Fri", "time": "2:30pm"}, {"days": "Sat", "time": "11:00am"}, {"days": "Sun", "time": "Closed"}], "id": "7521805439", "name": "USPS COLLECTION BOX - BLUE BOX", "address": {"city": "DALLAS", "state": "TX", "street": "10915 GARLAND RD", "postcode": "75218"}}},
{"geometry": {"type": "Point", "coordinates": [-96.6999214876, 32.8316552907]}, "type": "Feature", "properties": {"collection_times": [{"days": "Mon-Fri", "time": "5:00pm"}, {"days": "Sat", "time": "3:00pm"}, {"days": "Sun", "time": "Closed"}], "id": "7521806629", "name": "USPS COLLECTION BOX - PO LOBBY", "address": {"city": "DALLAS", "state": "TX", "street": "1351 N BUCKNER BLVD", "postcode": "75218"}}},
{"geometry": {"type": "Point", "coordinates": [-96.6999214876, 32.8316552907]}, "type": "Feature", "properties": {"collection_times": [{"days": "Mon-Fri", "time": "5:00pm"}, {"days": "Sat", "time": "3:00pm"}, {"days": "Sun", "time": "Closed"}], "id": "7521806630", "name": "USPS COLLECTION BOX - APC", "address": {"city": "DALLAS", "state": "TX", "street": "1351 N BUCKNER BLVD", "postcode": "75218"}}},
{"geometry": {"type": "Point", "coordinates": [-96.8111773779, 32.8119340473]}, "type": "Feature", "properties": {"collection_times": [{"days": "Mon-Fri", "time": "2:30pm"}, {"days": "Sat", "time": "1:30pm"}, {"days": "Sun", "time": "Closed"}], "id": "7521901763", "name": "USPS COLLECTION BOX - BLUE BOX", "address": {"city": "DALLAS", "state": "TX", "street": "3334 HAWTHORNE AVE", "postcode": "75219"}}},
{"geometry": {"type": "Point", "coordinates": [-96.8224420401, 32.8113232589]}, "type": "Feature", "properties": {"collection_times": [{"days": "Mon-Fri", "time": "2:30pm"}, {"days": "Sat", "time": "1:30pm"}, {"days": "Sun", "time": "Closed"}], "id": "7521901765", "name": "USPS COLLECTION BOX - BLUE BOX", "address": {"city": "DALLAS", "state": "TX", "street": "4438 MAPLE AVE", "postcode": "75219"}}},
{"geometry": {"type": "Point", "coordinates": [-96.8102158497, 32.8076081009]}, "type": "Feature", "properties": {"collection_times": [{"days": "Mon-Fri", "time": "5:00pm"}, {"days": "Sat", "time": "3:00pm"}, {"days": "Sun", "time": "Closed"}], "id": "7521901774", "name": "USPS COLLECTION BOX - PO LOBBY", "address": {"city": "DALLAS", "state": "TX", "street": "2825 OAK LAWN AVE", "postcode": "75219"}}},
{"geometry": {"type": "Point", "coordinates": [-96.8022356639, 32.8156819715]}, "type": "Feature", "properties": {"collection_times": [{"days": "Mon-Sat", "time": "1:00pm"}, {"days": "Sun", "time": "Closed"}], "id": "7521906191", "name": "USPS COLLECTION BOX - BLUE BOX", "address": {"city": "DALLAS", "state": "TX", "street": "3838 OAK LAWN AVE", "postcode": "75219"}}},
{"geometry": {"type": "Point", "coordinates": [-96.8022356639, 32.8156819715]}, "type": "Feature", "properties": {"collection_times": [{"days": "Mon-Sat", "time": "1:00pm"}, {"days": "Sun", "time": "Closed"}], "id": "7521906192", "name": "USPS COLLECTION BOX - BLUE BOX", "address": {"city": "DALLAS", "state": "TX", "street": "3838 OAK LAWN AVE", "postcode": "75219"}}},
{"geometry": {"type": "Point", "coordinates": [-96.8102158497, 32.8076081009]}, "type": "Feature", "properties": {"collection_times": [{"days": "Mon-Fri", "time": "5:00pm"}, {"days": "Sat", "time": "3:00pm"}, {"days": "Sun", "time": "Closed"}], "id": "7521907321", "name": "USPS COLLECTION BOX - PO LOBBY", "address": {"city": "DALLAS", "state": "TX", "street": "2825 OAK LAWN AVE", "postcode": "75219"}}},
{"geometry": {"type": "Point", "coordinates": [-96.8111773779, 32.8119340473]}, "type": "Feature", "properties": {"collection_times": [{"days": "Mon-Fri", "time": "5:00pm"}, {"days": "Sat", "time": "3:00pm"}, {"days": "Sun", "time": "Closed"}], "id": "7521907329", "name": "USPS COLLECTION BOX - EXPRESS", "address": {"city": "DALLAS", "state": "TX", "street": "2825 OAK LAWN AVE", "postcode": "75219"}}},
{"geometry": {"type": "Point", "coordinates": [-96.8131737379, 32.8108084242]}, "type": "Feature", "properties": {"collection_times": [{"days": "Mon-Fri", "time": "4:00pm"}, {"days": "Sat-Sun", "time": "Closed"}], "id": "7521907336", "name": "USPS COLLECTION BOX - BLUE BOX", "address": {"city": "DALLAS", "state": "TX", "street": "3131 TURTLE CREEK BLVD", "postcode": "75219"}}},
{"geometry": {"type": "Point", "coordinates": [-96.8055351261, 32.8034054249]}, "type": "Feature", "properties": {"collection_times": [{"days": "Mon-Fri", "time": "4:00pm"}, {"days": "Sat-Sun", "time": "Closed"}], "id": "7521907337", "name": "USPS COLLECTION BOX - BLUE BOX", "address": {"city": "DALLAS", "state": "TX", "street": "3400 GILLESPIE ST", "postcode": "75219"}}},
{"geometry": {"type": "Point", "coordinates": [-96.8068302211, 32.8130130404]}, "type": "Feature", "properties": {"collection_times": [{"days": "Mon-Fri", "time": "2:30pm"}, {"days": "Sat-Sun", "time": "Closed"}], "id": "7521907340", "name": "USPS COLLECTION BOX - BLUE BOX", "address": {"city": "DALLAS", "state": "TX", "street": "3900 LEMMON AVE", "postcode": "75219"}}},
{"geometry": {"type": "Point", "coordinates": [-96.8102158497, 32.8076081009]}, "type": "Feature", "properties": {"collection_times": [{"days": "Mon-Fri", "time": "5:00pm"}, {"days": "Sat", "time": "3:00pm"}, {"days": "Sun", "time": "Closed"}], "id": "7521907341", "name": "USPS COLLECTION BOX - APC", "address": {"city": "DALLAS", "state": "TX", "street": "2825 OAK LAWN AVE", "postcode": "75219"}}},
{"geometry": {"type": "Point", "coordinates": [-96.8102158497, 32.8076081009]}, "type": "Feature", "properties": {"collection_times": [{"days": "Mon-Fri", "time": "5:00pm"}, {"days": "Sat", "time": "3:00pm"}, {"days": "Sun", "time": "Closed"}], "id": "7521907343", "name": "USPS COLLECTION BOX - BLUE BOX", "address": {"city": "DALLAS", "state": "TX", "street": "2825 OAK LAWN AVE", "postcode": "75219"}}},
{"geometry": {"type": "Point", "coordinates": [-96.8102158497, 32.8076081009]}, "type": "Feature", "properties": {"collection_times": [{"days": "Mon-Fri", "time": "5:00pm"}, {"days": "Sat", "time": "3:00pm"}, {"days": "Sun", "time": "Closed"}], "id": "7521907344", "name": "USPS COLLECTION BOX - BLUE BOX", "address": {"city": "DALLAS", "state": "TX", "street": "2825 OAK LAWN AVE", "postcode": "75219"}}},
{"geometry": {"type": "Point", "coordinates": [-96.82787488, 32.8365644813]}, "type": "Feature", "properties": {"collection_times": [{"days": "Mon-Fri", "time": "5:00pm"}, {"days": "Sat", "time": "1:00pm"}, {"days": "Sun", "time": "Closed"}], "id": "7521907347", "name": "USPS COLLECTION BOX - BLUE BOX", "address": {"city": "DALLAS", "state": "TX", "street": "4740 W MOCKINGBIRD LN STE C", "postcode": "75219"}}},
{"geometry": {"type": "Point", "coordinates": [-96.82787488, 32.8365644813]}, "type": "Feature", "properties": {"collection_times": [{"days": "Mon-Fri", "time": "5:00pm"}, {"days": "Sat-Sun", "time": "Closed"}], "id": "7521907348", "name": "USPS COLLECTION BOX - PO LOBBY", "address": {"city": "DALLAS", "state": "TX", "street": "4740 W MOCKINGBIRD LN STE C", "postcode": "75219"}}},
{"geometry": {"type": "Point", "coordinates": [-96.82787488, 32.8365644813]}, "type": "Feature", "properties": {"collection_times": [{"days": "Mon-Fri", "time": "5:00pm"}, {"days": "Sat-Sun", "time": "Closed"}], "id": "7521907349", "name": "USPS COLLECTION BOX - PO LOBBY", "address": {"city": "DALLAS", "state": "TX", "street": "4740 W MOCKINGBIRD LN STE C", "postcode": "75219"}}},
{"geometry": {"type": "Point", "coordinates": [-96.82787488, 32.8365644813]}, "type": "Feature", "properties": {"collection_times": [{"days": "Mon-Fri", "time": "5:00pm"}, {"days": "Sat-Sun", "time": "Closed"}], "id": "7521907350", "name": "USPS COLLECTION BOX - PO LOBBY", "address": {"city": "DALLAS", "state": "TX", "street": "4740 W MOCKINGBIRD LN STE C", "postcode": "75219"}}},
{"geometry": {"type": "Point", "coordinates": [-96.8871259268, 32.8603243012]}, "type": "Feature", "properties": {"collection_times": [{"days": "Mon-Fri", "time": "5:00pm"}, {"days": "Sat", "time": "3:00pm"}, {"days": "Sun", "time": "Closed"}], "id": "7522001826", "name": "USPS COLLECTION BOX - BLUE BOX", "address": {"city": "DALLAS", "state": "TX", "street": "2341 W NORTHWEST HWY", "postcode": "75220"}}},
{"geometry": {"type": "Point", "coordinates": [-96.8361593228, 32.8639252283]}, "type": "Feature", "properties": {"collection_times": [{"days": "Mon-Fri", "time": "3:00pm"}, {"days": "Sat", "time": "1:00pm"}, {"days": "Sun", "time": "Closed"}], "id": "7522001835", "name": "USPS COLLECTION BOX - BLUE BOX", "address": {"city": "DALLAS", "state": "TX", "street": "4347 W NORTHWEST HWY", "postcode": "75220"}}},
{"geometry": {"type": "Point", "coordinates": [-96.8871259268, 32.8603243012]}, "type": "Feature", "properties": {"collection_times": [{"days": "Mon-Fri", "time": "5:00pm"}, {"days": "Sat", "time": "3:00pm"}, {"days": "Sun", "time": "Closed"}], "id": "7522005187", "name": "USPS COLLECTION BOX - BLUE BOX", "address": {"city": "DALLAS", "state": "TX", "street": "2341 W NORTHWEST HWY", "postcode": "75220"}}},
{"geometry": {"type": "Point", "coordinates": [-96.8871259268, 32.8603243012]}, "type": "Feature", "properties": {"collection_times": [{"days": "Mon-Fri", "time": "5:00pm"}, {"days": "Sat", "time": "3:00pm"}, {"days": "Sun", "time": "Closed"}], "id": "7522005188", "name": "USPS COLLECTION BOX - BLUE BOX", "address": {"city": "DALLAS", "state": "TX", "street": "2341 W NORTHWEST HWY", "postcode": "75220"}}},
{"geometry": {"type": "Point", "coordinates": [-96.8800329049, 32.8779361943]}, "type": "Feature", "properties": {"collection_times": [{"days": "Mon-Sat", "time": "12:30pm"}, {"days": "Sun", "time": "Closed"}], "id": "7522005194", "name": "USPS COLLECTION BOX - BLUE BOX", "address": {"city": "DALLAS", "state": "TX", "street": "2861 CONGRESSMAN LN", "postcode": "75220"}}},
{"geometry": {"type": "Point", "coordinates": [-96.8950612143, 32.8775286544]}, "type": "Feature", "properties": {"collection_times": [{"days": "Mon-Sat", "time": "1:00pm"}, {"days": "Sun", "time": "Closed"}], "id": "7522005197", "name": "USPS COLLECTION BOX - BLUE BOX", "address": {"city": "DALLAS", "state": "TX", "street": "2560 PROGRAM DR", "postcode": "75220"}}},
{"geometry": {"type": "Point", "coordinates": [-96.8902930025, 32.8773006115]}, "type": "Feature", "properties": {"collection_times": [{"days": "Mon-Sat", "time": "1:00pm"}, {"days": "Sun", "time": "Closed"}], "id": "7522005201", "name": "USPS COLLECTION BOX - BLUE BOX", "address": {"city": "DALLAS", "state": "TX", "street": "10859 SHADY TRL", "postcode": "75220"}}},
{"geometry": {"type": "Point", "coordinates": [-96.8871259268, 32.8603243012]}, "type": "Feature", "properties": {"collection_times": [{"days": "Mon-Fri", "time": "5:00pm"}, {"days": "Sat", "time": "3:00pm"}, {"days": "Sun", "time": "Closed"}], "id": "7522006770", "name": "USPS COLLECTION BOX - PO LOBBY", "address": {"city": "DALLAS", "state": "TX", "street": "2341 W NORTHWEST HWY", "postcode": "75220"}}},
{"geometry": {"type": "Point", "coordinates": [-96.8871259268, 32.8603243012]}, "type": "Feature", "properties": {"collection_times": [{"days": "Mon-Fri", "time": "5:00pm"}, {"days": "Sat", "time": "3:00pm"}, {"days": "Sun", "time": "Closed"}], "id": "7522006771", "name": "USPS COLLECTION BOX - PO LOBBY", "address": {"city": "DALLAS", "state": "TX", "street": "2341 W NORTHWEST HWY", "postcode": "75220"}}},
{"geometry": {"type": "Point", "coordinates": [-96.8305726712, 32.742238498]}, "type": "Feature", "properties": {"collection_times": [{"days": "Mon-Sat", "time": "6:00pm"}, {"days": "Sun", "time": "Closed"}], "id": "7522200004", "name": "USPS COLLECTION BOX - BLUE BOX", "address": {"city": "DALLAS", "state": "TX", "street": "401 DFW TPKE", "postcode": "75222"}}},
{"geometry": {"type": "Point", "coordinates": [-96.8305726712, 32.742238498]}, "type": "Feature", "properties": {"collection_times": [{"days": "Mon-Sat", "time": "6:00pm"}, {"days": "Sun", "time": "Closed"}], "id": "7522200006", "name": "USPS COLLECTION BOX - BLUE BOX", "address": {"city": "DALLAS", "state": "TX", "street": "401 DFW TPKE", "postcode": "75222"}}},
{"geometry": {"type": "Point", "coordinates": [-96.8305726712, 32.742238498]}, "type": "Feature", "properties": {"collection_times": [{"days": "Mon-Sat", "time": "6:00pm"}, {"days": "Sun", "time": "Closed"}], "id": "7522200007", "name": "USPS COLLECTION BOX - BLUE BOX", "address": {"city": "DALLAS", "state": "TX", "street": "401 DFW TPKE", "postcode": "75222"}}},
{"geometry": {"type": "Point", "coordinates": [-96.8305726712, 32.742238498]}, "type": "Feature", "properties": {"collection_times": [{"days": "Mon-Sat", "time": "6:00pm"}, {"days": "Sun", "time": "Closed"}], "id": "7522200008", "name": "USPS COLLECTION BOX - BLUE BOX", "address": {"city": "DALLAS", "state": "TX", "street": "401 DFW TPKE", "postcode": "75222"}}},
{"geometry": {"type": "Point", "coordinates": [-96.8305726712, 32.742238498]}, "type": "Feature", "properties": {"collection_times": [{"days": "Mon-Sat", "time": "6:00pm"}, {"days": "Sun", "time": "Closed"}], "id": "7522200010", "name": "USPS COLLECTION BOX - PO LOBBY", "address": {"city": "DALLAS", "state": "TX", "street": "401 DFW TPKE", "postcode": "75222"}}},
{"geometry": {"type": "Point", "coordinates": [-96.8305726712, 32.742238498]}, "type": "Feature", "properties": {"collection_times": [{"days": "Mon-Sat", "time": "6:00pm"}, {"days": "Sun", "time": "Closed"}], "id": "7522200011", "name": "USPS COLLECTION BOX - PO LOBBY", "address": {"city": "DALLAS", "state": "TX", "street": "401 DFW TPKE", "postcode": "75222"}}},
{"geometry": {"type": "Point", "coordinates": [-96.8305256874, 32.7423314042]}, "type": "Feature", "properties": {"collection_times": [{"days": "Mon-Fri", "time": "6:00pm"}, {"days": "Sat", "time": "2:30pm"}, {"days": "Sun", "time": "Closed"}], "id": "7522200012", "name": "USPS COLLECTION BOX - EXPRESS", "address": {"city": "DALLAS", "state": "TX", "street": "401 DFW TPKE", "postcode": "75222"}}},
{"geometry": {"type": "Point", "coordinates": [-96.8305726713, 32.7422384976]}, "type": "Feature", "properties": {"collection_times": [{"days": "Mon-Sat", "time": "6:00pm"}, {"days": "Sun", "time": "Closed"}], "id": "7522200013", "name": "USPS COLLECTION BOX - APC", "address": {"city": "DALLAS", "state": "TX", "street": "401 DFW TPKE", "postcode": "75222"}}},
{"geometry": {"type": "Point", "coordinates": [-96.7489650366, 32.7937973987]}, "type": "Feature", "properties": {"collection_times": [{"days": "Mon-Fri", "time": "12:45pm"}, {"days": "Sat", "time": "1:00pm"}, {"days": "Sun", "time": "Closed"}], "id": "7522301848", "name": "USPS COLLECTION BOX - BLUE BOX", "address": {"city": "DALLAS", "state": "TX", "street": "1100 GRAHAM AVE", "postcode": "75223"}}},
{"geometry": {"type": "Point", "coordinates": [-96.8229179325, 32.7130209453]}, "type": "Feature", "properties": {"collection_times": [{"days": "Mon-Fri", "time": "1:00pm"}, {"days": "Sat-Sun", "time": "Closed"}], "id": "7522401849", "name": "USPS COLLECTION BOX - BLUE BOX", "address": {"city": "DALLAS", "state": "TX", "street": "2800 S BECKLEY AVE", "postcode": "75224"}}},
{"geometry": {"type": "Point", "coordinates": [-96.8327760441, 32.7213282059]}, "type": "Feature", "properties": {"collection_times": [{"days": "Mon-Fri", "time": "3:00pm"}, {"days": "Sat", "time": "1:00pm"}, {"days": "Sun", "time": "Closed"}], "id": "7522401858", "name": "USPS COLLECTION BOX - BLUE BOX", "address": {"city": "DALLAS", "state": "TX", "street": "700 WYNNEWOOD VLG SHP CTR", "postcode": "75224"}}},
{"geometry": {"type": "Point", "coordinates": [-96.8570988794, 32.7154662441]}, "type": "Feature", "properties": {"collection_times": [{"days": "Mon-Fri", "time": "2:00pm"}, {"days": "Sat", "time": "1:00pm"}, {"days": "Sun", "time": "Closed"}], "id": "7522401866", "name": "USPS COLLECTION BOX - BLUE BOX", "address": {"city": "DALLAS", "state": "TX", "street": "2909 S HAMPTON RD", "postcode": "75224"}}},
{"geometry": {"type": "Point", "coordinates": [-96.8290083358, 32.7051449272]}, "type": "Feature", "properties": {"collection_times": [{"days": "Mon-Fri", "time": "2:00pm"}, {"days": "Sat-Sun", "time": "Closed"}], "id": "7522401867", "name": "USPS COLLECTION BOX - BLUE BOX", "address": {"city": "DALLAS", "state": "TX", "street": "334 W KIEST BLVD", "postcode": "75224"}}},
{"geometry": {"type": "Point", "coordinates": [-96.8300084948, 32.7031691925]}, "type": "Feature", "properties": {"collection_times": [{"days": "Mon-Fri", "time": "2:00pm"}, {"days": "Sat-Sun", "time": "Closed"}], "id": "7522401868", "name": "USPS COLLECTION BOX - BLUE BOX", "address": {"city": "DALLAS", "state": "TX", "street": "3402 CONWAY ST", "postcode": "75224"}}},
{"geometry": {"type": "Point", "coordinates": [-96.8401878601, 32.6961095017]}, "type": "Feature", "properties": {"collection_times": [{"days": "Mon-Fri", "time": "3:00pm"}, {"days": "Sat", "time": "1:00pm"}, {"days": "Sun", "time": "Closed"}], "id": "7522401872", "name": "USPS COLLECTION BOX - BLUE BOX", "address": {"city": "DALLAS", "state": "TX", "street": "3929 S POLK ST", "postcode": "75224"}}},
{"geometry": {"type": "Point", "coordinates": [-96.8327760441, 32.7213282059]}, "type": "Feature", "properties": {"collection_times": [{"days": "Mon-Fri", "time": "3:00pm"}, {"days": "Sat", "time": "1:00pm"}, {"days": "Sun", "time": "Closed"}], "id": "7522405503", "name": "USPS COLLECTION BOX - BLUE BOX", "address": {"city": "DALLAS", "state": "TX", "street": "700 WYNNEWOOD VLG SHP CTR", "postcode": "75224"}}},
{"geometry": {"type": "Point", "coordinates": [-96.8301202019, 32.7049651135]}, "type": "Feature", "properties": {"collection_times": [{"days": "Mon-Fri", "time": "3:00pm"}, {"days": "Sat", "time": "1:00pm"}, {"days": "Sun", "time": "Closed"}], "id": "7522405508", "name": "USPS COLLECTION BOX - BLUE BOX", "address": {"city": "DALLAS", "state": "TX", "street": "400 KIEST POLK VLG", "postcode": "75224"}}},
{"geometry": {"type": "Point", "coordinates": [-96.8551934289, 32.6913183761]}, "type": "Feature", "properties": {"collection_times": [{"days": "Mon-Fri", "time": "12:00pm"}, {"days": "Sat-Sun", "time": "Closed"}], "id": "7522405509", "name": "USPS COLLECTION BOX - BLUE BOX", "address": {"city": "DALLAS", "state": "TX", "street": "2225 W LEDBETTER DR", "postcode": "75224"}}},
{"geometry": {"type": "Point", "coordinates": [-96.8085620714, 32.8569303561]}, "type": "Feature", "properties": {"collection_times": [{"days": "Mon-Fri", "time": "12:30pm"}, {"days": "Sat-Sun", "time": "Closed"}], "id": "7522501894", "name": "USPS COLLECTION BOX - BLUE BOX", "address": {"city": "DALLAS", "state": "TX", "street": "7700 DOUGLAS AVE", "postcode": "75225"}}},
{"geometry": {"type": "Point", "coordinates": [-96.794657667, 32.8653211298]}, "type": "Feature", "properties": {"collection_times": [{"days": "Mon-Fri", "time": "1:00pm"}, {"days": "Sat-Sun", "time": "Closed"}], "id": "7522501896", "name": "USPS COLLECTION BOX - BLUE BOX", "address": {"city": "DALLAS", "state": "TX", "street": "8500 HILLCREST AVE", "postcode": "75225"}}},
{"geometry": {"type": "Point", "coordinates": [-96.8039603722, 32.8644748008]}, "type": "Feature", "properties": {"collection_times": [{"days": "Mon-Fri", "time": "2:00pm"}, {"days": "Sat-Sun", "time": "Closed"}], "id": "7522501898", "name": "USPS COLLECTION BOX - BLUE BOX", "address": {"city": "DALLAS", "state": "TX", "street": "8400 PRESTON RD", "postcode": "75225"}}},
{"geometry": {"type": "Point", "coordinates": [-96.804202255, 32.8614117781]}, "type": "Feature", "properties": {"collection_times": [{"days": "Mon-Fri", "time": "3:00pm"}, {"days": "Sat", "time": "1:00pm"}, {"days": "Sun", "time": "Closed"}], "id": "7522501908", "name": "USPS COLLECTION BOX - BLUE BOX", "address": {"city": "DALLAS", "state": "TX", "street": "8111 PRESTON RD", "postcode": "75225"}}},
{"geometry": {"type": "Point", "coordinates": [-96.8065569576, 32.8628700289]}, "type": "Feature", "properties": {"collection_times": [{"days": "Mon-Fri", "time": "1:00pm"}, {"days": "Sat-Sun", "time": "Closed"}], "id": "7522501915", "name": "USPS COLLECTION BOX - BLUE BOX", "address": {"city": "DALLAS", "state": "TX", "street": "8215 WESTCHESTER DR", "postcode": "75225"}}},
{"geometry": {"type": "Point", "coordinates": [-96.7707573464, 32.8688238374]}, "type": "Feature", "properties": {"collection_times": [{"days": "Mon-Sat", "time": "1:00pm"}, {"days": "Sun", "time": "Closed"}], "id": "7522501925", "name": "USPS COLLECTION BOX - BLUE BOX", "address": {"city": "DALLAS", "state": "TX", "street": "8687 N CENTRAL EXPY STE 610", "postcode": "75225"}}},
{"geometry": {"type": "Point", "coordinates": [-96.804202255, 32.8614117781]}, "type": "Feature", "properties": {"collection_times": [{"days": "Mon-Fri", "time": "3:00pm"}, {"days": "Sat", "time": "1:00pm"}, {"days": "Sun", "time": "Closed"}], "id": "7522505421", "name": "USPS COLLECTION BOX - BLUE BOX", "address": {"city": "DALLAS", "state": "TX", "street": "8111 PRESTON RD", "postcode": "75225"}}},
{"geometry": {"type": "Point", "coordinates": [-96.7896595718, 32.8668234778]}, "type": "Feature", "properties": {"collection_times": [{"days": "Mon-Fri", "time": "5:00pm"}, {"days": "Sat", "time": "3:00pm"}, {"days": "Sun", "time": "Closed"}], "id": "7522505428", "name": "USPS COLLECTION BOX - BLUE BOX", "address": {"city": "DALLAS", "state": "TX", "street": "8604 TURTLE CREEK BLVD", "postcode": "75225"}}},
{"geometry": {"type": "Point", "coordinates": [-96.7896595718, 32.8668234778]}, "type": "Feature", "properties": {"collection_times": [{"days": "Mon-Fri", "time": "5:00pm"}, {"days": "Sat", "time": "3:00pm"}, {"days": "Sun", "time": "Closed"}], "id": "7522505429", "name": "USPS COLLECTION BOX - BLUE BOX", "address": {"city": "DALLAS", "state": "TX", "street": "8604 TURTLE CREEK BLVD", "postcode": "75225"}}},
{"geometry": {"type": "Point", "coordinates": [-96.8084366773, 32.8636233429]}, "type": "Feature", "properties": {"collection_times": [{"days": "Mon-Fri", "time": "3:00pm"}, {"days": "Sat-Sun", "time": "Closed"}], "id": "7522505944", "name": "USPS COLLECTION BOX - BLUE BOX", "address": {"city": "DALLAS", "state": "TX", "street": "8300 DOUGLAS AVE", "postcode": "75225"}}},
{"geometry": {"type": "Point", "coordinates": [-96.7896595718, 32.8668234778]}, "type": "Feature", "properties": {"collection_times": [{"days": "Mon-Fri", "time": "5:00pm"}, {"days": "Sat", "time": "3:00pm"}, {"days": "Sun", "time": "Closed"}], "id": "7522506629", "name": "USPS COLLECTION BOX - PO LOBBY", "address": {"city": "DALLAS", "state": "TX", "street": "8604 TURTLE CREEK BLVD", "postcode": "75225"}}},
{"geometry": {"type": "Point", "coordinates": [-96.7896595718, 32.8668234778]}, "type": "Feature", "properties": {"collection_times": [{"days": "Mon-Fri", "time": "5:00pm"}, {"days": "Sat", "time": "3:00pm"}, {"days": "Sun", "time": "Closed"}], "id": "7522506630", "name": "USPS COLLECTION BOX - PO LOBBY", "address": {"city": "DALLAS", "state": "TX", "street": "8604 TURTLE CREEK BLVD", "postcode": "75225"}}},
{"geometry": {"type": "Point", "coordinates": [-96.7732078904, 32.8538597577]}, "type": "Feature", "properties": {"collection_times": [{"days": "Mon-Fri", "time": "1:00pm"}, {"days": "Sat-Sun", "time": "Closed"}], "id": "7522506642", "name": "USPS COLLECTION BOX - BLUE BOX", "address": {"city": "DALLAS", "state": "TX", "street": "7800 PURDUE AVE", "postcode": "75225"}}},
{"geometry": {"type": "Point", "coordinates": [-96.7896595718, 32.8668234778]}, "type": "Feature", "properties": {"collection_times": [{"days": "Mon-Fri", "time": "5:00pm"}, {"days": "Sat", "time": "3:00pm"}, {"days": "Sun", "time": "Closed"}], "id": "7522506643", "name": "USPS COLLECTION BOX - APC", "address": {"city": "DALLAS", "state": "TX", "street": "8604 TURTLE CREEK BLVD", "postcode": "75225"}}},
{"geometry": {"type": "Point", "coordinates": [-96.7813879001, 32.7754138171]}, "type": "Feature", "properties": {"collection_times": [{"days": "Mon-Fri", "time": "3:00pm"}, {"days": "Sat-Sun", "time": "Closed"}], "id": "7522601944", "name": "USPS COLLECTION BOX - BLUE BOX", "address": {"city": "DALLAS", "state": "TX", "street": "1800 S GOOD LATIMER EXPY", "postcode": "75226"}}},
{"geometry": {"type": "Point", "coordinates": [-96.7788402658, 32.7847724514]}, "type": "Feature", "properties": {"collection_times": [{"days": "Mon-Fri", "time": "2:00pm"}, {"days": "Sat-Sun", "time": "Closed"}], "id": "7522601947", "name": "USPS COLLECTION BOX - BLUE BOX", "address": {"city": "DALLAS", "state": "TX", "street": "3100 MAIN ST", "postcode": "75226"}}},
{"geometry": {"type": "Point", "coordinates": [-96.6830202047, 32.7491417663]}, "type": "Feature", "properties": {"collection_times": [{"days": "Mon-Fri", "time": "3:00pm"}, {"days": "Sat", "time": "1:00pm"}, {"days": "Sun", "time": "Closed"}], "id": "7522701967", "name": "USPS COLLECTION BOX - BLUE BOX", "address": {"city": "DALLAS", "state": "TX", "street": "2121 S BUCKNER BLVD", "postcode": "75227"}}},
{"geometry": {"type": "Point", "coordinates": [-96.6890110571, 32.7704501768]}, "type": "Feature", "properties": {"collection_times": [{"days": "Mon-Fri", "time": "5:00pm"}, {"days": "Sat", "time": "1:00pm"}, {"days": "Sun", "time": "Closed"}], "id": "7522701981", "name": "USPS COLLECTION BOX - BLUE BOX", "address": {"city": "DALLAS", "state": "TX", "street": "7720 MILITARY PKWY", "postcode": "75227"}}},
{"geometry": {"type": "Point", "coordinates": [-96.6890110571, 32.7704501768]}, "type": "Feature", "properties": {"collection_times": [{"days": "Mon-Fri", "time": "5:00pm"}, {"days": "Sat", "time": "1:00pm"}, {"days": "Sun", "time": "Closed"}], "id": "7522701982", "name": "USPS COLLECTION BOX - PO LOBBY", "address": {"city": "DALLAS", "state": "TX", "street": "7720 MILITARY PKWY", "postcode": "75227"}}},
{"geometry": {"type": "Point", "coordinates": [-96.6890110571, 32.7704501768]}, "type": "Feature", "properties": {"collection_times": [{"days": "Mon-Fri", "time": "5:00pm"}, {"days": "Sat", "time": "1:00pm"}, {"days": "Sun", "time": "Closed"}], "id": "7522705091", "name": "USPS COLLECTION BOX - BLUE BOX", "address": {"city": "DALLAS", "state": "TX", "street": "7720 MILITARY PKWY", "postcode": "75227"}}},
{"geometry": {"type": "Point", "coordinates": [-96.6890110571, 32.7704501768]}, "type": "Feature", "properties": {"collection_times": [{"days": "Mon-Fri", "time": "5:00pm"}, {"days": "Sat", "time": "1:00pm"}, {"days": "Sun", "time": "Closed"}], "id": "7522705092", "name": "USPS COLLECTION BOX - BLUE BOX", "address": {"city": "DALLAS", "state": "TX", "street": "7720 MILITARY PKWY", "postcode": "75227"}}},
{"geometry": {"type": "Point", "coordinates": [-96.6890110571, 32.7704501768]}, "type": "Feature", "properties": {"collection_times": [{"days": "Mon-Fri", "time": "5:00pm"}, {"days": "Sat", "time": "1:00pm"}, {"days": "Sun", "time": "Closed"}], "id": "7522705093", "name": "USPS COLLECTION BOX - PO LOBBY", "address": {"city": "DALLAS", "state": "TX", "street": "7720 MILITARY PKWY", "postcode": "75227"}}},
{"geometry": {"type": "Point", "coordinates": [-96.682786327, 32.7821023226]}, "type": "Feature", "properties": {"collection_times": [{"days": "Mon-Fri", "time": "2:00pm"}, {"days": "Sat-Sun", "time": "Closed"}], "id": "7522705094", "name": "USPS COLLECTION BOX - BLUE BOX", "address": {"city": "DALLAS", "state": "TX", "street": "4864 S BUCKNER BLVD", "postcode": "75227"}}},
{"geometry": {"type": "Point", "coordinates": [-96.6890110571, 32.7704501768]}, "type": "Feature", "properties": {"collection_times": [{"days": "Mon-Fri", "time": "5:00pm"}, {"days": "Sat", "time": "1:00pm"}, {"days": "Sun", "time": "Closed"}], "id": "7522706780", "name": "USPS COLLECTION BOX - PO LOBBY", "address": {"city": "DALLAS", "state": "TX", "street": "7720 MILITARY PKWY", "postcode": "75227"}}},
{"geometry": {"type": "Point", "coordinates": [-96.7183058529, 32.7981184041]}, "type": "Feature", "properties": {"collection_times": [{"days": "Mon-Fri", "time": "2:00pm"}, {"days": "Sat", "time": "1:00pm"}, {"days": "Sun", "time": "Closed"}], "id": "7522801989", "name": "USPS COLLECTION BOX - BLUE BOX", "address": {"city": "DALLAS", "state": "TX", "street": "7508 FERGUSON RD", "postcode": "75228"}}},
{"geometry": {"type": "Point", "coordinates": [-96.6656523494, 32.858689452]}, "type": "Feature", "properties": {"collection_times": [{"days": "Mon-Fri", "time": "1:00pm"}, {"days": "Sat-Sun", "time": "Closed"}], "id": "7522801994", "name": "USPS COLLECTION BOX - BLUE BOX", "address": {"city": "DALLAS", "state": "TX", "street": "11910 SHILOH RD", "postcode": "75228"}}},
{"geometry": {"type": "Point", "coordinates": [-96.6757449547, 32.8349319242]}, "type": "Feature", "properties": {"collection_times": [{"days": "Mon-Fri", "time": "3:00pm"}, {"days": "Sat", "time": "1:00pm"}, {"days": "Sun", "time": "Closed"}], "id": "7522801997", "name": "USPS COLLECTION BOX - BLUE BOX", "address": {"city": "DALLAS", "state": "TX", "street": "2331 GUS THOMASSON RD", "postcode": "75228"}}},
{"geometry": {"type": "Point", "coordinates": [-96.700373378, 32.8122488489]}, "type": "Feature", "properties": {"collection_times": [{"days": "Mon-Fri", "time": "5:00pm"}, {"days": "Sat", "time": "3:00pm"}, {"days": "Sun", "time": "Closed"}], "id": "7522801999", "name": "USPS COLLECTION BOX - PO LOBBY", "address": {"city": "DALLAS", "state": "TX", "street": "8624 FERGUSON RD", "postcode": "75228"}}},
{"geometry": {"type": "Point", "coordinates": [-96.6566434189, 32.8447748115]}, "type": "Feature", "properties": {"collection_times": [{"days": "Mon-Fri", "time": "3:00pm"}, {"days": "Sat", "time": "2:00pm"}, {"days": "Sun", "time": "Closed"}], "id": "7522802004", "name": "USPS COLLECTION BOX - BLUE BOX", "address": {"city": "DALLAS", "state": "TX", "street": "3600 BARNES BRIDGE RD", "postcode": "75228"}}},
{"geometry": {"type": "Point", "coordinates": [-96.7037909464, 32.7943565946]}, "type": "Feature", "properties": {"collection_times": [{"days": "Mon-Fri", "time": "4:00pm"}, {"days": "Sat-Sun", "time": "Closed"}], "id": "7522802007", "name": "USPS COLLECTION BOX - BLUE BOX", "address": {"city": "DALLAS", "state": "TX", "street": "8035 E R L THORNTON FWY", "postcode": "75228"}}},
{"geometry": {"type": "Point", "coordinates": [-96.6975815948, 32.7933581772]}, "type": "Feature", "properties": {"collection_times": [{"days": "Mon-Fri", "time": "2:00pm"}, {"days": "Sat-Sun", "time": "Closed"}], "id": "7522802008", "name": "USPS COLLECTION BOX - BLUE BOX", "address": {"city": "DALLAS", "state": "TX", "street": "8344 E R L THORNTON FWY", "postcode": "75228"}}},
{"geometry": {"type": "Point", "coordinates": [-96.6927066209, 32.7977907244]}, "type": "Feature", "properties": {"collection_times": [{"days": "Mon-Fri", "time": "3:00pm"}, {"days": "Sat", "time": "1:00pm"}, {"days": "Sun", "time": "Closed"}], "id": "7522805401", "name": "USPS COLLECTION BOX - BLUE BOX", "address": {"city": "DALLAS", "state": "TX", "street": "3453 SAINT FRANCIS AVE", "postcode": "75228"}}},
{"geometry": {"type": "Point", "coordinates": [-96.700373378, 32.8122488489]}, "type": "Feature", "properties": {"collection_times": [{"days": "Mon-Fri", "time": "5:00pm"}, {"days": "Sat", "time": "3:00pm"}, {"days": "Sun", "time": "Closed"}], "id": "7522805409", "name": "USPS COLLECTION BOX - PO LOBBY", "address": {"city": "DALLAS", "state": "TX", "street": "8624 FERGUSON RD", "postcode": "75228"}}},
{"geometry": {"type": "Point", "coordinates": [-96.700373378, 32.8122488489]}, "type": "Feature", "properties": {"collection_times": [{"days": "Mon-Fri", "time": "5:00pm"}, {"days": "Sat", "time": "3:00pm"}, {"days": "Sun", "time": "Closed"}], "id": "7522807297", "name": "USPS COLLECTION BOX - BLUE BOX", "address": {"city": "DALLAS", "state": "TX", "street": "8624 FERGUSON RD", "postcode": "75228"}}},
{"geometry": {"type": "Point", "coordinates": [-96.6823959506, 32.8053013309]}, "type": "Feature", "properties": {"collection_times": [{"days": "Mon-Fri", "time": "3:00pm"}, {"days": "Sat", "time": "2:00pm"}, {"days": "Sun", "time": "Closed"}], "id": "7522807302", "name": "USPS COLLECTION BOX - BLUE BOX", "address": {"city": "DALLAS", "state": "TX", "street": "3322 N BUCKNER BLVD", "postcode": "75228"}}},
{"geometry": {"type": "Point", "coordinates": [-96.6706667862, 32.834703296]}, "type": "Feature", "properties": {"collection_times": [{"days": "Mon-Fri", "time": "3:00pm"}, {"days": "Sat", "time": "1:00pm"}, {"days": "Sun", "time": "Closed"}], "id": "7522807303", "name": "USPS COLLECTION BOX - BLUE BOX", "address": {"city": "DALLAS", "state": "TX", "street": "2596 GUS THOMASSON RD", "postcode": "75228"}}},
{"geometry": {"type": "Point", "coordinates": [-96.700373378, 32.8122488489]}, "type": "Feature", "properties": {"collection_times": [{"days": "Mon-Fri", "time": "5:00pm"}, {"days": "Sat", "time": "3:00pm"}, {"days": "Sun", "time": "Closed"}], "id": "7522807306", "name": "USPS COLLECTION BOX - PO LOBBY", "address": {"city": "DALLAS", "state": "TX", "street": "8624 FERGUSON RD", "postcode": "75228"}}},
{"geometry": {"type": "Point", "coordinates": [-96.8782190968, 32.8813909497]}, "type": "Feature", "properties": {"collection_times": [{"days": "Mon-Fri", "time": "3:00pm"}, {"days": "Sat", "time": "1:00pm"}, {"days": "Sun", "time": "Closed"}], "id": "7522902020", "name": "USPS COLLECTION BOX - BLUE BOX", "address": {"city": "DALLAS", "state": "TX", "street": "10012 MONROE DR", "postcode": "75229"}}},
{"geometry": {"type": "Point", "coordinates": [-96.8853574032, 32.8951139414]}, "type": "Feature", "properties": {"collection_times": [{"days": "Mon-Fri", "time": "5:00pm"}, {"days": "Sat", "time": "3:00pm"}, {"days": "Sun", "time": "Closed"}], "id": "7522902040", "name": "USPS COLLECTION BOX - BLUE BOX", "address": {"city": "DALLAS", "state": "TX", "street": "2736 ROYAL LN", "postcode": "75229"}}},
{"geometry": {"type": "Point", "coordinates": [-96.8863614174, 32.9017335952]}, "type": "Feature", "properties": {"collection_times": [{"days": "Mon-Sat", "time": "12:00pm"}, {"days": "Sun", "time": "Closed"}], "id": "7522905263", "name": "USPS COLLECTION BOX - BLUE BOX", "address": {"city": "DALLAS", "state": "TX", "street": "11281 INDIAN TRL", "postcode": "75229"}}},
{"geometry": {"type": "Point", "coordinates": [-96.8853574032, 32.8951139414]}, "type": "Feature", "properties": {"collection_times": [{"days": "Mon-Fri", "time": "5:00pm"}, {"days": "Sat", "time": "3:00pm"}, {"days": "Sun", "time": "Closed"}], "id": "7522905270", "name": "USPS COLLECTION BOX - BLUE BOX", "address": {"city": "DALLAS", "state": "TX", "street": "2736 ROYAL LN", "postcode": "75229"}}},
{"geometry": {"type": "Point", "coordinates": [-96.8853574032, 32.8951139414]}, "type": "Feature", "properties": {"collection_times": [{"days": "Mon-Fri", "time": "5:00pm"}, {"days": "Sat", "time": "3:00pm"}, {"days": "Sun", "time": "Closed"}], "id": "7522905273", "name": "USPS COLLECTION BOX - BLUE BOX", "address": {"city": "DALLAS", "state": "TX", "street": "2736 ROYAL LN", "postcode": "75229"}}},
{"geometry": {"type": "Point", "coordinates": [-96.8853574032, 32.8951139414]}, "type": "Feature", "properties": {"collection_times": [{"days": "Mon-Fri", "time": "5:00pm"}, {"days": "Sat", "time": "3:00pm"}, {"days": "Sun", "time": "Closed"}], "id": "7522906565", "name": "USPS COLLECTION BOX - PO LOBBY", "address": {"city": "DALLAS", "state": "TX", "street": "2736 ROYAL LN", "postcode": "75229"}}},
{"geometry": {"type": "Point", "coordinates": [-96.8993483067, 32.9005208326]}, "type": "Feature", "properties": {"collection_times": [{"days": "Mon-Fri", "time": "1:00pm"}, {"days": "Sat-Sun", "time": "Closed"}], "id": "7522906569", "name": "USPS COLLECTION BOX - BLUE BOX", "address": {"city": "DALLAS", "state": "TX", "street": "11500 N STEMMONS FWY", "postcode": "75229"}}},
{"geometry": {"type": "Point", "coordinates": [-96.8853574032, 32.8951139414]}, "type": "Feature", "properties": {"collection_times": [{"days": "Mon-Fri", "time": "5:00pm"}, {"days": "Sat", "time": "3:00pm"}, {"days": "Sun", "time": "Closed"}], "id": "7522907310", "name": "USPS COLLECTION BOX - PO LOBBY", "address": {"city": "DALLAS", "state": "TX", "street": "2736 ROYAL LN", "postcode": "75229"}}},
{"geometry": {"type": "Point", "coordinates": [-96.8553481001, 32.8803234055]}, "type": "Feature", "properties": {"collection_times": [{"days": "Mon-Fri", "time": "3:00pm"}, {"days": "Sat", "time": "1:00pm"}, {"days": "Sun", "time": "Closed"}], "id": "7522907311", "name": "USPS COLLECTION BOX - BLUE BOX", "address": {"city": "DALLAS", "state": "TX", "street": "3720 WALNUT HILL LN", "postcode": "75229"}}},
{"geometry": {"type": "Point", "coordinates": [-96.8036315001, 32.9233357935]}, "type": "Feature", "properties": {"collection_times": [{"days": "Mon-Fri", "time": "1:00pm"}, {"days": "Sat", "time": "12:00pm"}, {"days": "Sun", "time": "Closed"}], "id": "7523002059", "name": "USPS COLLECTION BOX - BLUE BOX", "address": {"city": "DALLAS", "state": "TX", "street": "12815 PRESTON RD", "postcode": "75230"}}},
{"geometry": {"type": "Point", "coordinates": [-96.7927613196, 32.9024604238]}, "type": "Feature", "properties": {"collection_times": [{"days": "Mon-Fri", "time": "4:00pm"}, {"days": "Sat", "time": "12:00pm"}, {"days": "Sun", "time": "Closed"}], "id": "7523002063", "name": "USPS COLLECTION BOX - BLUE BOX", "address": {"city": "DALLAS", "state": "TX", "street": "7879 RIVERFALL DR OFC", "postcode": "75230"}}},
{"geometry": {"type": "Point", "coordinates": [-96.8039142273, 32.9111513161]}, "type": "Feature", "properties": {"collection_times": [{"days": "Mon-Fri", "time": "1:30pm"}, {"days": "Sat", "time": "12:00pm"}, {"days": "Sun", "time": "Closed"}], "id": "7523002066", "name": "USPS COLLECTION BOX - BLUE BOX", "address": {"city": "DALLAS", "state": "TX", "street": "11909 PRESTON RD", "postcode": "75230"}}},
{"geometry": {"type": "Point", "coordinates": [-96.7927613196, 32.9024604238]}, "type": "Feature", "properties": {"collection_times": [{"days": "Mon-Fri", "time": "5:00pm"}, {"days": "Sat", "time": "12:00pm"}, {"days": "Sun", "time": "Closed"}], "id": "7523002080", "name": "USPS COLLECTION BOX - BLUE BOX", "address": {"city": "DALLAS", "state": "TX", "street": "5959 ROYAL LN STE 515", "postcode": "75230"}}},
{"geometry": {"type": "Point", "coordinates": [-96.80546, 32.89489]}, "type": "Feature", "properties": {"collection_times": [{"days": "Mon-Fri", "time": "3:00pm"}, {"days": "Sat", "time": "12:00pm"}, {"days": "Sun", "time": "Closed"}], "id": "7523002082", "name": "USPS COLLECTION BOX - PO LOBBY", "address": {"city": "DALLAS", "state": "TX", "street": "5959 ROYAL LN STE 539", "postcode": "75230"}}},
{"geometry": {"type": "Point", "coordinates": [-96.814040356, 32.9224651357]}, "type": "Feature", "properties": {"collection_times": [{"days": "Mon-Fri", "time": "1:00pm"}, {"days": "Sat", "time": "12:00pm"}, {"days": "Sun", "time": "Closed"}], "id": "7523002084", "name": "USPS COLLECTION BOX - BLUE BOX", "address": {"city": "DALLAS", "state": "TX", "street": "5550 HARVEST HILL RD", "postcode": "75230"}}},
{"geometry": {"type": "Point", "coordinates": [-96.8039852048, 32.9088954134]}, "type": "Feature", "properties": {"collection_times": [{"days": "Mon-Fri", "time": "1:00pm"}, {"days": "Sat", "time": "11:00am"}, {"days": "Sun", "time": "Closed"}], "id": "7523002091", "name": "USPS COLLECTION BOX - BLUE BOX", "address": {"city": "DALLAS", "state": "TX", "street": "11700 PRESTON RD STE 714", "postcode": "75230"}}},
{"geometry": {"type": "Point", "coordinates": [-96.772130392, 32.9013489327]}, "type": "Feature", "properties": {"collection_times": [{"days": "Mon-Fri", "time": "12:00pm"}, {"days": "Sat", "time": "11:30am"}, {"days": "Sun", "time": "Closed"}], "id": "7523002095", "name": "USPS COLLECTION BOX - BLUE BOX", "address": {"city": "DALLAS", "state": "TX", "street": "7900 NORTHAVEN RD", "postcode": "75230"}}},
{"geometry": {"type": "Point", "coordinates": [-96.80546, 32.89489]}, "type": "Feature", "properties": {"collection_times": [{"days": "Mon-Fri", "time": "3:00pm"}, {"days": "Sat", "time": "12:00pm"}, {"days": "Sun", "time": "Closed"}], "id": "7523002104", "name": "USPS COLLECTION BOX - APC", "address": {"city": "DALLAS", "state": "TX", "street": "5959 ROYAL LN STE 539", "postcode": "75230"}}},
{"geometry": {"type": "Point", "coordinates": [-96.7861911361, 32.9217151397]}, "type": "Feature", "properties": {"collection_times": [{"days": "Mon-Fri", "time": "3:00pm"}, {"days": "Sat", "time": "12:00pm"}, {"days": "Sun", "time": "Closed"}], "id": "7523005486", "name": "USPS COLLECTION BOX - BLUE BOX", "address": {"city": "DALLAS", "state": "TX", "street": "12700 HILLCREST RD", "postcode": "75230"}}},
{"geometry": {"type": "Point", "coordinates": [-96.770682544, 32.9015575189]}, "type": "Feature", "properties": {"collection_times": [{"days": "Mon-Fri", "time": "5:00pm"}, {"days": "Sat", "time": "12:00pm"}, {"days": "Sun", "time": "Closed"}], "id": "7523005490", "name": "USPS COLLECTION BOX - BLUE BOX", "address": {"city": "DALLAS", "state": "TX", "street": "7940 NORTHAVEN RD", "postcode": "75230"}}},
{"geometry": {"type": "Point", "coordinates": [-96.7927613196, 32.9024604238]}, "type": "Feature", "properties": {"collection_times": [{"days": "Mon-Fri", "time": "5:00pm"}, {"days": "Sat", "time": "12:00pm"}, {"days": "Sun", "time": "Closed"}], "id": "7523005493", "name": "USPS COLLECTION BOX - BLUE BOX", "address": {"city": "DALLAS", "state": "TX", "street": "5959 ROYAL LN STE 515", "postcode": "75230"}}},
{"geometry": {"type": "Point", "coordinates": [-96.7927613196, 32.9024604238]}, "type": "Feature", "properties": {"collection_times": [{"days": "Mon-Fri", "time": "5:00pm"}, {"days": "Sat", "time": "12:00pm"}, {"days": "Sun", "time": "Closed"}], "id": "7523005494", "name": "USPS COLLECTION BOX - BLUE BOX", "address": {"city": "DALLAS", "state": "TX", "street": "5959 ROYAL LN STE 515", "postcode": "75230"}}},
{"geometry": {"type": "Point", "coordinates": [-96.8037038722, 32.911003267]}, "type": "Feature", "properties": {"collection_times": [{"days": "Mon-Fri", "time": "2:00pm"}, {"days": "Sat", "time": "12:00pm"}, {"days": "Sun", "time": "Closed"}], "id": "7523006059", "name": "USPS COLLECTION BOX - BLUE BOX", "address": {"city": "DALLAS", "state": "TX", "street": "11920 PRESTON RD", "postcode": "75230"}}},
{"geometry": {"type": "Point", "coordinates": [-96.80546, 32.89489]}, "type": "Feature", "properties": {"collection_times": [{"days": "Mon-Fri", "time": "3:00pm"}, {"days": "Sat", "time": "12:00pm"}, {"days": "Sun", "time": "Closed"}], "id": "7523006314", "name": "USPS COLLECTION BOX - PO LOBBY", "address": {"city": "DALLAS", "state": "TX", "street": "5959 ROYAL LN STE 539", "postcode": "75230"}}},
{"geometry": {"type": "Point", "coordinates": [-96.7861911361, 32.9217151397]}, "type": "Feature", "properties": {"collection_times": [{"days": "Mon-Fri", "time": "3:00pm"}, {"days": "Sat", "time": "12:00pm"}, {"days": "Sun", "time": "Closed"}], "id": "7523006315", "name": "USPS COLLECTION BOX - BLUE BOX", "address": {"city": "DALLAS", "state": "TX", "street": "12700 HILLCREST RD", "postcode": "75230"}}},
{"geometry": {"type": "Point", "coordinates": [-96.7642436984, 32.9093129979]}, "type": "Feature", "properties": {"collection_times": [{"days": "Mon-Fri", "time": "5:00pm"}, {"days": "Sat", "time": "3:00pm"}, {"days": "Sun", "time": "Closed"}], "id": "7523006319", "name": "USPS COLLECTION BOX - BLUE BOX", "address": {"city": "DALLAS", "state": "TX", "street": "8135 FOREST LN", "postcode": "75230"}}},
{"geometry": {"type": "Point", "coordinates": [-96.7642436984, 32.9093129979]}, "type": "Feature", "properties": {"collection_times": [{"days": "Mon-Fri", "time": "5:00pm"}, {"days": "Sat", "time": "3:00pm"}, {"days": "Sun", "time": "Closed"}], "id": "7523006320", "name": "USPS COLLECTION BOX - BLUE BOX", "address": {"city": "DALLAS", "state": "TX", "street": "8135 FOREST LN", "postcode": "75230"}}},
{"geometry": {"type": "Point", "coordinates": [-96.7647831007, 32.9093731472]}, "type": "Feature", "properties": {"collection_times": [{"days": "Mon-Fri", "time": "5:00pm"}, {"days": "Sat", "time": "3:00pm"}, {"days": "Sun", "time": "Closed"}], "id": "7523006321", "name": "USPS COLLECTION BOX - BLUE BOX", "address": {"city": "DALLAS", "state": "TX", "street": "8135 FOREST LN", "postcode": "75230"}}},
{"geometry": {"type": "Point", "coordinates": [-96.7642436984, 32.9093129979]}, "type": "Feature", "properties": {"collection_times": [{"days": "Mon-Fri", "time": "5:00pm"}, {"days": "Sat", "time": "3:00pm"}, {"days": "Sun", "time": "Closed"}], "id": "7523006323", "name": "USPS COLLECTION BOX - PO LOBBY", "address": {"city": "DALLAS", "state": "TX", "street": "8135 FOREST LN", "postcode": "75230"}}},
{"geometry": {"type": "Point", "coordinates": [-96.7642436984, 32.9093129979]}, "type": "Feature", "properties": {"collection_times": [{"days": "Mon-Fri", "time": "5:00pm"}, {"days": "Sat", "time": "3:00pm"}, {"days": "Sun", "time": "Closed"}], "id": "7523006324", "name": "USPS COLLECTION BOX - PO LOBBY", "address": {"city": "DALLAS", "state": "TX", "street": "8135 FOREST LN", "postcode": "75230"}}},
{"geometry": {"type": "Point", "coordinates": [-96.7350903212, 32.8793870688]}, "type": "Feature", "properties": {"collection_times": [{"days": "Mon-Fri", "time": "2:00pm"}, {"days": "Sat", "time": "1:00pm"}, {"days": "Sun", "time": "Closed"}], "id": "7523102109", "name": "USPS COLLECTION BOX - BLUE BOX", "address": {"city": "DALLAS", "state": "TX", "street": "7215 SKILLMAN ST", "postcode": "75231"}}},
{"geometry": {"type": "Point", "coordinates": [-96.7701218189, 32.8891721091]}, "type": "Feature", "properties": {"collection_times": [{"days": "Mon-Fri", "time": "4:00pm"}, {"days": "Sat", "time": "1:00pm"}, {"days": "Sun", "time": "Closed"}], "id": "7523102122", "name": "USPS COLLECTION BOX - BLUE BOX", "address": {"city": "DALLAS", "state": "TX", "street": "10455 N CENTRAL EXPY", "postcode": "75231"}}},
{"geometry": {"type": "Point", "coordinates": [-96.7437458329, 32.8644325397]}, "type": "Feature", "properties": {"collection_times": [{"days": "Mon-Fri", "time": "5:00pm"}, {"days": "Sat", "time": "3:00pm"}, {"days": "Sun", "time": "Closed"}], "id": "7523102135", "name": "USPS COLLECTION BOX - BLUE BOX", "address": {"city": "DALLAS", "state": "TX", "street": "6640 ABRAMS RD", "postcode": "75231"}}},
{"geometry": {"type": "Point", "coordinates": [-96.7437690754, 32.8641953342]}, "type": "Feature", "properties": {"collection_times": [{"days": "Mon-Fri", "time": "5:00pm"}, {"days": "Sat", "time": "3:00pm"}, {"days": "Sun", "time": "Closed"}], "id": "7523102136", "name": "USPS COLLECTION BOX - PO LOBBY", "address": {"city": "DALLAS", "state": "TX", "street": "6640 ABRAMS RD", "postcode": "75231"}}},
{"geometry": {"type": "Point", "coordinates": [-96.763195348, 32.8831638835]}, "type": "Feature", "properties": {"collection_times": [{"days": "Mon-Fri", "time": "3:00pm"}, {"days": "Sat", "time": "1:00pm"}, {"days": "Sun", "time": "Closed"}], "id": "7523102154", "name": "USPS COLLECTION BOX - BLUE BOX", "address": {"city": "DALLAS", "state": "TX", "street": "8210 WALNUT HILL LN", "postcode": "75231"}}},
{"geometry": {"type": "Point", "coordinates": [-96.7437690754, 32.8641953342]}, "type": "Feature", "properties": {"collection_times": [{"days": "Mon-Fri", "time": "5:00pm"}, {"days": "Sat", "time": "3:00pm"}, {"days": "Sun", "time": "Closed"}], "id": "7523105959", "name": "USPS COLLECTION BOX - BLUE BOX", "address": {"city": "DALLAS", "state": "TX", "street": "6640 ABRAMS RD", "postcode": "75231"}}},
{"geometry": {"type": "Point", "coordinates": [-96.7670004468, 32.8842802639]}, "type": "Feature", "properties": {"collection_times": [{"days": "Mon-Fri", "time": "3:00pm"}, {"days": "Sat", "time": "1:00pm"}, {"days": "Sun", "time": "Closed"}], "id": "7523105977", "name": "USPS COLLECTION BOX - BLUE BOX", "address": {"city": "DALLAS", "state": "TX", "street": "5461 LA SIERRA DR", "postcode": "75231"}}},
{"geometry": {"type": "Point", "coordinates": [-96.7610319648, 32.8834002818]}, "type": "Feature", "properties": {"collection_times": [{"days": "Mon-Fri", "time": "3:00pm"}, {"days": "Sat", "time": "1:00pm"}, {"days": "Sun", "time": "Closed"}], "id": "7523105981", "name": "USPS COLLECTION BOX - BLUE BOX", "address": {"city": "DALLAS", "state": "TX", "street": "8325 WALNUT HILL LN", "postcode": "75231"}}},
{"geometry": {"type": "Point", "coordinates": [-96.763195348, 32.8831638835]}, "type": "Feature", "properties": {"collection_times": [{"days": "Mon-Fri", "time": "3:00pm"}, {"days": "Sat", "time": "1:00pm"}, {"days": "Sun", "time": "Closed"}], "id": "7523107362", "name": "USPS COLLECTION BOX - BLUE BOX", "address": {"city": "DALLAS", "state": "TX", "street": "8210 WALNUT HILL LN", "postcode": "75231"}}},
{"geometry": {"type": "Point", "coordinates": [-96.7437690754, 32.8641953342]}, "type": "Feature", "properties": {"collection_times": [{"days": "Mon-Fri", "time": "5:00pm"}, {"days": "Sat", "time": "3:00pm"}, {"days": "Sun", "time": "Closed"}], "id": "7523107369", "name": "USPS COLLECTION BOX - PO LOBBY", "address": {"city": "DALLAS", "state": "TX", "street": "6640 ABRAMS RD", "postcode": "75231"}}},
{"geometry": {"type": "Point", "coordinates": [-96.7588600521, 32.8832453142]}, "type": "Feature", "properties": {"collection_times": [{"days": "Mon-Fri", "time": "3:00pm"}, {"days": "Sat-Sun", "time": "Closed"}], "id": "7523107383", "name": "USPS COLLECTION BOX - BLUE BOX", "address": {"city": "DALLAS", "state": "TX", "street": "8440 WALNUT HILL LN", "postcode": "75231"}}},
{"geometry": {"type": "Point", "coordinates": [-96.7588600521, 32.8832453142]}, "type": "Feature", "properties": {"collection_times": [{"days": "Mon-Fri", "time": "3:00pm"}, {"days": "Sat-Sun", "time": "Closed"}], "id": "7523107384", "name": "USPS COLLECTION BOX - BLUE BOX", "address": {"city": "DALLAS", "state": "TX", "street": "8440 WALNUT HILL LN", "postcode": "75231"}}},
{"geometry": {"type": "Point", "coordinates": [-96.7608651676, 32.8832630585]}, "type": "Feature", "properties": {"collection_times": [{"days": "Mon-Fri", "time": "3:00pm"}, {"days": "Sat-Sun", "time": "Closed"}], "id": "7523107385", "name": "USPS COLLECTION BOX - BLUE BOX", "address": {"city": "DALLAS", "state": "TX", "street": "8230 WALNUT HILL LN", "postcode": "75231"}}},
{"geometry": {"type": "Point", "coordinates": [-96.7608651676, 32.8832630585]}, "type": "Feature", "properties": {"collection_times": [{"days": "Mon-Fri", "time": "3:00pm"}, {"days": "Sat-Sun", "time": "Closed"}], "id": "7523107386", "name": "USPS COLLECTION BOX - BLUE BOX", "address": {"city": "DALLAS", "state": "TX", "street": "8230 WALNUT HILL LN", "postcode": "75231"}}},
{"geometry": {"type": "Point", "coordinates": [-96.7437690754, 32.8641953342]}, "type": "Feature", "properties": {"collection_times": [{"days": "Mon-Fri", "time": "5:00pm"}, {"days": "Sat", "time": "3:00pm"}, {"days": "Sun", "time": "Closed"}], "id": "7523107387", "name": "USPS COLLECTION BOX - APC", "address": {"city": "DALLAS", "state": "TX", "street": "6640 ABRAMS RD", "postcode": "75231"}}},
{"geometry": {"type": "Point", "coordinates": [-96.8406462505, 32.6622840541]}, "type": "Feature", "properties": {"collection_times": [{"days": "Mon-Fri", "time": "3:00pm"}, {"days": "Sat", "time": "1:00pm"}, {"days": "Sun", "time": "Closed"}], "id": "7523200001", "name": "USPS COLLECTION BOX - BLUE BOX", "address": {"city": "DALLAS", "state": "TX", "street": "1111 W CAMP WISDOM RD", "postcode": "75232"}}},
{"geometry": {"type": "Point", "coordinates": [-96.8293552662, 32.6491982828]}, "type": "Feature", "properties": {"collection_times": [{"days": "Mon-Fri", "time": "1:00pm"}, {"days": "Sat", "time": "12:00pm"}, {"days": "Sun", "time": "Closed"}], "id": "7523200005", "name": "USPS COLLECTION BOX - BLUE BOX", "address": {"city": "DALLAS", "state": "TX", "street": "8100 LEIGH ANN DR", "postcode": "75232"}}},
{"geometry": {"type": "Point", "coordinates": [-96.857148529, 32.6804876456]}, "type": "Feature", "properties": {"collection_times": [{"days": "Mon-Fri", "time": "5:00pm"}, {"days": "Sat", "time": "3:00pm"}, {"days": "Sun", "time": "Closed"}], "id": "7523200008", "name": "USPS COLLECTION BOX - BLUE BOX", "address": {"city": "DALLAS", "state": "TX", "street": "5521 S HAMPTON RD", "postcode": "75232"}}},
{"geometry": {"type": "Point", "coordinates": [-96.857148529, 32.6804876456]}, "type": "Feature", "properties": {"collection_times": [{"days": "Mon-Fri", "time": "5:00pm"}, {"days": "Sat", "time": "3:00pm"}, {"days": "Sun", "time": "Closed"}], "id": "7523200009", "name": "USPS COLLECTION BOX - BLUE BOX", "address": {"city": "DALLAS", "state": "TX", "street": "5521 S HAMPTON RD", "postcode": "75232"}}},
{"geometry": {"type": "Point", "coordinates": [-96.8571647891, 32.6790555916]}, "type": "Feature", "properties": {"collection_times": [{"days": "Mon-Fri", "time": "5:00pm"}, {"days": "Sat", "time": "3:00pm"}, {"days": "Sun", "time": "Closed"}], "id": "7523200010", "name": "USPS COLLECTION BOX - BLUE BOX", "address": {"city": "DALLAS", "state": "TX", "street": "5521 S HAMPTON RD", "postcode": "75232"}}},
{"geometry": {"type": "Point", "coordinates": [-96.8571647891, 32.6790555916]}, "type": "Feature", "properties": {"collection_times": [{"days": "Mon-Fri", "time": "5:00pm"}, {"days": "Sat", "time": "3:00pm"}, {"days": "Sun", "time": "Closed"}], "id": "7523200012", "name": "USPS COLLECTION BOX - PO LOBBY", "address": {"city": "DALLAS", "state": "TX", "street": "5521 S HAMPTON RD", "postcode": "75232"}}},
{"geometry": {"type": "Point", "coordinates": [-96.8571647891, 32.6790555916]}, "type": "Feature", "properties": {"collection_times": [{"days": "Mon-Fri", "time": "5:00pm"}, {"days": "Sat", "time": "3:00pm"}, {"days": "Sun", "time": "Closed"}], "id": "7523200013", "name": "USPS COLLECTION BOX - PO LOBBY", "address": {"city": "DALLAS", "state": "TX", "street": "5521 S HAMPTON RD", "postcode": "75232"}}},
{"geometry": {"type": "Point", "coordinates": [-96.8571647891, 32.6790555916]}, "type": "Feature", "properties": {"collection_times": [{"days": "Mon-Fri", "time": "5:00pm"}, {"days": "Sat", "time": "3:00pm"}, {"days": "Sun", "time": "Closed"}], "id": "7523200014", "name": "USPS COLLECTION BOX - PO LOBBY", "address": {"city": "DALLAS", "state": "TX", "street": "5521 S HAMPTON RD", "postcode": "75232"}}},
{"geometry": {"type": "Point", "coordinates": [-96.9145668395, 32.8957059971]}, "type": "Feature", "properties": {"collection_times": [{"days": "Mon-Fri", "time": "5:00pm"}, {"days": "Sat-Sun", "time": "Closed"}], "id": "7523402021", "name": "USPS COLLECTION BOX - BLUE BOX", "address": {"city": "DALLAS", "state": "TX", "street": "11400 FERRELL DR", "postcode": "75234"}}},
{"geometry": {"type": "Point", "coordinates": [-96.9184376267, 32.8955969696]}, "type": "Feature", "properties": {"collection_times": [{"days": "Mon-Fri", "time": "2:00pm"}, {"days": "Sat-Sun", "time": "Closed"}], "id": "7523402030", "name": "USPS COLLECTION BOX - BLUE BOX", "address": {"city": "DALLAS", "state": "TX", "street": "11400 LUNA RD", "postcode": "75234"}}},
{"geometry": {"type": "Point", "coordinates": [-96.8708112929, 32.9489544209]}, "type": "Feature", "properties": {"collection_times": [{"days": "Mon-Fri", "time": "2:30pm"}, {"days": "Sat-Sun", "time": "Closed"}], "id": "7523402179", "name": "USPS COLLECTION BOX - BLUE BOX", "address": {"city": "DALLAS", "state": "TX", "street": "14724 WEBB CHAPEL RD", "postcode": "75234"}}},
{"geometry": {"type": "Point", "coordinates": [-96.9038541495, 32.9219292553]}, "type": "Feature", "properties": {"collection_times": [{"days": "Mon-Fri", "time": "2:00pm"}, {"days": "Sat-Sun", "time": "Closed"}], "id": "7523402186", "name": "USPS COLLECTION BOX - BLUE BOX", "address": {"city": "DALLAS", "state": "TX", "street": "2270 VALLEY VIEW LN", "postcode": "75234"}}},
{"geometry": {"type": "Point", "coordinates": [-96.8817339998, 32.9226721535]}, "type": "Feature", "properties": {"collection_times": [{"days": "Mon-Fri", "time": "2:00pm"}, {"days": "Sat-Sun", "time": "Closed"}], "id": "7523402187", "name": "USPS COLLECTION BOX - BLUE BOX", "address": {"city": "DALLAS", "state": "TX", "street": "12895 JOSEY LN", "postcode": "75234"}}},
{"geometry": {"type": "Point", "coordinates": [-96.87131261, 32.9156238843]}, "type": "Feature", "properties": {"collection_times": [{"days": "Mon-Fri", "time": "3:00pm"}, {"days": "Sat-Sun", "time": "Closed"}], "id": "7523402193", "name": "USPS COLLECTION BOX - BLUE BOX", "address": {"city": "DALLAS", "state": "TX", "street": "7 MEDICAL PKWY", "postcode": "75234"}}},
{"geometry": {"type": "Point", "coordinates": [-96.8914082383, 32.9135562717]}, "type": "Feature", "properties": {"collection_times": [{"days": "Mon-Fri", "time": "1:00pm"}, {"days": "Sat-Sun", "time": "Closed"}], "id": "7523402196", "name": "USPS COLLECTION BOX - BLUE BOX", "address": {"city": "DALLAS", "state": "TX", "street": "12300 FORD RD", "postcode": "75234"}}},
{"geometry": {"type": "Point", "coordinates": [-96.9145668395, 32.8957059971]}, "type": "Feature", "properties": {"collection_times": [{"days": "Mon-Fri", "time": "5:00pm"}, {"days": "Sat-Sun", "time": "Closed"}], "id": "7523405275", "name": "USPS COLLECTION BOX - BLUE BOX", "address": {"city": "DALLAS", "state": "TX", "street": "11400 FERRELL DR", "postcode": "75234"}}},
{"geometry": {"type": "Point", "coordinates": [-96.8889488666, 32.9343290311]}, "type": "Feature", "properties": {"collection_times": [{"days": "Mon-Fri", "time": "5:00pm"}, {"days": "Sat", "time": "4:00pm"}, {"days": "Sun", "time": "Closed"}], "id": "7523405384", "name": "USPS COLLECTION BOX - BLUE BOX", "address": {"city": "DALLAS", "state": "TX", "street": "13904 JOSEY LN", "postcode": "75234"}}},
{"geometry": {"type": "Point", "coordinates": [-96.887130664, 32.9102871841]}, "type": "Feature", "properties": {"collection_times": [{"days": "Mon-Fri", "time": "2:00pm"}, {"days": "Sat-Sun", "time": "Closed"}], "id": "7523405388", "name": "USPS COLLECTION BOX - BLUE BOX", "address": {"city": "DALLAS", "state": "TX", "street": "2727 LBJ FWY", "postcode": "75234"}}},
{"geometry": {"type": "Point", "coordinates": [-96.8889488666, 32.9343290311]}, "type": "Feature", "properties": {"collection_times": [{"days": "Mon-Fri", "time": "5:00pm"}, {"days": "Sat", "time": "4:30pm"}, {"days": "Sun", "time": "Closed"}], "id": "7523406052", "name": "USPS COLLECTION BOX - PO LOBBY", "address": {"city": "DALLAS", "state": "TX", "street": "13904 JOSEY LN", "postcode": "75234"}}},
{"geometry": {"type": "Point", "coordinates": [-96.8889488666, 32.9343290311]}, "type": "Feature", "properties": {"collection_times": [{"days": "Mon-Fri", "time": "5:00pm"}, {"days": "Sat", "time": "4:30pm"}, {"days": "Sun", "time": "Closed"}], "id": "7523406053", "name": "USPS COLLECTION BOX - PO LOBBY", "address": {"city": "DALLAS", "state": "TX", "street": "13904 JOSEY LN", "postcode": "75234"}}},
{"geometry": {"type": "Point", "coordinates": [-96.9208622037, 32.9192375126]}, "type": "Feature", "properties": {"collection_times": [{"days": "Mon-Fri", "time": "4:00pm"}, {"days": "Sat-Sun", "time": "Closed"}], "id": "7523406204", "name": "USPS COLLECTION BOX - BLUE BOX", "address": {"city": "DALLAS", "state": "TX", "street": "1800 VALLEY VIEW LN", "postcode": "75234"}}},
{"geometry": {"type": "Point", "coordinates": [-96.9208622037, 32.9192375126]}, "type": "Feature", "properties": {"collection_times": [{"days": "Mon-Fri", "time": "4:00pm"}, {"days": "Sat-Sun", "time": "Closed"}], "id": "7523406205", "name": "USPS COLLECTION BOX - BLUE BOX", "address": {"city": "DALLAS", "state": "TX", "street": "1800 VALLEY VIEW LN", "postcode": "75234"}}},
{"geometry": {"type": "Point", "coordinates": [-96.8320964573, 32.821888995]}, "type": "Feature", "properties": {"collection_times": [{"days": "Mon-Fri", "time": "2:00pm"}, {"days": "Sat", "time": "1:00pm"}, {"days": "Sun", "time": "Closed"}], "id": "7523502270", "name": "USPS COLLECTION BOX - BLUE BOX", "address": {"city": "DALLAS", "state": "TX", "street": "5515 DENTON DR", "postcode": "75235"}}},
{"geometry": {"type": "Point", "coordinates": [-96.8605957988, 32.8223528165]}, "type": "Feature", "properties": {"collection_times": [{"days": "Mon-Fri", "time": "3:00pm"}, {"days": "Sat-Sun", "time": "Closed"}], "id": "7523502283", "name": "USPS COLLECTION BOX - BLUE BOX", "address": {"city": "DALLAS", "state": "TX", "street": "1545 W MOCKINGBIRD LN", "postcode": "75235"}}},
{"geometry": {"type": "Point", "coordinates": [-96.8492357512, 32.8306840814]}, "type": "Feature", "properties": {"collection_times": [{"days": "Mon-Fri", "time": "2:00pm"}, {"days": "Sat", "time": "1:00pm"}, {"days": "Sun", "time": "Closed"}], "id": "7523502293", "name": "USPS COLLECTION BOX - BLUE BOX", "address": {"city": "DALLAS", "state": "TX", "street": "2400 EMPIRE CENTRAL", "postcode": "75235"}}},
{"geometry": {"type": "Point", "coordinates": [-96.8421181621, 32.8260118651]}, "type": "Feature", "properties": {"collection_times": [{"days": "Mon-Fri", "time": "3:00pm"}, {"days": "Sat", "time": "1:30pm"}, {"days": "Sun", "time": "Closed"}], "id": "7523502302", "name": "USPS COLLECTION BOX - EXPRESS", "address": {"city": "DALLAS", "state": "TX", "street": "5201 HARRY HINES BLVD", "postcode": "75235"}}},
{"geometry": {"type": "Point", "coordinates": [-96.8386512591, 32.8131533447]}, "type": "Feature", "properties": {"collection_times": [{"days": "Mon-Fri", "time": "3:00pm"}, {"days": "Sat-Sun", "time": "Closed"}], "id": "7523502306", "name": "USPS COLLECTION BOX - BLUE BOX", "address": {"city": "DALLAS", "state": "TX", "street": "5323 HARRY HINES BLVD", "postcode": "75235"}}},
{"geometry": {"type": "Point", "coordinates": [-96.8446257601, 32.8176904601]}, "type": "Feature", "properties": {"collection_times": [{"days": "Mon-Fri", "time": "3:00pm"}, {"days": "Sat-Sun", "time": "Closed"}], "id": "7523502309", "name": "USPS COLLECTION BOX - BLUE BOX", "address": {"city": "DALLAS", "state": "TX", "street": "5959 HARRY HINES BLVD", "postcode": "75235"}}},
{"geometry": {"type": "Point", "coordinates": [-96.8350325251, 32.8174755635]}, "type": "Feature", "properties": {"collection_times": [{"days": "Mon-Fri", "time": "2:00pm"}, {"days": "Sat", "time": "1:00pm"}, {"days": "Sun", "time": "Closed"}], "id": "7523505468", "name": "USPS COLLECTION BOX - BLUE BOX", "address": {"city": "DALLAS", "state": "TX", "street": "2421 BUTLER ST", "postcode": "75235"}}},
{"geometry": {"type": "Point", "coordinates": [-96.836785108, 32.811352166]}, "type": "Feature", "properties": {"collection_times": [{"days": "Mon-Fri", "time": "3:00pm"}, {"days": "Sat", "time": "1:30pm"}, {"days": "Sun", "time": "Closed"}], "id": "7523505470", "name": "USPS COLLECTION BOX - BLUE BOX", "address": {"city": "DALLAS", "state": "TX", "street": "5201 HARRY HINES BLVD", "postcode": "75235"}}},
{"geometry": {"type": "Point", "coordinates": [-96.8716197007, 32.8335610376]}, "type": "Feature", "properties": {"collection_times": [{"days": "Mon-Sat", "time": "1:00pm"}, {"days": "Sun", "time": "Closed"}], "id": "7523505472", "name": "USPS COLLECTION BOX - BLUE BOX", "address": {"city": "DALLAS", "state": "TX", "street": "8610 KING GEORGE DR", "postcode": "75235"}}},
{"geometry": {"type": "Point", "coordinates": [-96.8409124519, 32.8173899886]}, "type": "Feature", "properties": {"collection_times": [{"days": "Mon-Sat", "time": "12:30pm"}, {"days": "Sun", "time": "Closed"}], "id": "7523505480", "name": "USPS COLLECTION BOX - BLUE BOX", "address": {"city": "DALLAS", "state": "TX", "street": "2202 INWOOD RD", "postcode": "75235"}}},
{"geometry": {"type": "Point", "coordinates": [-96.8386512591, 32.8131533447]}, "type": "Feature", "properties": {"collection_times": [{"days": "Mon-Fri", "time": "3:00pm"}, {"days": "Sat-Sun", "time": "Closed"}], "id": "7523505937", "name": "USPS COLLECTION BOX - BLUE BOX", "address": {"city": "DALLAS", "state": "TX", "street": "5323 HARRY HINES BLVD", "postcode": "75235"}}},
{"geometry": {"type": "Point", "coordinates": [-96.8605957988, 32.8223528165]}, "type": "Feature", "properties": {"collection_times": [{"days": "Mon-Fri", "time": "3:00pm"}, {"days": "Sat-Sun", "time": "Closed"}], "id": "7523505948", "name": "USPS COLLECTION BOX - BLUE BOX", "address": {"city": "DALLAS", "state": "TX", "street": "1545 W MOCKINGBIRD LN", "postcode": "75235"}}},
{"geometry": {"type": "Point", "coordinates": [-96.8915253512, 32.6867475494]}, "type": "Feature", "properties": {"collection_times": [{"days": "Mon-Fri", "time": "2:00pm"}, {"days": "Sat", "time": "1:00pm"}, {"days": "Sun", "time": "Closed"}], "id": "7523600002", "name": "USPS COLLECTION BOX - BLUE BOX", "address": {"city": "DALLAS", "state": "TX", "street": "4707 S COCKRELL HILL RD", "postcode": "75236"}}},
{"geometry": {"type": "Point", "coordinates": [-96.8947379044, 32.6949203862]}, "type": "Feature", "properties": {"collection_times": [{"days": "Mon-Fri", "time": "12:00pm"}, {"days": "Sat", "time": "11:00am"}, {"days": "Sun", "time": "Closed"}], "id": "7523600005", "name": "USPS COLLECTION BOX - BLUE BOX", "address": {"city": "DALLAS", "state": "TX", "street": "4500 EXCHANGE SERVICE DR", "postcode": "75236"}}},
{"geometry": {"type": "Point", "coordinates": [-96.8613003427, 32.6403029805]}, "type": "Feature", "properties": {"collection_times": [{"days": "Mon-Fri", "time": "3:00pm"}, {"days": "Sat-Sun", "time": "Closed"}], "id": "7523700000", "name": "USPS COLLECTION BOX - BLUE BOX", "address": {"city": "DALLAS", "state": "TX", "street": "2550 BECKLEYMEADE AVE", "postcode": "75237"}}},
{"geometry": {"type": "Point", "coordinates": [-96.8743059628, 32.6639127449]}, "type": "Feature", "properties": {"collection_times": [{"days": "Mon-Fri", "time": "2:00pm"}, {"days": "Sat", "time": "1:00pm"}, {"days": "Sun", "time": "Closed"}], "id": "7523700005", "name": "USPS COLLECTION BOX - BLUE BOX", "address": {"city": "DALLAS", "state": "TX", "street": "4529 GOLD RD", "postcode": "75237"}}},
{"geometry": {"type": "Point", "coordinates": [-96.8826945625, 32.6793836298]}, "type": "Feature", "properties": {"collection_times": [{"days": "Mon-Fri", "time": "2:00pm"}, {"days": "Sat-Sun", "time": "Closed"}], "id": "7523700012", "name": "USPS COLLECTION BOX - BLUE BOX", "address": {"city": "DALLAS", "state": "TX", "street": "5520 S WESTMORELAND RD", "postcode": "75237"}}},
{"geometry": {"type": "Point", "coordinates": [-96.8852852427, 32.6476117179]}, "type": "Feature", "properties": {"collection_times": [{"days": "Mon-Fri", "time": "2:00pm"}, {"days": "Sat", "time": "1:00pm"}, {"days": "Sun", "time": "Closed"}], "id": "7523700015", "name": "USPS COLLECTION BOX - BLUE BOX", "address": {"city": "DALLAS", "state": "TX", "street": "4041 W WHEATLAND RD", "postcode": "75237"}}},
{"geometry": {"type": "Point", "coordinates": [-96.8757482275, 32.6474437377]}, "type": "Feature", "properties": {"collection_times": [{"days": "Mon-Fri", "time": "3:00pm"}, {"days": "Sat-Sun", "time": "Closed"}], "id": "7523700017", "name": "USPS COLLECTION BOX - BLUE BOX", "address": {"city": "DALLAS", "state": "TX", "street": "3450 W WHEATLAND RD", "postcode": "75237"}}},
{"geometry": {"type": "Point", "coordinates": [-96.704277996, 32.8862747334]}, "type": "Feature", "properties": {"collection_times": [{"days": "Mon-Fri", "time": "2:00pm"}, {"days": "Sat", "time": "1:00pm"}, {"days": "Sun", "time": "Closed"}], "id": "7523802327", "name": "USPS COLLECTION BOX - BLUE BOX", "address": {"city": "DALLAS", "state": "TX", "street": "10527 CHURCH RD", "postcode": "75238"}}},
{"geometry": {"type": "Point", "coordinates": [-96.6850386809, 32.8754933841]}, "type": "Feature", "properties": {"collection_times": [{"days": "Mon-Fri", "time": "1:00pm"}, {"days": "Sat", "time": "12:00pm"}, {"days": "Sun", "time": "Closed"}], "id": "7523802330", "name": "USPS COLLECTION BOX - BLUE BOX", "address": {"city": "DALLAS", "state": "TX", "street": "11325 PEGASUS ST", "postcode": "75238"}}},
{"geometry": {"type": "Point", "coordinates": [-96.7034041188, 32.8912598611]}, "type": "Feature", "properties": {"collection_times": [{"days": "Mon-Fri", "time": "5:00pm"}, {"days": "Sat", "time": "3:00pm"}, {"days": "Sun", "time": "Closed"}], "id": "7523802334", "name": "USPS COLLECTION BOX - BLUE BOX", "address": {"city": "DALLAS", "state": "TX", "street": "10502 MARKISON RD", "postcode": "75238"}}},
{"geometry": {"type": "Point", "coordinates": [-96.7001576539, 32.8829128236]}, "type": "Feature", "properties": {"collection_times": [{"days": "Mon-Fri", "time": "2:00pm"}, {"days": "Sat", "time": "1:00pm"}, {"days": "Sun", "time": "Closed"}], "id": "7523802336", "name": "USPS COLLECTION BOX - BLUE BOX", "address": {"city": "DALLAS", "state": "TX", "street": "10705 ESTATE LN", "postcode": "75238"}}},
{"geometry": {"type": "Point", "coordinates": [-96.700568559, 32.8947226678]}, "type": "Feature", "properties": {"collection_times": [{"days": "Mon-Sat", "time": "1:00pm"}, {"days": "Sun", "time": "Closed"}], "id": "7523802337", "name": "USPS COLLECTION BOX - BLUE BOX", "address": {"city": "DALLAS", "state": "TX", "street": "10709 PLANO RD", "postcode": "75238"}}},
{"geometry": {"type": "Point", "coordinates": [-96.6896214639, 32.8830205519]}, "type": "Feature", "properties": {"collection_times": [{"days": "Mon-Fri", "time": "1:00pm"}, {"days": "Sat", "time": "11:00am"}, {"days": "Sun", "time": "Closed"}], "id": "7523802340", "name": "USPS COLLECTION BOX - BLUE BOX", "address": {"city": "DALLAS", "state": "TX", "street": "11120 PETAL ST", "postcode": "75238"}}},
{"geometry": {"type": "Point", "coordinates": [-96.7088942314, 32.8643262514]}, "type": "Feature", "properties": {"collection_times": [{"days": "Mon-Fri", "time": "5:00pm"}, {"days": "Sat-Sun", "time": "Closed"}], "id": "7523802344", "name": "USPS COLLECTION BOX - PO LOBBY", "address": {"city": "DALLAS", "state": "TX", "street": "10233 E NORTHWEST HWY STE 333", "postcode": "75238"}}},
{"geometry": {"type": "Point", "coordinates": [-96.7179687096, 32.8778616679]}, "type": "Feature", "properties": {"collection_times": [{"days": "Mon-Fri", "time": "2:00pm"}, {"days": "Sat", "time": "1:00pm"}, {"days": "Sun", "time": "Closed"}], "id": "7523805446", "name": "USPS COLLECTION BOX - BLUE BOX", "address": {"city": "DALLAS", "state": "TX", "street": "9661 AUDELIA RD", "postcode": "75238"}}},
{"geometry": {"type": "Point", "coordinates": [-96.7016900113, 32.8643037752]}, "type": "Feature", "properties": {"collection_times": [{"days": "Mon-Fri", "time": "2:00pm"}, {"days": "Sat", "time": "1:00pm"}, {"days": "Sun", "time": "Closed"}], "id": "7523805455", "name": "USPS COLLECTION BOX - BLUE BOX", "address": {"city": "DALLAS", "state": "TX", "street": "10675 E NORTHWEST HWY", "postcode": "75238"}}},
{"geometry": {"type": "Point", "coordinates": [-96.7066418775, 32.864452828]}, "type": "Feature", "properties": {"collection_times": [{"days": "Mon-Fri", "time": "2:00pm"}, {"days": "Sat", "time": "1:00pm"}, {"days": "Sun", "time": "Closed"}], "id": "7523805457", "name": "USPS COLLECTION BOX - BLUE BOX", "address": {"city": "DALLAS", "state": "TX", "street": "10405 E NORTHWEST HWY", "postcode": "75238"}}},
{"geometry": {"type": "Point", "coordinates": [-96.7034041188, 32.8912598611]}, "type": "Feature", "properties": {"collection_times": [{"days": "Mon-Fri", "time": "5:00pm"}, {"days": "Sat", "time": "3:00pm"}, {"days": "Sun", "time": "Closed"}], "id": "7523806118", "name": "USPS COLLECTION BOX - PO LOBBY", "address": {"city": "DALLAS", "state": "TX", "street": "10502 MARKISON RD", "postcode": "75238"}}},
{"geometry": {"type": "Point", "coordinates": [-96.7034041188, 32.8912598611]}, "type": "Feature", "properties": {"collection_times": [{"days": "Mon-Fri", "time": "5:00pm"}, {"days": "Sat", "time": "3:00pm"}, {"days": "Sun", "time": "Closed"}], "id": "7523806119", "name": "USPS COLLECTION BOX - PO LOBBY", "address": {"city": "DALLAS", "state": "TX", "street": "10502 MARKISON RD", "postcode": "75238"}}},
{"geometry": {"type": "Point", "coordinates": [-96.7034041188, 32.8912598611]}, "type": "Feature", "properties": {"collection_times": [{"days": "Mon-Fri", "time": "5:00pm"}, {"days": "Sat", "time": "3:00pm"}, {"days": "Sun", "time": "Closed"}], "id": "7523806120", "name": "USPS COLLECTION BOX - PO LOBBY", "address": {"city": "DALLAS", "state": "TX", "street": "10502 MARKISON RD", "postcode": "75238"}}},
{"geometry": {"type": "Point", "coordinates": [-96.7034041188, 32.8912598611]}, "type": "Feature", "properties": {"collection_times": [{"days": "Mon-Fri", "time": "5:00pm"}, {"days": "Sat", "time": "3:00pm"}, {"days": "Sun", "time": "Closed"}], "id": "7523806121", "name": "USPS COLLECTION BOX - PO LOBBY", "address": {"city": "DALLAS", "state": "TX", "street": "10502 MARKISON RD", "postcode": "75238"}}},
{"geometry": {"type": "Point", "coordinates": [-96.7088942314, 32.8643262514]}, "type": "Feature", "properties": {"collection_times": [{"days": "Mon-Fri", "time": "5:00pm"}, {"days": "Sat-Sun", "time": "Closed"}], "id": "7523806122", "name": "USPS COLLECTION BOX - PO LOBBY", "address": {"city": "DALLAS", "state": "TX", "street": "10233 E NORTHWEST HWY STE 333", "postcode": "75238"}}},
{"geometry": {"type": "Point", "coordinates": [-96.7088942314, 32.8643262514]}, "type": "Feature", "properties": {"collection_times": [{"days": "Mon-Fri", "time": "5:00pm"}, {"days": "Sat-Sun", "time": "Closed"}], "id": "7523806123", "name": "USPS COLLECTION BOX - PO LOBBY", "address": {"city": "DALLAS", "state": "TX", "street": "10233 E NORTHWEST HWY STE 333", "postcode": "75238"}}},
{"geometry": {"type": "Point", "coordinates": [-96.7075056942, 32.878568503]}, "type": "Feature", "properties": {"collection_times": [{"days": "Mon-Fri", "time": "1:00pm"}, {"days": "Sat-Sun", "time": "Closed"}], "id": "7523806124", "name": "USPS COLLECTION BOX - BLUE BOX", "address": {"city": "DALLAS", "state": "TX", "street": "10233 E NORTHWEST HWY STE 333", "postcode": "75238"}}},
{"geometry": {"type": "Point", "coordinates": [-96.7075056942, 32.878568503]}, "type": "Feature", "properties": {"collection_times": [{"days": "Mon-Fri", "time": "1:00pm"}, {"days": "Sat-Sun", "time": "Closed"}], "id": "7523806125", "name": "USPS COLLECTION BOX - BLUE BOX", "address": {"city": "DALLAS", "state": "TX", "street": "10233 E NORTHWEST HWY STE 333", "postcode": "75238"}}},
{"geometry": {"type": "Point", "coordinates": [-96.7691824231, 32.9264454308]}, "type": "Feature", "properties": {"collection_times": [{"days": "Mon-Fri", "time": "2:00pm"}, {"days": "Sat", "time": "1:00pm"}, {"days": "Sun", "time": "Closed"}], "id": "7524002352", "name": "USPS COLLECTION BOX - BLUE BOX", "address": {"city": "DALLAS", "state": "TX", "street": "13031 COIT RD", "postcode": "75240"}}},
{"geometry": {"type": "Point", "coordinates": [-96.7785022449, 32.9467430925]}, "type": "Feature", "properties": {"collection_times": [{"days": "Mon-Fri", "time": "2:00pm"}, {"days": "Sat-Sun", "time": "Closed"}], "id": "7524002356", "name": "USPS COLLECTION BOX - BLUE BOX", "address": {"city": "DALLAS", "state": "TX", "street": "14534 MEANDERING WAY", "postcode": "75240"}}},
{"geometry": {"type": "Point", "coordinates": [-96.8096248544, 32.9270597603]}, "type": "Feature", "properties": {"collection_times": [{"days": "Mon-Fri", "time": "2:00pm"}, {"days": "Sat-Sun", "time": "Closed"}], "id": "7524002357", "name": "USPS COLLECTION BOX - BLUE BOX", "address": {"city": "DALLAS", "state": "TX", "street": "1089 VALLEY VIEW MALL", "postcode": "75240"}}},
{"geometry": {"type": "Point", "coordinates": [-96.8085337093, 32.9318655227]}, "type": "Feature", "properties": {"collection_times": [{"days": "Mon-Fri", "time": "2:00pm"}, {"days": "Sat-Sun", "time": "Closed"}], "id": "7524002358", "name": "USPS COLLECTION BOX - BLUE BOX", "address": {"city": "DALLAS", "state": "TX", "street": "2184 VALLEY VIEW MALL", "postcode": "75240"}}},
{"geometry": {"type": "Point", "coordinates": [-96.8114396877, 32.9281605678]}, "type": "Feature", "properties": {"collection_times": [{"days": "Mon-Fri", "time": "1:00pm"}, {"days": "Sat-Sun", "time": "Closed"}], "id": "7524002370", "name": "USPS COLLECTION BOX - BLUE BOX", "address": {"city": "DALLAS", "state": "TX", "street": "13227 MONTFORT DR", "postcode": "75240"}}},
{"geometry": {"type": "Point", "coordinates": [-96.8280240351, 32.9479238458]}, "type": "Feature", "properties": {"collection_times": [{"days": "Mon-Fri", "time": "5:00pm"}, {"days": "Sat-Sun", "time": "Closed"}], "id": "7524002390", "name": "USPS COLLECTION BOX - BLUE BOX", "address": {"city": "DALLAS", "state": "TX", "street": "14801 LANDMARK BLVD", "postcode": "75240"}}},
{"geometry": {"type": "Point", "coordinates": [-96.8125486448, 32.9540667015]}, "type": "Feature", "properties": {"collection_times": [{"days": "Mon-Fri", "time": "12:30pm"}, {"days": "Sat-Sun", "time": "Closed"}], "id": "7524002414", "name": "USPS COLLECTION BOX - BLUE BOX", "address": {"city": "DALLAS", "state": "TX", "street": "5485 BELT LINE RD", "postcode": "75240"}}},
{"geometry": {"type": "Point", "coordinates": [-96.8158032922, 32.9264521361]}, "type": "Feature", "properties": {"collection_times": [{"days": "Mon-Fri", "time": "2:00pm"}, {"days": "Sat-Sun", "time": "Closed"}], "id": "7524002417", "name": "USPS COLLECTION BOX - BLUE BOX", "address": {"city": "DALLAS", "state": "TX", "street": "5525 LBJ FWY", "postcode": "75240"}}},
{"geometry": {"type": "Point", "coordinates": [-96.8280240351, 32.9479238458]}, "type": "Feature", "properties": {"collection_times": [{"days": "Mon-Fri", "time": "5:00pm"}, {"days": "Sat-Sun", "time": "Closed"}], "id": "7524005893", "name": "USPS COLLECTION BOX - BLUE BOX", "address": {"city": "DALLAS", "state": "TX", "street": "14801 LANDMARK BLVD", "postcode": "75240"}}},
{"geometry": {"type": "Point", "coordinates": [-96.7980861471, 32.9243753962]}, "type": "Feature", "properties": {"collection_times": [{"days": "Mon-Fri", "time": "12:00pm"}, {"days": "Sat", "time": "11:30am"}, {"days": "Sun", "time": "Closed"}], "id": "7524005901", "name": "USPS COLLECTION BOX - BLUE BOX", "address": {"city": "DALLAS", "state": "TX", "street": "6300 LBJ FWY", "postcode": "75240"}}},
{"geometry": {"type": "Point", "coordinates": [-96.7980861471, 32.9243753962]}, "type": "Feature", "properties": {"collection_times": [{"days": "Mon-Fri", "time": "12:00pm"}, {"days": "Sat", "time": "11:30am"}, {"days": "Sun", "time": "Closed"}], "id": "7524005902", "name": "USPS COLLECTION BOX - BLUE BOX", "address": {"city": "DALLAS", "state": "TX", "street": "6300 LBJ FWY", "postcode": "75240"}}},
{"geometry": {"type": "Point", "coordinates": [-96.8178630191, 32.9352704419]}, "type": "Feature", "properties": {"collection_times": [{"days": "Mon-Fri", "time": "5:00pm"}, {"days": "Sat", "time": "3:00pm"}, {"days": "Sun", "time": "Closed"}], "id": "7524005908", "name": "USPS COLLECTION BOX - BLUE BOX", "address": {"city": "DALLAS", "state": "TX", "street": "13770 NOEL RD", "postcode": "75240"}}},
{"geometry": {"type": "Point", "coordinates": [-96.8178630191, 32.9352704419]}, "type": "Feature", "properties": {"collection_times": [{"days": "Mon-Fri", "time": "5:00pm"}, {"days": "Sat", "time": "3:00pm"}, {"days": "Sun", "time": "Closed"}], "id": "7524005910", "name": "USPS COLLECTION BOX - BLUE BOX", "address": {"city": "DALLAS", "state": "TX", "street": "13770 NOEL RD", "postcode": "75240"}}},
{"geometry": {"type": "Point", "coordinates": [-96.8179730903, 32.9350832059]}, "type": "Feature", "properties": {"collection_times": [{"days": "Mon-Fri", "time": "5:00pm"}, {"days": "Sat", "time": "3:00pm"}, {"days": "Sun", "time": "Closed"}], "id": "7524006089", "name": "USPS COLLECTION BOX - PO LOBBY", "address": {"city": "DALLAS", "state": "TX", "street": "13770 NOEL RD", "postcode": "75240"}}},
{"geometry": {"type": "Point", "coordinates": [-96.7974297805, 32.9313912835]}, "type": "Feature", "properties": {"collection_times": [{"days": "Mon-Fri", "time": "5:00pm"}, {"days": "Sat", "time": "3:00pm"}, {"days": "Sun", "time": "Closed"}], "id": "7524006457", "name": "USPS COLLECTION BOX - EXPRESS", "address": {"city": "DALLAS", "state": "TX", "street": "13770 NOEL RD", "postcode": "75240"}}},
{"geometry": {"type": "Point", "coordinates": [-96.8178630191, 32.9352704419]}, "type": "Feature", "properties": {"collection_times": [{"days": "Mon-Fri", "time": "5:00pm"}, {"days": "Sat", "time": "3:00pm"}, {"days": "Sun", "time": "Closed"}], "id": "7524006458", "name": "USPS COLLECTION BOX - PO LOBBY", "address": {"city": "DALLAS", "state": "TX", "street": "13770 NOEL RD", "postcode": "75240"}}},
{"geometry": {"type": "Point", "coordinates": [-96.7670638726, 32.9263748151]}, "type": "Feature", "properties": {"collection_times": [{"days": "Mon-Fri", "time": "2:00pm"}, {"days": "Sat", "time": "1:00pm"}, {"days": "Sun", "time": "Closed"}], "id": "7524007332", "name": "USPS COLLECTION BOX - BLUE BOX", "address": {"city": "DALLAS", "state": "TX", "street": "13151 EMILY RD", "postcode": "75240"}}},
{"geometry": {"type": "Point", "coordinates": [-96.8038870192, 32.9529511712]}, "type": "Feature", "properties": {"collection_times": [{"days": "Mon-Fri", "time": "1:00pm"}, {"days": "Sat-Sun", "time": "Closed"}], "id": "7524007339", "name": "USPS COLLECTION BOX - BLUE BOX", "address": {"city": "DALLAS", "state": "TX", "street": "14999 PRESTON RD", "postcode": "75240"}}},
{"geometry": {"type": "Point", "coordinates": [-96.8037959314, 32.9337612108]}, "type": "Feature", "properties": {"collection_times": [{"days": "Mon-Fri", "time": "3:00pm"}, {"days": "Sat-Sun", "time": "Closed"}], "id": "7524007377", "name": "USPS COLLECTION BOX - BLUE BOX", "address": {"city": "DALLAS", "state": "TX", "street": "13601 PRESTON RD", "postcode": "75240"}}},
{"geometry": {"type": "Point", "coordinates": [-96.8178630191, 32.9352704419]}, "type": "Feature", "properties": {"collection_times": [{"days": "Mon-Fri", "time": "5:00pm"}, {"days": "Sat", "time": "3:00pm"}, {"days": "Sun", "time": "Closed"}], "id": "7524007378", "name": "USPS COLLECTION BOX - APC", "address": {"city": "DALLAS", "state": "TX", "street": "13770 NOEL RD", "postcode": "75240"}}},
{"geometry": {"type": "Point", "coordinates": [-96.8062978896, 32.6749605462]}, "type": "Feature", "properties": {"collection_times": [{"days": "Mon-Sat", "time": "1:00pm"}, {"days": "Sun", "time": "Closed"}], "id": "7524102493", "name": "USPS COLLECTION BOX - BLUE BOX", "address": {"city": "DALLAS", "state": "TX", "street": "1155 E RED BIRD LN", "postcode": "75241"}}},
{"geometry": {"type": "Point", "coordinates": [-96.7607362251, 32.6738461989]}, "type": "Feature", "properties": {"collection_times": [{"days": "Mon-Fri", "time": "5:00pm"}, {"days": "Sat", "time": "2:00pm"}, {"days": "Sun", "time": "Closed"}], "id": "7524102494", "name": "USPS COLLECTION BOX - BLUE BOX", "address": {"city": "DALLAS", "state": "TX", "street": "3655 SIMPSON STUART RD", "postcode": "75241"}}},
{"geometry": {"type": "Point", "coordinates": [-96.7607362251, 32.6738461989]}, "type": "Feature", "properties": {"collection_times": [{"days": "Mon-Fri", "time": "5:00pm"}, {"days": "Sat", "time": "2:00pm"}, {"days": "Sun", "time": "Closed"}], "id": "7524102495", "name": "USPS COLLECTION BOX - PO LOBBY", "address": {"city": "DALLAS", "state": "TX", "street": "3655 SIMPSON STUART RD", "postcode": "75241"}}},
{"geometry": {"type": "Point", "coordinates": [-96.7607362251, 32.6738461989]}, "type": "Feature", "properties": {"collection_times": [{"days": "Mon-Fri", "time": "5:00pm"}, {"days": "Sat", "time": "2:00pm"}, {"days": "Sun", "time": "Closed"}], "id": "7524105321", "name": "USPS COLLECTION BOX - BLUE BOX", "address": {"city": "DALLAS", "state": "TX", "street": "3655 SIMPSON STUART RD", "postcode": "75241"}}},
{"geometry": {"type": "Point", "coordinates": [-96.7607362251, 32.6738461989]}, "type": "Feature", "properties": {"collection_times": [{"days": "Mon-Fri", "time": "5:00pm"}, {"days": "Sat", "time": "2:00pm"}, {"days": "Sun", "time": "Closed"}], "id": "7524105322", "name": "USPS COLLECTION BOX - PO LOBBY", "address": {"city": "DALLAS", "state": "TX", "street": "3655 SIMPSON STUART RD", "postcode": "75241"}}},
{"geometry": {"type": "Point", "coordinates": [-96.7505577966, 32.6564153397]}, "type": "Feature", "properties": {"collection_times": [{"days": "Mon-Fri", "time": "1:00pm"}, {"days": "Sat-Sun", "time": "Closed"}], "id": "7524106275", "name": "USPS COLLECTION BOX - BLUE BOX", "address": {"city": "DALLAS", "state": "TX", "street": "7425 BONNIE VIEW RD", "postcode": "75241"}}},
{"geometry": {"type": "Point", "coordinates": [-96.7570784771, 32.6756844526]}, "type": "Feature", "properties": {"collection_times": [{"days": "Mon-Fri", "time": "12:30pm"}, {"days": "Sat-Sun", "time": "Closed"}], "id": "7524107279", "name": "USPS COLLECTION BOX - BLUE BOX", "address": {"city": "DALLAS", "state": "TX", "street": "3837 SIMPSON STUART RD", "postcode": "75241"}}},
{"geometry": {"type": "Point", "coordinates": [-96.7569362255, 32.6655018994]}, "type": "Feature", "properties": {"collection_times": [{"days": "Mon-Fri", "time": "1:00pm"}, {"days": "Sat-Sun", "time": "Closed"}], "id": "7524107281", "name": "USPS COLLECTION BOX - BLUE BOX", "address": {"city": "DALLAS", "state": "TX", "street": "7300 UNIVERSITY HILLS BLVD", "postcode": "75241"}}},
{"geometry": {"type": "Point", "coordinates": [-96.74566036, 32.9328039704]}, "type": "Feature", "properties": {"collection_times": [{"days": "Mon-Sat", "time": "1:00pm"}, {"days": "Sun", "time": "Closed"}], "id": "7524302524", "name": "USPS COLLECTION BOX - BLUE BOX", "address": {"city": "DALLAS", "state": "TX", "street": "13663 FLOYD CIR", "postcode": "75243"}}},
{"geometry": {"type": "Point", "coordinates": [-96.7441706878, 32.9136342914]}, "type": "Feature", "properties": {"collection_times": [{"days": "Mon-Fri", "time": "5:00pm"}, {"days": "Sat", "time": "3:00pm"}, {"days": "Sun", "time": "Closed"}], "id": "7524302534", "name": "USPS COLLECTION BOX - BLUE BOX", "address": {"city": "DALLAS", "state": "TX", "street": "9130 MARKVILLE DR", "postcode": "75243"}}},
{"geometry": {"type": "Point", "coordinates": [-96.7388402821, 32.909053332]}, "type": "Feature", "properties": {"collection_times": [{"days": "Mon-Sat", "time": "12:00pm"}, {"days": "Sun", "time": "Closed"}], "id": "7524302537", "name": "USPS COLLECTION BOX - BLUE BOX", "address": {"city": "DALLAS", "state": "TX", "street": "9304 FOREST LN", "postcode": "75243"}}},
{"geometry": {"type": "Point", "coordinates": [-96.7382029916, 32.9138653252]}, "type": "Feature", "properties": {"collection_times": [{"days": "Mon-Fri", "time": "1:00pm"}, {"days": "Sat", "time": "12:30pm"}, {"days": "Sun", "time": "Closed"}], "id": "7524302538", "name": "USPS COLLECTION BOX - BLUE BOX", "address": {"city": "DALLAS", "state": "TX", "street": "9319 LBJ FWY", "postcode": "75243"}}},
{"geometry": {"type": "Point", "coordinates": [-96.7283314868, 32.909034623]}, "type": "Feature", "properties": {"collection_times": [{"days": "Mon-Fri", "time": "2:00pm"}, {"days": "Sat", "time": "12:30pm"}, {"days": "Sun", "time": "Closed"}], "id": "7524302547", "name": "USPS COLLECTION BOX - BLUE BOX", "address": {"city": "DALLAS", "state": "TX", "street": "9550 FOREST LN", "postcode": "75243"}}},
{"geometry": {"type": "Point", "coordinates": [-96.7188488311, 32.9095472238]}, "type": "Feature", "properties": {"collection_times": [{"days": "Mon-Sat", "time": "1:00pm"}, {"days": "Sun", "time": "Closed"}], "id": "7524302552", "name": "USPS COLLECTION BOX - BLUE BOX", "address": {"city": "DALLAS", "state": "TX", "street": "9779 FOREST LN", "postcode": "75243"}}},
{"geometry": {"type": "Point", "coordinates": [-96.746162981, 32.9107498145]}, "type": "Feature", "properties": {"collection_times": [{"days": "Mon-Fri", "time": "3:00pm"}, {"days": "Sat", "time": "1:00pm"}, {"days": "Sun", "time": "Closed"}], "id": "7524305585", "name": "USPS COLLECTION BOX - BLUE BOX", "address": {"city": "DALLAS", "state": "TX", "street": "11880 GREENVILLE AVE", "postcode": "75243"}}},
{"geometry": {"type": "Point", "coordinates": [-96.7418903222, 32.9164985696]}, "type": "Feature", "properties": {"collection_times": [{"days": "Mon-Fri", "time": "1:00pm"}, {"days": "Sat", "time": "12:30pm"}, {"days": "Sun", "time": "Closed"}], "id": "7524305588", "name": "USPS COLLECTION BOX - BLUE BOX", "address": {"city": "DALLAS", "state": "TX", "street": "9221 LBJ FWY", "postcode": "75243"}}},
{"geometry": {"type": "Point", "coordinates": [-96.7441706878, 32.9136342914]}, "type": "Feature", "properties": {"collection_times": [{"days": "Mon-Fri", "time": "5:00pm"}, {"days": "Sat", "time": "3:00pm"}, {"days": "Sun", "time": "Closed"}], "id": "7524305591", "name": "USPS COLLECTION BOX - BLUE BOX", "address": {"city": "DALLAS", "state": "TX", "street": "9130 MARKVILLE DR", "postcode": "75243"}}},
{"geometry": {"type": "Point", "coordinates": [-96.7441706878, 32.9136342914]}, "type": "Feature", "properties": {"collection_times": [{"days": "Mon-Fri", "time": "5:00pm"}, {"days": "Sat", "time": "3:00pm"}, {"days": "Sun", "time": "Closed"}], "id": "7524305935", "name": "USPS COLLECTION BOX - PO LOBBY", "address": {"city": "DALLAS", "state": "TX", "street": "9130 MARKVILLE DR", "postcode": "75243"}}},
{"geometry": {"type": "Point", "coordinates": [-96.7441706878, 32.9136342914]}, "type": "Feature", "properties": {"collection_times": [{"days": "Mon-Fri", "time": "5:00pm"}, {"days": "Sat", "time": "3:00pm"}, {"days": "Sun", "time": "Closed"}], "id": "7524305936", "name": "USPS COLLECTION BOX - PO LOBBY", "address": {"city": "DALLAS", "state": "TX", "street": "9130 MARKVILLE DR", "postcode": "75243"}}},
{"geometry": {"type": "Point", "coordinates": [-96.7441706878, 32.9136342914]}, "type": "Feature", "properties": {"collection_times": [{"days": "Mon-Fri", "time": "5:00pm"}, {"days": "Sat", "time": "3:00pm"}, {"days": "Sun", "time": "Closed"}], "id": "7524306104", "name": "USPS COLLECTION BOX - PO LOBBY", "address": {"city": "DALLAS", "state": "TX", "street": "9130 MARKVILLE DR", "postcode": "75243"}}},
{"geometry": {"type": "Point", "coordinates": [-96.7441706878, 32.9136342914]}, "type": "Feature", "properties": {"collection_times": [{"days": "Mon-Fri", "time": "5:00pm"}, {"days": "Sat", "time": "3:00pm"}, {"days": "Sun", "time": "Closed"}], "id": "7524306105", "name": "USPS COLLECTION BOX - PO LOBBY", "address": {"city": "DALLAS", "state": "TX", "street": "9130 MARKVILLE DR", "postcode": "75243"}}},
{"geometry": {"type": "Point", "coordinates": [-96.7072969219, 32.9081662469]}, "type": "Feature", "properties": {"collection_times": [{"days": "Mon-Fri", "time": "2:00pm"}, {"days": "Sat", "time": "1:00pm"}, {"days": "Sun", "time": "Closed"}], "id": "7524306107", "name": "USPS COLLECTION BOX - BLUE BOX", "address": {"city": "DALLAS", "state": "TX", "street": "9704 SKILLMAN ST", "postcode": "75243"}}},
{"geometry": {"type": "Point", "coordinates": [-96.72232995, 32.8960762928]}, "type": "Feature", "properties": {"collection_times": [{"days": "Mon-Fri", "time": "3:00pm"}, {"days": "Sat-Sun", "time": "Closed"}], "id": "7524306580", "name": "USPS COLLECTION BOX - BLUE BOX", "address": {"city": "DALLAS", "state": "TX", "street": "8692 SKILLMAN ST", "postcode": "75243"}}},
{"geometry": {"type": "Point", "coordinates": [-96.7441706878, 32.9136342914]}, "type": "Feature", "properties": {"collection_times": [{"days": "Mon-Fri", "time": "5:00pm"}, {"days": "Sat", "time": "3:00pm"}, {"days": "Sun", "time": "Closed"}], "id": "7524306584", "name": "USPS COLLECTION BOX - APC", "address": {"city": "DALLAS", "state": "TX", "street": "9130 MARKVILLE DR", "postcode": "75243"}}},
{"geometry": {"type": "Point", "coordinates": [-96.8366567818, 32.9334403697]}, "type": "Feature", "properties": {"collection_times": [{"days": "Mon-Fri", "time": "5:00pm"}, {"days": "Sat-Sun", "time": "Closed"}], "id": "7524402567", "name": "USPS COLLECTION BOX - BLUE BOX", "address": {"city": "DALLAS", "state": "TX", "street": "13616 GAMMA RD", "postcode": "75244"}}},
{"geometry": {"type": "Point", "coordinates": [-96.8383250598, 32.9205525475]}, "type": "Feature", "properties": {"collection_times": [{"days": "Mon-Fri", "time": "3:00pm"}, {"days": "Sat-Sun", "time": "Closed"}], "id": "7524402569", "name": "USPS COLLECTION BOX - BLUE BOX", "address": {"city": "DALLAS", "state": "TX", "street": "12700 MIDWAY RD STE 101", "postcode": "75244"}}},
{"geometry": {"type": "Point", "coordinates": [-96.8294223317, 32.9206149879]}, "type": "Feature", "properties": {"collection_times": [{"days": "Mon-Fri", "time": "3:00pm"}, {"days": "Sat-Sun", "time": "Closed"}], "id": "7524402571", "name": "USPS COLLECTION BOX - BLUE BOX", "address": {"city": "DALLAS", "state": "TX", "street": "12600 WELCH RD", "postcode": "75244"}}},
{"geometry": {"type": "Point", "coordinates": [-96.8366567818, 32.9334403697]}, "type": "Feature", "properties": {"collection_times": [{"days": "Mon-Fri", "time": "5:00pm"}, {"days": "Sat-Sun", "time": "Closed"}], "id": "7524405332", "name": "USPS COLLECTION BOX - BLUE BOX", "address": {"city": "DALLAS", "state": "TX", "street": "13616 GAMMA RD", "postcode": "75244"}}},
{"geometry": {"type": "Point", "coordinates": [-96.8366567818, 32.9334403697]}, "type": "Feature", "properties": {"collection_times": [{"days": "Mon-Fri", "time": "5:00pm"}, {"days": "Sat-Sun", "time": "Closed"}], "id": "7524405333", "name": "USPS COLLECTION BOX - BLUE BOX", "address": {"city": "DALLAS", "state": "TX", "street": "13616 GAMMA RD", "postcode": "75244"}}},
{"geometry": {"type": "Point", "coordinates": [-96.8183392289, 32.91582637]}, "type": "Feature", "properties": {"collection_times": [{"days": "Mon-Fri", "time": "1:00pm"}, {"days": "Sat-Sun", "time": "Closed"}], "id": "7524405337", "name": "USPS COLLECTION BOX - BLUE BOX", "address": {"city": "DALLAS", "state": "TX", "street": "12240 INWOOD RD", "postcode": "75244"}}},
{"geometry": {"type": "Point", "coordinates": [-96.8388943239, 32.933929191]}, "type": "Feature", "properties": {"collection_times": [{"days": "Mon-Fri", "time": "1:00pm"}, {"days": "Sat-Sun", "time": "Closed"}], "id": "7524405344", "name": "USPS COLLECTION BOX - BLUE BOX", "address": {"city": "DALLAS", "state": "TX", "street": "13612 MIDWAY RD", "postcode": "75244"}}},
{"geometry": {"type": "Point", "coordinates": [-96.8366877591, 32.9430344161]}, "type": "Feature", "properties": {"collection_times": [{"days": "Mon-Fri", "time": "4:00pm"}, {"days": "Sat-Sun", "time": "Closed"}], "id": "7524405351", "name": "USPS COLLECTION BOX - BLUE BOX", "address": {"city": "DALLAS", "state": "TX", "street": "14204 PROTON RD", "postcode": "75244"}}},
{"geometry": {"type": "Point", "coordinates": [-96.8366877591, 32.9430344161]}, "type": "Feature", "properties": {"collection_times": [{"days": "Mon-Fri", "time": "4:00pm"}, {"days": "Sat-Sun", "time": "Closed"}], "id": "7524405352", "name": "USPS COLLECTION BOX - BLUE BOX", "address": {"city": "DALLAS", "state": "TX", "street": "14204 PROTON RD", "postcode": "75244"}}},
{"geometry": {"type": "Point", "coordinates": [-96.8492452148, 32.9253645681]}, "type": "Feature", "properties": {"collection_times": [{"days": "Mon-Fri", "time": "3:00pm"}, {"days": "Sat-Sun", "time": "Closed"}], "id": "7524405355", "name": "USPS COLLECTION BOX - BLUE BOX", "address": {"city": "DALLAS", "state": "TX", "street": "3939 VALLEY VIEW LN", "postcode": "75244"}}},
{"geometry": {"type": "Point", "coordinates": [-96.8388434566, 32.9423211019]}, "type": "Feature", "properties": {"collection_times": [{"days": "Mon-Fri", "time": "1:00pm"}, {"days": "Sat-Sun", "time": "Closed"}], "id": "7524407351", "name": "USPS COLLECTION BOX - BLUE BOX", "address": {"city": "DALLAS", "state": "TX", "street": "14140 MIDWAY RD", "postcode": "75244"}}},
{"geometry": {"type": "Point", "coordinates": [-96.8521340006, 32.9096146524]}, "type": "Feature", "properties": {"collection_times": [{"days": "Mon-Fri", "time": "4:00pm"}, {"days": "Sat-Sun", "time": "Closed"}], "id": "7524407352", "name": "USPS COLLECTION BOX - BLUE BOX", "address": {"city": "DALLAS", "state": "TX", "street": "3767 FOREST LN STE 124", "postcode": "75244"}}},
{"geometry": {"type": "Point", "coordinates": [-96.8434723057, 32.928424847]}, "type": "Feature", "properties": {"collection_times": [{"days": "Mon-Fri", "time": "4:00pm"}, {"days": "Sat-Sun", "time": "Closed"}], "id": "7524407364", "name": "USPS COLLECTION BOX - BLUE BOX", "address": {"city": "DALLAS", "state": "TX", "street": "4020 MCEWEN RD", "postcode": "75244"}}},
{"geometry": {"type": "Point", "coordinates": [-96.7794932224, 32.7916677288]}, "type": "Feature", "properties": {"collection_times": [{"days": "Mon-Fri", "time": "2:00pm"}, {"days": "Sat-Sun", "time": "Closed"}], "id": "7524600007", "name": "USPS COLLECTION BOX - BLUE BOX", "address": {"city": "DALLAS", "state": "TX", "street": "3500 GASTON AVE", "postcode": "75246"}}},
{"geometry": {"type": "Point", "coordinates": [-96.7789086885, 32.7903616672]}, "type": "Feature", "properties": {"collection_times": [{"days": "Mon-Fri", "time": "2:00pm"}, {"days": "Sat", "time": "1:00pm"}, {"days": "Sun", "time": "Closed"}], "id": "7524600012", "name": "USPS COLLECTION BOX - BLUE BOX", "address": {"city": "DALLAS", "state": "TX", "street": "3700 JUNIUS ST", "postcode": "75246"}}},
{"geometry": {"type": "Point", "coordinates": [-96.7739229531, 32.7874404647]}, "type": "Feature", "properties": {"collection_times": [{"days": "Mon-Fri", "time": "2:00pm"}, {"days": "Sat", "time": "1:00pm"}, {"days": "Sun", "time": "Closed"}], "id": "7524600017", "name": "USPS COLLECTION BOX - BLUE BOX", "address": {"city": "DALLAS", "state": "TX", "street": "200 N WASHINGTON AVE", "postcode": "75246"}}},
{"geometry": {"type": "Point", "coordinates": [-96.7798467084, 32.7912885505]}, "type": "Feature", "properties": {"collection_times": [{"days": "Mon-Fri", "time": "2:00pm"}, {"days": "Sat-Sun", "time": "Closed"}], "id": "7524600022", "name": "USPS COLLECTION BOX - BLUE BOX", "address": {"city": "DALLAS", "state": "TX", "street": "3600 GASTON AVE", "postcode": "75246"}}},
{"geometry": {"type": "Point", "coordinates": [-96.8639793457, 32.8166214103]}, "type": "Feature", "properties": {"collection_times": [{"days": "Mon-Fri", "time": "3:00pm"}, {"days": "Sat", "time": "1:00pm"}, {"days": "Sun", "time": "Closed"}], "id": "7524701049", "name": "USPS COLLECTION BOX - BLUE BOX", "address": {"city": "DALLAS", "state": "TX", "street": "1230 RIVER BEND DR", "postcode": "75247"}}},
{"geometry": {"type": "Point", "coordinates": [-96.8798777359, 32.8261752481]}, "type": "Feature", "properties": {"collection_times": [{"days": "Mon-Fri", "time": "1:30pm"}, {"days": "Sat-Sun", "time": "Closed"}], "id": "7524702652", "name": "USPS COLLECTION BOX - BLUE BOX", "address": {"city": "DALLAS", "state": "TX", "street": "8901 GOVERNORS ROW", "postcode": "75247"}}},
{"geometry": {"type": "Point", "coordinates": [-96.8702451024, 32.8183044158]}, "type": "Feature", "properties": {"collection_times": [{"days": "Mon-Fri", "time": "12:00pm"}, {"days": "Sat-Sun", "time": "Closed"}], "id": "7524702685", "name": "USPS COLLECTION BOX - BLUE BOX", "address": {"city": "DALLAS", "state": "TX", "street": "1111 W MOCKINGBIRD LN", "postcode": "75247"}}},
{"geometry": {"type": "Point", "coordinates": [-96.8895072232, 32.809305647]}, "type": "Feature", "properties": {"collection_times": [{"days": "Mon-Fri", "time": "5:00pm"}, {"days": "Sat", "time": "1:00pm"}, {"days": "Sun", "time": "Closed"}], "id": "7524702802", "name": "USPS COLLECTION BOX - BLUE BOX", "address": {"city": "DALLAS", "state": "TX", "street": "5055 NORWOOD RD", "postcode": "75247"}}},
{"geometry": {"type": "Point", "coordinates": [-96.8895072232, 32.809305647]}, "type": "Feature", "properties": {"collection_times": [{"days": "Mon-Fri", "time": "5:00pm"}, {"days": "Sat", "time": "1:00pm"}, {"days": "Sun", "time": "Closed"}], "id": "7524702803", "name": "USPS COLLECTION BOX - PO LOBBY", "address": {"city": "DALLAS", "state": "TX", "street": "5055 NORWOOD RD", "postcode": "75247"}}},
{"geometry": {"type": "Point", "coordinates": [-96.8717391795, 32.8240299372]}, "type": "Feature", "properties": {"collection_times": [{"days": "Mon-Fri", "time": "1:00pm"}, {"days": "Sat-Sun", "time": "Closed"}], "id": "7524702828", "name": "USPS COLLECTION BOX - BLUE BOX", "address": {"city": "DALLAS", "state": "TX", "street": "8201 N STEMMONS FWY", "postcode": "75247"}}},
{"geometry": {"type": "Point", "coordinates": [-96.8699742048, 32.8216758489]}, "type": "Feature", "properties": {"collection_times": [{"days": "Mon-Fri", "time": "5:00pm"}, {"days": "Sat-Sun", "time": "Closed"}], "id": "7524702890", "name": "USPS COLLECTION BOX - BLUE BOX", "address": {"city": "DALLAS", "state": "TX", "street": "7800 N STEMMONS FWY", "postcode": "75247"}}},
{"geometry": {"type": "Point", "coordinates": [-96.8745362481, 32.8194204917]}, "type": "Feature", "properties": {"collection_times": [{"days": "Mon-Fri", "time": "12:00pm"}, {"days": "Sat-Sun", "time": "Closed"}], "id": "7524705668", "name": "USPS COLLECTION BOX - BLUE BOX", "address": {"city": "DALLAS", "state": "TX", "street": "8701 JOHN CARPENTER FWY", "postcode": "75247"}}},
{"geometry": {"type": "Point", "coordinates": [-96.8641493148, 32.807634126]}, "type": "Feature", "properties": {"collection_times": [{"days": "Mon-Fri", "time": "5:00pm"}, {"days": "Sat-Sun", "time": "Closed"}], "id": "7524705694", "name": "USPS COLLECTION BOX - BLUE BOX", "address": {"city": "DALLAS", "state": "TX", "street": "3140 IRVING BLVD", "postcode": "75247"}}},
{"geometry": {"type": "Point", "coordinates": [-96.8895072232, 32.809305647]}, "type": "Feature", "properties": {"collection_times": [{"days": "Mon-Fri", "time": "5:00pm"}, {"days": "Sat", "time": "1:00pm"}, {"days": "Sun", "time": "Closed"}], "id": "7524705713", "name": "USPS COLLECTION BOX - PO LOBBY", "address": {"city": "DALLAS", "state": "TX", "street": "5055 NORWOOD RD", "postcode": "75247"}}},
{"geometry": {"type": "Point", "coordinates": [-96.8895072232, 32.809305647]}, "type": "Feature", "properties": {"collection_times": [{"days": "Mon-Fri", "time": "5:00pm"}, {"days": "Sat", "time": "1:00pm"}, {"days": "Sun", "time": "Closed"}], "id": "7524705723", "name": "USPS COLLECTION BOX - BLUE BOX", "address": {"city": "DALLAS", "state": "TX", "street": "5055 NORWOOD RD", "postcode": "75247"}}},
{"geometry": {"type": "Point", "coordinates": [-96.8895072232, 32.809305647]}, "type": "Feature", "properties": {"collection_times": [{"days": "Mon-Fri", "time": "5:00pm"}, {"days": "Sat", "time": "1:00pm"}, {"days": "Sun", "time": "Closed"}], "id": "7524705724", "name": "USPS COLLECTION BOX - BLUE BOX", "address": {"city": "DALLAS", "state": "TX", "street": "5055 NORWOOD RD", "postcode": "75247"}}},
{"geometry": {"type": "Point", "coordinates": [-96.889482949, 32.8098241403]}, "type": "Feature", "properties": {"collection_times": [{"days": "Mon-Fri", "time": "5:00pm"}, {"days": "Sat", "time": "1:00pm"}, {"days": "Sun", "time": "Closed"}], "id": "7524705725", "name": "USPS COLLECTION BOX - BLUE BOX", "address": {"city": "DALLAS", "state": "TX", "street": "5055 NORWOOD RD", "postcode": "75247"}}},
{"geometry": {"type": "Point", "coordinates": [-96.8854059045, 32.8194790941]}, "type": "Feature", "properties": {"collection_times": [{"days": "Mon-Fri", "time": "1:00pm"}, {"days": "Sat-Sun", "time": "Closed"}], "id": "7524705884", "name": "USPS COLLECTION BOX - BLUE BOX", "address": {"city": "DALLAS", "state": "TX", "street": "8805 SOVEREIGN ROW", "postcode": "75247"}}},
{"geometry": {"type": "Point", "coordinates": [-96.8795467087, 32.8197145029]}, "type": "Feature", "properties": {"collection_times": [{"days": "Mon-Fri", "time": "1:00pm"}, {"days": "Sat-Sun", "time": "Closed"}], "id": "7524706009", "name": "USPS COLLECTION BOX - BLUE BOX", "address": {"city": "DALLAS", "state": "TX", "street": "8301 AMBASSADOR ROW", "postcode": "75247"}}},
{"geometry": {"type": "Point", "coordinates": [-96.8649767611, 32.8165558609]}, "type": "Feature", "properties": {"collection_times": [{"days": "Mon-Fri", "time": "2:00pm"}, {"days": "Sat-Sun", "time": "Closed"}], "id": "7524706603", "name": "USPS COLLECTION BOX - BLUE BOX", "address": {"city": "DALLAS", "state": "TX", "street": "1221 RIVER BEND DR", "postcode": "75247"}}},
{"geometry": {"type": "Point", "coordinates": [-96.7876895715, 32.9621982674]}, "type": "Feature", "properties": {"collection_times": [{"days": "Mon-Fri", "time": "2:00pm"}, {"days": "Sat", "time": "1:00pm"}, {"days": "Sun", "time": "Closed"}], "id": "7524802901", "name": "USPS COLLECTION BOX - BLUE BOX", "address": {"city": "DALLAS", "state": "TX", "street": "7007 ARAPAHO RD", "postcode": "75248"}}},
{"geometry": {"type": "Point", "coordinates": [-96.7700856633, 32.9781534632]}, "type": "Feature", "properties": {"collection_times": [{"days": "Mon-Fri", "time": "4:00pm"}, {"days": "Sat", "time": "1:00pm"}, {"days": "Sun", "time": "Closed"}], "id": "7524802902", "name": "USPS COLLECTION BOX - BLUE BOX", "address": {"city": "DALLAS", "state": "TX", "street": "7500 CAMPBELL RD", "postcode": "75248"}}},
{"geometry": {"type": "Point", "coordinates": [-96.8077862118, 32.9650387913]}, "type": "Feature", "properties": {"collection_times": [{"days": "Mon-Fri", "time": "2:00pm"}, {"days": "Sat", "time": "12:00pm"}, {"days": "Sun", "time": "Closed"}], "id": "7524802904", "name": "USPS COLLECTION BOX - BLUE BOX", "address": {"city": "DALLAS", "state": "TX", "street": "5900 COPPERWOOD LN", "postcode": "75248"}}},
{"geometry": {"type": "Point", "coordinates": [-96.7689708024, 32.9530954922]}, "type": "Feature", "properties": {"collection_times": [{"days": "Mon-Fri", "time": "2:00pm"}, {"days": "Sat", "time": "1:00pm"}, {"days": "Sun", "time": "Closed"}], "id": "7524802906", "name": "USPS COLLECTION BOX - BLUE BOX", "address": {"city": "DALLAS", "state": "TX", "street": "14800 N COIT RD", "postcode": "75248"}}},
{"geometry": {"type": "Point", "coordinates": [-96.813923105, 32.9667857551]}, "type": "Feature", "properties": {"collection_times": [{"days": "Mon-Sat", "time": "12:30pm"}, {"days": "Sun", "time": "Closed"}], "id": "7524802920", "name": "USPS COLLECTION BOX - BLUE BOX", "address": {"city": "DALLAS", "state": "TX", "street": "16000 BENT TREE FOREST CIR", "postcode": "75248"}}},
{"geometry": {"type": "Point", "coordinates": [-96.827993357, 32.9795239784]}, "type": "Feature", "properties": {"collection_times": [{"days": "Mon-Fri", "time": "1:00pm"}, {"days": "Sat-Sun", "time": "Closed"}], "id": "7524805090", "name": "USPS COLLECTION BOX - BLUE BOX", "address": {"city": "DALLAS", "state": "TX", "street": "16990 DALLAS PKWY", "postcode": "75248"}}},
{"geometry": {"type": "Point", "coordinates": [-96.7879064266, 32.962151043]}, "type": "Feature", "properties": {"collection_times": [{"days": "Mon-Fri", "time": "2:00pm"}, {"days": "Sat", "time": "1:00pm"}, {"days": "Sun", "time": "Closed"}], "id": "7524805624", "name": "USPS COLLECTION BOX - BLUE BOX", "address": {"city": "DALLAS", "state": "TX", "street": "7007 ARAPAHO RD", "postcode": "75248"}}},
{"geometry": {"type": "Point", "coordinates": [-96.8041936438, 32.9828612664]}, "type": "Feature", "properties": {"collection_times": [{"days": "Mon-Fri", "time": "3:00pm"}, {"days": "Sat", "time": "1:00pm"}, {"days": "Sun", "time": "Closed"}], "id": "7524805629", "name": "USPS COLLECTION BOX - BLUE BOX", "address": {"city": "DALLAS", "state": "TX", "street": "17000 PRESTON RD", "postcode": "75248"}}},
{"geometry": {"type": "Point", "coordinates": [-96.8041936438, 32.9828612664]}, "type": "Feature", "properties": {"collection_times": [{"days": "Mon-Fri", "time": "3:00pm"}, {"days": "Sat", "time": "1:00pm"}, {"days": "Sun", "time": "Closed"}], "id": "7524805630", "name": "USPS COLLECTION BOX - BLUE BOX", "address": {"city": "DALLAS", "state": "TX", "street": "17000 PRESTON RD", "postcode": "75248"}}},
{"geometry": {"type": "Point", "coordinates": [-96.8042683808, 32.9673663717]}, "type": "Feature", "properties": {"collection_times": [{"days": "Mon-Fri", "time": "2:00pm"}, {"days": "Sat", "time": "1:00pm"}, {"days": "Sun", "time": "Closed"}], "id": "7524805631", "name": "USPS COLLECTION BOX - BLUE BOX", "address": {"city": "DALLAS", "state": "TX", "street": "16000 PRESTON RD", "postcode": "75248"}}},
{"geometry": {"type": "Point", "coordinates": [-96.8028982334, 32.9901645128]}, "type": "Feature", "properties": {"collection_times": [{"days": "Mon-Fri", "time": "5:00pm"}, {"days": "Sat", "time": "3:00pm"}, {"days": "Sun", "time": "Closed"}], "id": "7524805640", "name": "USPS COLLECTION BOX - BLUE BOX", "address": {"city": "DALLAS", "state": "TX", "street": "5995 SUMMERSIDE DR", "postcode": "75248"}}},
{"geometry": {"type": "Point", "coordinates": [-96.8028982334, 32.9901645128]}, "type": "Feature", "properties": {"collection_times": [{"days": "Mon-Fri", "time": "5:00pm"}, {"days": "Sat", "time": "3:00pm"}, {"days": "Sun", "time": "Closed"}], "id": "7524805641", "name": "USPS COLLECTION BOX - BLUE BOX", "address": {"city": "DALLAS", "state": "TX", "street": "5995 SUMMERSIDE DR", "postcode": "75248"}}},
{"geometry": {"type": "Point", "coordinates": [-96.8028982334, 32.9901645128]}, "type": "Feature", "properties": {"collection_times": [{"days": "Mon-Fri", "time": "5:00pm"}, {"days": "Sat", "time": "3:00pm"}, {"days": "Sun", "time": "Closed"}], "id": "7524806266", "name": "USPS COLLECTION BOX - PO LOBBY", "address": {"city": "DALLAS", "state": "TX", "street": "5995 SUMMERSIDE DR", "postcode": "75248"}}},
{"geometry": {"type": "Point", "coordinates": [-96.8028982334, 32.9901645128]}, "type": "Feature", "properties": {"collection_times": [{"days": "Mon-Fri", "time": "5:00pm"}, {"days": "Sat", "time": "3:00pm"}, {"days": "Sun", "time": "Closed"}], "id": "7524806267", "name": "USPS COLLECTION BOX - PO LOBBY", "address": {"city": "DALLAS", "state": "TX", "street": "5995 SUMMERSIDE DR", "postcode": "75248"}}},
{"geometry": {"type": "Point", "coordinates": [-96.824045823, 32.9761241543]}, "type": "Feature", "properties": {"collection_times": [{"days": "Mon-Sat", "time": "1:00pm"}, {"days": "Sun", "time": "Closed"}], "id": "7524806273", "name": "USPS COLLECTION BOX - BLUE BOX", "address": {"city": "DALLAS", "state": "TX", "street": "16800 DALLAS PKWY", "postcode": "75248"}}},
{"geometry": {"type": "Point", "coordinates": [-96.8028982334, 32.9901645128]}, "type": "Feature", "properties": {"collection_times": [{"days": "Mon-Fri", "time": "5:00pm"}, {"days": "Sat", "time": "3:00pm"}, {"days": "Sun", "time": "Closed"}], "id": "7524806275", "name": "USPS COLLECTION BOX - APC", "address": {"city": "DALLAS", "state": "TX", "street": "5995 SUMMERSIDE DR", "postcode": "75248"}}},
{"geometry": {"type": "Point", "coordinates": [-96.7995562065, 32.9943310758]}, "type": "Feature", "properties": {"collection_times": [{"days": "Mon-Fri", "time": "2:00pm"}, {"days": "Sat-Sun", "time": "Closed"}], "id": "7525203004", "name": "USPS COLLECTION BOX - BLUE BOX", "address": {"city": "DALLAS", "state": "TX", "street": "17732 PRESTON RD", "postcode": "75252"}}},
{"geometry": {"type": "Point", "coordinates": [-96.7955755495, 33.0078310035]}, "type": "Feature", "properties": {"collection_times": [{"days": "Mon-Fri", "time": "2:00pm"}, {"days": "Sat", "time": "1:00pm"}, {"days": "Sun", "time": "Closed"}], "id": "7525203011", "name": "USPS COLLECTION BOX - BLUE BOX", "address": {"city": "DALLAS", "state": "TX", "street": "19109 PRESTON RD", "postcode": "75252"}}},
{"geometry": {"type": "Point", "coordinates": [-96.8034363119, 32.9864904237]}, "type": "Feature", "properties": {"collection_times": [{"days": "Mon-Fri", "time": "1:00pm"}, {"days": "Sat-Sun", "time": "Closed"}], "id": "7525205233", "name": "USPS COLLECTION BOX - BLUE BOX", "address": {"city": "DALLAS", "state": "TX", "street": "17290 PRESTON RD", "postcode": "75252"}}},
{"geometry": {"type": "Point", "coordinates": [-96.7959742067, 33.0020770911]}, "type": "Feature", "properties": {"collection_times": [{"days": "Mon-Sat", "time": "12:00pm"}, {"days": "Sun", "time": "Closed"}], "id": "7525205253", "name": "USPS COLLECTION BOX - BLUE BOX", "address": {"city": "DALLAS", "state": "TX", "street": "18484 PRESTON RD", "postcode": "75252"}}},
{"geometry": {"type": "Point", "coordinates": [-96.8017919989, 32.9897873304]}, "type": "Feature", "properties": {"collection_times": [{"days": "Mon-Fri", "time": "2:00pm"}, {"days": "Sat-Sun", "time": "Closed"}], "id": "7525206329", "name": "USPS COLLECTION BOX - BLUE BOX", "address": {"city": "DALLAS", "state": "TX", "street": "17370 PRESTON RD", "postcode": "75252"}}},
{"geometry": {"type": "Point", "coordinates": [-96.7937123892, 32.9928795851]}, "type": "Feature", "properties": {"collection_times": [{"days": "Mon-Fri", "time": "3:00pm"}, {"days": "Sat", "time": "1:00pm"}, {"days": "Sun", "time": "Closed"}], "id": "7525206330", "name": "USPS COLLECTION BOX - BLUE BOX", "address": {"city": "DALLAS", "state": "TX", "street": "17817 DAVENPORT RD", "postcode": "75252"}}},
{"geometry": {"type": "Point", "coordinates": [-96.7757337788, 32.9879975135]}, "type": "Feature", "properties": {"collection_times": [{"days": "Mon-Fri", "time": "3:00pm"}, {"days": "Sat", "time": "1:00pm"}, {"days": "Sun", "time": "Closed"}], "id": "7525206331", "name": "USPS COLLECTION BOX - BLUE BOX", "address": {"city": "DALLAS", "state": "TX", "street": "7659 MCCALLUM BLVD", "postcode": "75252"}}},
{"geometry": {"type": "Point", "coordinates": [-96.5997363752, 32.6812102118]}, "type": "Feature", "properties": {"collection_times": [{"days": "Mon-Fri", "time": "4:30pm"}, {"days": "Sat", "time": "3:30pm"}, {"days": "Sun", "time": "Closed"}], "id": "7525306985", "name": "USPS COLLECTION BOX - PO LOBBY", "address": {"city": "SEAGOVILLE", "state": "TX", "street": "15300 SEAGOVILLE RD", "postcode": "75253"}}},
{"geometry": {"type": "Point", "coordinates": [-96.5997363752, 32.6812102118]}, "type": "Feature", "properties": {"collection_times": [{"days": "Mon-Fri", "time": "4:30pm"}, {"days": "Sat", "time": "3:30pm"}, {"days": "Sun", "time": "Closed"}], "id": "7525306986", "name": "USPS COLLECTION BOX - PO LOBBY", "address": {"city": "SEAGOVILLE", "state": "TX", "street": "15300 SEAGOVILLE RD", "postcode": "75253"}}},
{"geometry": {"type": "Point", "coordinates": [-96.5997363752, 32.6812102118]}, "type": "Feature", "properties": {"collection_times": [{"days": "Mon-Fri", "time": "4:30pm"}, {"days": "Sat", "time": "3:30pm"}, {"days": "Sun", "time": "Closed"}], "id": "7525306987", "name": "USPS COLLECTION BOX - BLUE BOX", "address": {"city": "SEAGOVILLE", "state": "TX", "street": "15300 SEAGOVILLE RD", "postcode": "75253"}}},
{"geometry": {"type": "Point", "coordinates": [-96.5997363752, 32.6812102118]}, "type": "Feature", "properties": {"collection_times": [{"days": "Mon-Fri", "time": "4:30pm"}, {"days": "Sat", "time": "3:30pm"}, {"days": "Sun", "time": "Closed"}], "id": "7525306988", "name": "USPS COLLECTION BOX - BLUE BOX", "address": {"city": "SEAGOVILLE", "state": "TX", "street": "15300 SEAGOVILLE RD", "postcode": "75253"}}},
{"geometry": {"type": "Point", "coordinates": [-97.0437129472, 32.8748277449]}, "type": "Feature", "properties": {"collection_times": [{"days": "Mon-Sat", "time": "5:00pm"}, {"days": "Sun", "time": "Closed"}], "id": "7526103022", "name": "USPS COLLECTION BOX - BLUE BOX", "address": {"city": "DALLAS", "state": "TX", "street": "2300 W 32ND ST", "postcode": "75261"}}},
{"geometry": {"type": "Point", "coordinates": [-97.0396184532, 32.8913214693]}, "type": "Feature", "properties": {"collection_times": [{"days": "Mon-Sat", "time": "3:00pm"}, {"days": "Sun", "time": "Closed"}], "id": "7526103024", "name": "USPS COLLECTION BOX - BLUE BOX", "address": {"city": "DALLAS", "state": "TX", "street": "3200 E AIRFIELD DR", "postcode": "75261"}}},
{"geometry": {"type": "Point", "coordinates": [-97.0396184532, 32.8913214693]}, "type": "Feature", "properties": {"collection_times": [{"days": "Mon-Sat", "time": "3:00pm"}, {"days": "Sun", "time": "Closed"}], "id": "7526103026", "name": "USPS COLLECTION BOX - BLUE BOX", "address": {"city": "DALLAS", "state": "TX", "street": "3200 E AIRFIELD DR", "postcode": "75261"}}},
{"geometry": {"type": "Point", "coordinates": [-97.0396184532, 32.8913214693]}, "type": "Feature", "properties": {"collection_times": [{"days": "Mon-Sat", "time": "3:00pm"}, {"days": "Sun", "time": "Closed"}], "id": "7526103034", "name": "USPS COLLECTION BOX - BLUE BOX", "address": {"city": "DALLAS", "state": "TX", "street": "3200 E AIRFIELD DR", "postcode": "75261"}}},
{"geometry": {"type": "Point", "coordinates": [-97.0437129472, 32.8748277449]}, "type": "Feature", "properties": {"collection_times": [{"days": "Mon-Sat", "time": "5:00pm"}, {"days": "Sun", "time": "Closed"}], "id": "7526105326", "name": "USPS COLLECTION BOX - BLUE BOX", "address": {"city": "DALLAS", "state": "TX", "street": "2300 W 32ND ST", "postcode": "75261"}}},
{"geometry": {"type": "Point", "coordinates": [-97.0437129472, 32.8748277449]}, "type": "Feature", "properties": {"collection_times": [{"days": "Mon-Sat", "time": "5:00pm"}, {"days": "Sun", "time": "Closed"}], "id": "7526106310", "name": "USPS COLLECTION BOX - PO LOBBY", "address": {"city": "DALLAS", "state": "TX", "street": "2300 W 32ND ST", "postcode": "75261"}}},
{"geometry": {"type": "Point", "coordinates": [-97.0437129472, 32.8748277449]}, "type": "Feature", "properties": {"collection_times": [{"days": "Mon-Sat", "time": "5:00pm"}, {"days": "Sun", "time": "Closed"}], "id": "7526107261", "name": "USPS COLLECTION BOX - PO LOBBY", "address": {"city": "DALLAS", "state": "TX", "street": "2300 W 32ND ST", "postcode": "75261"}}},
{"geometry": {"type": "Point", "coordinates": [-97.0396184532, 32.8913214693]}, "type": "Feature", "properties": {"collection_times": [{"days": "Mon-Sat", "time": "3:00pm"}, {"days": "Sun", "time": "Closed"}], "id": "7526107262", "name": "USPS COLLECTION BOX - BLUE BOX", "address": {"city": "DALLAS", "state": "TX", "street": "3200 E AIRFIELD DR", "postcode": "75261"}}},
{"geometry": {"type": "Point", "coordinates": [-97.0156325926, 32.8741838311]}, "type": "Feature", "properties": {"collection_times": [{"days": "Mon-Sat", "time": "3:00pm"}, {"days": "Sun", "time": "Closed"}], "id": "7526107263", "name": "USPS COLLECTION BOX - BLUE BOX", "address": {"city": "DALLAS", "state": "TX", "street": "3200 E AIRFIELD DR", "postcode": "75261"}}},
{"geometry": {"type": "Point", "coordinates": [-96.8281258484, 32.9880815035]}, "type": "Feature", "properties": {"collection_times": [{"days": "Mon-Sat", "time": "1:00pm"}, {"days": "Sun", "time": "Closed"}], "id": "7528700001", "name": "USPS COLLECTION BOX - BLUE BOX", "address": {"city": "DALLAS", "state": "TX", "street": "17440 DALLAS PKWY", "postcode": "75287"}}},
{"geometry": {"type": "Point", "coordinates": [-96.8327559498, 32.9898180873]}, "type": "Feature", "properties": {"collection_times": [{"days": "Mon-Fri", "time": "5:00pm"}, {"days": "Sat", "time": "3:00pm"}, {"days": "Sun", "time": "Closed"}], "id": "7528700004", "name": "USPS COLLECTION BOX - PO LOBBY", "address": {"city": "DALLAS", "state": "TX", "street": "4475 TRINITY MILLS RD", "postcode": "75287"}}},
{"geometry": {"type": "Point", "coordinates": [-96.8327559498, 32.9898180873]}, "type": "Feature", "properties": {"collection_times": [{"days": "Mon-Fri", "time": "5:00pm"}, {"days": "Sat", "time": "3:00pm"}, {"days": "Sun", "time": "Closed"}], "id": "7528700005", "name": "USPS COLLECTION BOX - PO LOBBY", "address": {"city": "DALLAS", "state": "TX", "street": "4475 TRINITY MILLS RD", "postcode": "75287"}}},
{"geometry": {"type": "Point", "coordinates": [-96.8327559498, 32.9898180873]}, "type": "Feature", "properties": {"collection_times": [{"days": "Mon-Fri", "time": "5:00pm"}, {"days": "Sat", "time": "3:00pm"}, {"days": "Sun", "time": "Closed"}], "id": "7528700006", "name": "USPS COLLECTION BOX - BLUE BOX", "address": {"city": "DALLAS", "state": "TX", "street": "4475 TRINITY MILLS RD", "postcode": "75287"}}},
{"geometry": {"type": "Point", "coordinates": [-96.8327559498, 32.9898180873]}, "type": "Feature", "properties": {"collection_times": [{"days": "Mon-Fri", "time": "5:00pm"}, {"days": "Sat", "time": "3:00pm"}, {"days": "Sun", "time": "Closed"}], "id": "7528700012", "name": "USPS COLLECTION BOX - BLUE BOX", "address": {"city": "DALLAS", "state": "TX", "street": "4475 TRINITY MILLS RD", "postcode": "75287"}}},
{"geometry": {"type": "Point", "coordinates": [-96.8327559498, 32.9898180873]}, "type": "Feature", "properties": {"collection_times": [{"days": "Mon-Fri", "time": "5:00pm"}, {"days": "Sat", "time": "3:00pm"}, {"days": "Sun", "time": "Closed"}], "id": "7528700013", "name": "USPS COLLECTION BOX - APC", "address": {"city": "DALLAS", "state": "TX", "street": "4475 TRINITY MILLS RD", "postcode": "75287"}}}
]}
