{"type": "FeatureCollection", "features": [
{"geometry": {"type": "Point", "coordinates": [-96.1090127908, 33.139068624]}, "type": "Feature", "properties": {"collection_times": [{"days": "Mon-Fri", "time": "5:00pm"}, {"days": "Sat", "time": "12:00pm"}, {"days": "Sun", "time": "Closed"}], "id": "7540103041", "name": "USPS COLLECTION BOX - BLUE BOX", "address": {"city": "GREENVILLE", "state": "TX", "street": "2600 WESLEY ST", "postcode": "75401"}}},
{"geometry": {"type": "Point", "coordinates": [-96.1211267239, 33.1226243831]}, "type": "Feature", "properties": {"collection_times": [{"days": "Mon-Fri", "time": "1:00pm"}, {"days": "Sat-Sun", "time": "Closed"}], "id": "7540103048", "name": "USPS COLLECTION BOX - BLUE BOX", "address": {"city": "GREENVILLE", "state": "TX", "street": "3900 JOE RAMSEY BLVD E", "postcode": "75401"}}},
{"geometry": {"type": "Point", "coordinates": [-96.1093378769, 33.1218307974]}, "type": "Feature", "properties": {"collection_times": [{"days": "Mon-Fri", "time": "1:00pm"}, {"days": "Sat-Sun", "time": "Closed"}], "id": "7540103051", "name": "USPS COLLECTION BOX - BLUE BOX", "address": {"city": "GREENVILLE", "state": "TX", "street": "4900 WESLEY ST", "postcode": "75401"}}},
{"geometry": {"type": "Point", "coordinates": [-96.1187758678, 33.125354443]}, "type": "Feature", "properties": {"collection_times": [{"days": "Mon-Fri", "time": "5:00pm"}, {"days": "Sat", "time": "3:00pm"}, {"days": "Sun", "time": "Closed"}], "id": "7540107368", "name": "USPS COLLECTION BOX - BLUE BOX", "address": {"city": "GREENVILLE", "state": "TX", "street": "3701 STANFORD ST", "postcode": "75401"}}},
{"geometry": {"type": "Point", "coordinates": [-96.1090127908, 33.139068624]}, "type": "Feature", "properties": {"collection_times": [{"days": "Mon-Fri", "time": "5:00pm"}, {"days": "Sat", "time": "12:00pm"}, {"days": "Sun", "time": "Closed"}], "id": "7540107373", "name": "USPS COLLECTION BOX - PO LOBBY", "address": {"city": "GREENVILLE", "state": "TX", "street": "2600 WESLEY ST", "postcode": "75401"}}},
{"geometry": {"type": "Point", "coordinates": [-96.1090127908, 33.139068624]}, "type": "Feature", "properties": {"collection_times": [{"days": "Mon-Fri", "time": "5:00pm"}, {"days": "Sat", "time": "12:00pm"}, {"days": "Sun", "time": "Closed"}], "id": "7540107374", "name": "USPS COLLECTION BOX - PO LOBBY", "address": {"city": "GREENVILLE", "state": "TX", "street": "2600 WESLEY ST", "postcode": "75401"}}},
{"geometry": {"type": "Point", "coordinates": [-96.1093772265, 33.1131184549]}, "type": "Feature", "properties": {"collection_times": [{"days": "Mon-Fri", "time": "1:00pm"}, {"days": "Sat-Sun", "time": "Closed"}], "id": "7540200012", "name": "USPS COLLECTION BOX - BLUE BOX", "address": {"city": "GREENVILLE", "state": "TX", "street": "5809 WESLEY ST", "postcode": "75402"}}},
{"geometry": {"type": "Point", "coordinates": [-96.1094877769, 33.1084557356]}, "type": "Feature", "properties": {"collection_times": [{"days": "Mon-Fri", "time": "5:00pm"}, {"days": "Sat", "time": "12:00pm"}, {"days": "Sun", "time": "Closed"}], "id": "7540200013", "name": "USPS COLLECTION BOX - BLUE BOX", "address": {"city": "GREENVILLE", "state": "TX", "street": "6305 WESLEY ST", "postcode": "75402"}}},
{"geometry": {"type": "Point", "coordinates": [-96.1094877769, 33.1084557356]}, "type": "Feature", "properties": {"collection_times": [{"days": "Mon-Fri", "time": "5:00pm"}, {"days": "Sat", "time": "12:00pm"}, {"days": "Sun", "time": "Closed"}], "id": "7540200014", "name": "USPS COLLECTION BOX - BLUE BOX", "address": {"city": "GREENVILLE", "state": "TX", "street": "6305 WESLEY ST", "postcode": "75402"}}},
{"geometry": {"type": "Point", "coordinates": [-96.1094877769, 33.1084557356]}, "type": "Feature", "properties": {"collection_times": [{"days": "Mon-Fri", "time": "5:00pm"}, {"days": "Sat", "time": "12:00pm"}, {"days": "Sun", "time": "Closed"}], "id": "7540200015", "name": "USPS COLLECTION BOX - PO LOBBY", "address": {"city": "GREENVILLE", "state": "TX", "street": "6305 WESLEY ST", "postcode": "75402"}}},
{"geometry": {"type": "Point", "coordinates": [-96.10954503, 33.1055969257]}, "type": "Feature", "properties": {"collection_times": [{"days": "Mon-Fri", "time": "1:00pm"}, {"days": "Sat-Sun", "time": "Closed"}], "id": "7540200016", "name": "USPS COLLECTION BOX - BLUE BOX", "address": {"city": "GREENVILLE", "state": "TX", "street": "6609 WESLEY ST", "postcode": "75402"}}},
{"geometry": {"type": "Point", "coordinates": [-96.1085609654, 33.0862922825]}, "type": "Feature", "properties": {"collection_times": [{"days": "Mon-Fri", "time": "1:00pm"}, {"days": "Sat-Sun", "time": "Closed"}], "id": "7540200021", "name": "USPS COLLECTION BOX - BLUE BOX", "address": {"city": "GREENVILLE", "state": "TX", "street": "8707 WESLEY ST", "postcode": "75402"}}},
{"geometry": {"type": "Point", "coordinates": [-96.1094031406, 33.0767145971]}, "type": "Feature", "properties": {"collection_times": [{"days": "Mon-Fri", "time": "1:00pm"}, {"days": "Sat-Sun", "time": "Closed"}], "id": "7540200023", "name": "USPS COLLECTION BOX - BLUE BOX", "address": {"city": "GREENVILLE", "state": "TX", "street": "9801 WESLEY ST", "postcode": "75402"}}},
{"geometry": {"type": "Point", "coordinates": [-96.488045558, 33.1472403697]}, "type": "Feature", "properties": {"collection_times": [{"days": "Mon-Fri", "time": "10:30am"}, {"days": "Sat", "time": "10:00am"}, {"days": "Sun", "time": "Closed"}], "id": "7540700572", "name": "USPS COLLECTION BOX - BLUE BOX", "address": {"city": "PRINCETON", "state": "TX", "street": "901 QUAIL LN", "postcode": "75407"}}},
{"geometry": {"type": "Point", "coordinates": [-96.5031977777, 33.1745631548]}, "type": "Feature", "properties": {"collection_times": [{"days": "Mon-Sat", "time": "9:30am"}, {"days": "Sun", "time": "Closed"}], "id": "7540700573", "name": "USPS COLLECTION BOX - BLUE BOX", "address": {"city": "PRINCETON", "state": "TX", "street": "300 W PRINCETON DR", "postcode": "75407"}}},
{"geometry": {"type": "Point", "coordinates": [-96.493098857, 33.1738178906]}, "type": "Feature", "properties": {"collection_times": [{"days": "Mon-Sat", "time": "4:45pm"}, {"days": "Sun", "time": "Closed"}], "id": "7540700574", "name": "USPS COLLECTION BOX - BLUE BOX", "address": {"city": "PRINCETON", "state": "TX", "street": "621 E PRINCETON DR", "postcode": "75407"}}},
{"geometry": {"type": "Point", "coordinates": [-96.493098857, 33.1738178906]}, "type": "Feature", "properties": {"collection_times": [{"days": "Mon-Fri", "time": "4:00pm"}, {"days": "Sat", "time": "10:00am"}, {"days": "Sun", "time": "Closed"}], "id": "7540705612", "name": "USPS COLLECTION BOX - PO LOBBY", "address": {"city": "PRINCETON", "state": "TX", "street": "621 E PRINCETON DR", "postcode": "75407"}}},
{"geometry": {"type": "Point", "coordinates": [-96.5517052727, 33.3440061801]}, "type": "Feature", "properties": {"collection_times": [{"days": "Mon-Sat", "time": "4:15pm"}, {"days": "Sun", "time": "Closed"}], "id": "7540900009", "name": "USPS COLLECTION BOX - BLUE BOX", "address": {"city": "ANNA", "state": "TX", "street": "715 S POWELL PKWY", "postcode": "75409"}}},
{"geometry": {"type": "Point", "coordinates": [-96.5517052727, 33.3440061801]}, "type": "Feature", "properties": {"collection_times": [{"days": "Mon-Fri", "time": "4:15pm"}, {"days": "Sat", "time": "9:00am"}, {"days": "Sun", "time": "Closed"}], "id": "7540900011", "name": "USPS COLLECTION BOX - PO LOBBY", "address": {"city": "ANNA", "state": "TX", "street": "715 S POWELL PKWY", "postcode": "75409"}}},
{"geometry": {"type": "Point", "coordinates": [-95.6302902537, 32.7929605309]}, "type": "Feature", "properties": {"collection_times": [{"days": "Mon-Sat", "time": "3:30pm"}, {"days": "Sun", "time": "Closed"}], "id": "7541003067", "name": "USPS COLLECTION BOX - BLUE BOX", "address": {"city": "ALBA", "state": "TX", "street": "211 HOLLEY ST", "postcode": "75410"}}},
{"geometry": {"type": "Point", "coordinates": [-95.6302902537, 32.7929605309]}, "type": "Feature", "properties": {"collection_times": [{"days": "Mon-Fri", "time": "3:30pm"}, {"days": "Sat-Sun", "time": "Closed"}], "id": "7541005885", "name": "USPS COLLECTION BOX - PO LOBBY", "address": {"city": "ALBA", "state": "TX", "street": "211 HOLLEY ST", "postcode": "75410"}}},
{"geometry": {"type": "Point", "coordinates": [-95.6302902537, 32.7929605309]}, "type": "Feature", "properties": {"collection_times": [{"days": "Mon-Fri", "time": "3:30pm"}, {"days": "Sat-Sun", "time": "Closed"}], "id": "7541005886", "name": "USPS COLLECTION BOX - PO LOBBY", "address": {"city": "ALBA", "state": "TX", "street": "211 HOLLEY ST", "postcode": "75410"}}},
{"geometry": {"type": "Point", "coordinates": [-95.3687184471, 33.856528926]}, "type": "Feature", "properties": {"collection_times": [{"days": "Mon-Sat", "time": "3:45pm"}, {"days": "Sun", "time": "Closed"}], "id": "7541103068", "name": "USPS COLLECTION BOX - BLUE BOX", "address": {"city": "ARTHUR CITY", "state": "TX", "street": "12552 N US HIGHWAY 271", "postcode": "75411"}}},
{"geometry": {"type": "Point", "coordinates": [-95.3687184471, 33.856528926]}, "type": "Feature", "properties": {"collection_times": [{"days": "Mon-Fri", "time": "11:30am"}, {"days": "Sat", "time": "9:00am"}, {"days": "Sun", "time": "Closed"}], "id": "7541105382", "name": "USPS COLLECTION BOX - PO LOBBY", "address": {"city": "ARTHUR CITY", "state": "TX", "street": "12552 N US HIGHWAY 271", "postcode": "75411"}}},
{"geometry": {"type": "Point", "coordinates": [-95.1438792189, 33.830404952]}, "type": "Feature", "properties": {"collection_times": [{"days": "Mon-Sat", "time": "3:30pm"}, {"days": "Sun", "time": "Closed"}], "id": "7541203069", "name": "USPS COLLECTION BOX - BLUE BOX", "address": {"city": "BAGWELL", "state": "TX", "street": "5294 FARM ROAD 2573", "postcode": "75412"}}},
{"geometry": {"type": "Point", "coordinates": [-95.1438792189, 33.830404952]}, "type": "Feature", "properties": {"collection_times": [{"days": "Mon-Fri", "time": "12:30pm"}, {"days": "Sat", "time": "9:00am"}, {"days": "Sun", "time": "Closed"}], "id": "7541203070", "name": "USPS COLLECTION BOX - PO LOBBY", "address": {"city": "BAGWELL", "state": "TX", "street": "5294 FARM ROAD 2573", "postcode": "75412"}}},
{"geometry": {"type": "Point", "coordinates": [-96.1648198092, 33.4330881064]}, "type": "Feature", "properties": {"collection_times": [{"days": "Mon-Fri", "time": "11:30am"}, {"days": "Sat", "time": "9:00am"}, {"days": "Sun", "time": "Closed"}], "id": "7541303071", "name": "USPS COLLECTION BOX - PO LOBBY", "address": {"city": "BAILEY", "state": "TX", "street": "107 N MAIN ST", "postcode": "75413"}}},
{"geometry": {"type": "Point", "coordinates": [-96.1648198092, 33.4330881064]}, "type": "Feature", "properties": {"collection_times": [{"days": "Mon-Sat", "time": "5:00pm"}, {"days": "Sun", "time": "Closed"}], "id": "7541305793", "name": "USPS COLLECTION BOX - BLUE BOX", "address": {"city": "BAILEY", "state": "TX", "street": "107 N MAIN ST", "postcode": "75413"}}},
{"geometry": {"type": "Point", "coordinates": [-96.4213714763, 33.6128085018]}, "type": "Feature", "properties": {"collection_times": [{"days": "Mon-Fri", "time": "4:00pm"}, {"days": "Sat", "time": "6:30am"}, {"days": "Sun", "time": "Closed"}], "id": "7541403073", "name": "USPS COLLECTION BOX - PO LOBBY", "address": {"city": "BELLS", "state": "TX", "street": "710 W BELLS BLVD", "postcode": "75414"}}},
{"geometry": {"type": "Point", "coordinates": [-96.4213714763, 33.6128085018]}, "type": "Feature", "properties": {"collection_times": [{"days": "Mon-Sat", "time": "4:30pm"}, {"days": "Sun", "time": "Closed"}], "id": "7541403074", "name": "USPS COLLECTION BOX - BLUE BOX", "address": {"city": "BELLS", "state": "TX", "street": "710 W BELLS BLVD", "postcode": "75414"}}},
{"geometry": {"type": "Point", "coordinates": [-95.7737359475, 33.4735279102]}, "type": "Feature", "properties": {"collection_times": [{"days": "Mon-Sat", "time": "4:30pm"}, {"days": "Sun", "time": "Closed"}], "id": "7541503074", "name": "USPS COLLECTION BOX - BLUE BOX", "address": {"city": "BEN FRANKLIN", "state": "TX", "street": "828 FARM ROAD 38", "postcode": "75415"}}},
{"geometry": {"type": "Point", "coordinates": [-95.7737359475, 33.4735279102]}, "type": "Feature", "properties": {"collection_times": [{"days": "Mon-Fri", "time": "3:30pm"}, {"days": "Sat", "time": "7:30am"}, {"days": "Sun", "time": "Closed"}], "id": "7541503075", "name": "USPS COLLECTION BOX - PO LOBBY", "address": {"city": "BEN FRANKLIN", "state": "TX", "street": "828 FARM ROAD 38", "postcode": "75415"}}},
{"geometry": {"type": "Point", "coordinates": [-95.3844334827, 33.6627969458]}, "type": "Feature", "properties": {"collection_times": [{"days": "Mon-Sat", "time": "4:00pm"}, {"days": "Sun", "time": "Closed"}], "id": "7541603075", "name": "USPS COLLECTION BOX - BLUE BOX", "address": {"city": "BLOSSOM", "state": "TX", "street": "215 N CENTER ST", "postcode": "75416"}}},
{"geometry": {"type": "Point", "coordinates": [-95.3844334827, 33.6627969458]}, "type": "Feature", "properties": {"collection_times": [{"days": "Mon-Fri", "time": "3:30pm"}, {"days": "Sat", "time": "8:30am"}, {"days": "Sun", "time": "Closed"}], "id": "7541606590", "name": "USPS COLLECTION BOX - PO LOBBY", "address": {"city": "BLOSSOM", "state": "TX", "street": "215 N CENTER ST", "postcode": "75416"}}},
{"geometry": {"type": "Point", "coordinates": [-95.2137801742, 33.4707437761]}, "type": "Feature", "properties": {"collection_times": [{"days": "Mon-Sat", "time": "4:00pm"}, {"days": "Sun", "time": "Closed"}], "id": "7541703077", "name": "USPS COLLECTION BOX - BLUE BOX", "address": {"city": "BOGATA", "state": "TX", "street": "141 N MAIN ST", "postcode": "75417"}}},
{"geometry": {"type": "Point", "coordinates": [-95.2137801742, 33.4707437761]}, "type": "Feature", "properties": {"collection_times": [{"days": "Mon-Fri", "time": "3:45pm"}, {"days": "Sat", "time": "10:00am"}, {"days": "Sun", "time": "Closed"}], "id": "7541703081", "name": "USPS COLLECTION BOX - PO LOBBY", "address": {"city": "BOGATA", "state": "TX", "street": "141 N MAIN ST", "postcode": "75417"}}},
{"geometry": {"type": "Point", "coordinates": [-96.1781410094, 33.5771600756]}, "type": "Feature", "properties": {"collection_times": [{"days": "Mon-Fri", "time": "4:00pm"}, {"days": "Sat", "time": "1:00pm"}, {"days": "Sun", "time": "Closed"}], "id": "7541803078", "name": "USPS COLLECTION BOX - BLUE BOX", "address": {"city": "BONHAM", "state": "TX", "street": "411 N CENTER ST", "postcode": "75418"}}},
{"geometry": {"type": "Point", "coordinates": [-96.1781410094, 33.5771600756]}, "type": "Feature", "properties": {"collection_times": [{"days": "Mon-Fri", "time": "4:00pm"}, {"days": "Sat", "time": "1:00pm"}, {"days": "Sun", "time": "Closed"}], "id": "7541803079", "name": "USPS COLLECTION BOX - BLUE BOX", "address": {"city": "BONHAM", "state": "TX", "street": "411 N CENTER ST", "postcode": "75418"}}},
{"geometry": {"type": "Point", "coordinates": [-96.179225643, 33.5772459994]}, "type": "Feature", "properties": {"collection_times": [{"days": "Mon-Fri", "time": "4:00pm"}, {"days": "Sat", "time": "1:00pm"}, {"days": "Sun", "time": "Closed"}], "id": "7541803080", "name": "USPS COLLECTION BOX - BLUE BOX", "address": {"city": "BONHAM", "state": "TX", "street": "416 N MAIN ST", "postcode": "75418"}}},
{"geometry": {"type": "Point", "coordinates": [-96.179225643, 33.5772459994]}, "type": "Feature", "properties": {"collection_times": [{"days": "Mon-Fri", "time": "4:00pm"}, {"days": "Sat", "time": "1:00pm"}, {"days": "Sun", "time": "Closed"}], "id": "7541803081", "name": "USPS COLLECTION BOX - BLUE BOX", "address": {"city": "BONHAM", "state": "TX", "street": "416 N MAIN ST", "postcode": "75418"}}},
{"geometry": {"type": "Point", "coordinates": [-96.1673124695, 33.5815914015]}, "type": "Feature", "properties": {"collection_times": [{"days": "Mon-Fri", "time": "2:30pm"}, {"days": "Sat-Sun", "time": "Closed"}], "id": "7541803084", "name": "USPS COLLECTION BOX - BLUE BOX", "address": {"city": "BONHAM", "state": "TX", "street": "1201 E 9TH ST", "postcode": "75418"}}},
{"geometry": {"type": "Point", "coordinates": [-96.1756855084, 33.6018770268]}, "type": "Feature", "properties": {"collection_times": [{"days": "Mon-Fri", "time": "3:00pm"}, {"days": "Sat", "time": "1:00pm"}, {"days": "Sun", "time": "Closed"}], "id": "7541803086", "name": "USPS COLLECTION BOX - BLUE BOX", "address": {"city": "BONHAM", "state": "TX", "street": "2231 N CENTER ST", "postcode": "75418"}}},
{"geometry": {"type": "Point", "coordinates": [-96.1780431211, 33.5759937496]}, "type": "Feature", "properties": {"collection_times": [{"days": "Mon-Sat", "time": "5:00pm"}, {"days": "Sun", "time": "Closed"}], "id": "7541803087", "name": "USPS COLLECTION BOX - BLUE BOX", "address": {"city": "BONHAM", "state": "TX", "street": "300 N CENTER ST", "postcode": "75418"}}},
{"geometry": {"type": "Point", "coordinates": [-96.1780431211, 33.5759937496]}, "type": "Feature", "properties": {"collection_times": [{"days": "Mon-Sat", "time": "5:00pm"}, {"days": "Sun", "time": "Closed"}], "id": "7541803088", "name": "USPS COLLECTION BOX - BLUE BOX", "address": {"city": "BONHAM", "state": "TX", "street": "300 N CENTER ST", "postcode": "75418"}}},
{"geometry": {"type": "Point", "coordinates": [-96.1674792521, 33.5778777037]}, "type": "Feature", "properties": {"collection_times": [{"days": "Mon-Fri", "time": "2:30pm"}, {"days": "Sat-Sun", "time": "Closed"}], "id": "7541803089", "name": "USPS COLLECTION BOX - BLUE BOX", "address": {"city": "BONHAM", "state": "TX", "street": "504 LIPSCOMB ST", "postcode": "75418"}}},
{"geometry": {"type": "Point", "coordinates": [-96.1920601819, 33.6130234731]}, "type": "Feature", "properties": {"collection_times": [{"days": "Mon-Fri", "time": "2:00pm"}, {"days": "Sat", "time": "1:00pm"}, {"days": "Sun", "time": "Closed"}], "id": "7541803090", "name": "USPS COLLECTION BOX - BLUE BOX", "address": {"city": "BONHAM", "state": "TX", "street": "2021 N STATE HIGHWAY 121", "postcode": "75418"}}},
{"geometry": {"type": "Point", "coordinates": [-96.1780431211, 33.5759937496]}, "type": "Feature", "properties": {"collection_times": [{"days": "Mon-Fri", "time": "4:00pm"}, {"days": "Sat", "time": "3:30pm"}, {"days": "Sun", "time": "Closed"}], "id": "7541805795", "name": "USPS COLLECTION BOX - PO LOBBY", "address": {"city": "BONHAM", "state": "TX", "street": "300 N CENTER ST", "postcode": "75418"}}},
{"geometry": {"type": "Point", "coordinates": [-96.1791963279, 33.5887210955]}, "type": "Feature", "properties": {"collection_times": [{"days": "Mon-Sat", "time": "11:00am"}, {"days": "Sun", "time": "Closed"}], "id": "7541805862", "name": "USPS COLLECTION BOX - BLUE BOX", "address": {"city": "BONHAM", "state": "TX", "street": "1117 WAR PATH ST", "postcode": "75418"}}},
{"geometry": {"type": "Point", "coordinates": [-96.1780431211, 33.5759937496]}, "type": "Feature", "properties": {"collection_times": [{"days": "Mon-Sat", "time": "5:00pm"}, {"days": "Sun", "time": "Closed"}], "id": "7541806583", "name": "USPS COLLECTION BOX - BLUE BOX", "address": {"city": "BONHAM", "state": "TX", "street": "300 N CENTER ST", "postcode": "75418"}}},
{"geometry": {"type": "Point", "coordinates": [-96.1780431211, 33.5759937496]}, "type": "Feature", "properties": {"collection_times": [{"days": "Mon-Fri", "time": "4:00pm"}, {"days": "Sat", "time": "3:30pm"}, {"days": "Sun", "time": "Closed"}], "id": "7541806584", "name": "USPS COLLECTION BOX - PO LOBBY", "address": {"city": "BONHAM", "state": "TX", "street": "300 N CENTER ST", "postcode": "75418"}}},
{"geometry": {"type": "Point", "coordinates": [-95.7306563251, 33.1180205051]}, "type": "Feature", "properties": {"collection_times": [{"days": "Mon-Sat", "time": "4:30pm"}, {"days": "Sun", "time": "Closed"}], "id": "7542003091", "name": "USPS COLLECTION BOX - BLUE BOX", "address": {"city": "BRASHEAR", "state": "TX", "street": "276 FARM ROAD 2653", "postcode": "75420"}}},
{"geometry": {"type": "Point", "coordinates": [-95.7306563251, 33.1180205051]}, "type": "Feature", "properties": {"collection_times": [{"days": "Mon-Fri", "time": "1:30pm"}, {"days": "Sat", "time": "8:30am"}, {"days": "Sun", "time": "Closed"}], "id": "7542003092", "name": "USPS COLLECTION BOX - PO LOBBY", "address": {"city": "BRASHEAR", "state": "TX", "street": "276 FARM ROAD 2653", "postcode": "75420"}}},
{"geometry": {"type": "Point", "coordinates": [-95.6732523482, 33.6246980147]}, "type": "Feature", "properties": {"collection_times": [{"days": "Mon-Sat", "time": "3:30pm"}, {"days": "Sun", "time": "Closed"}], "id": "7542103093", "name": "USPS COLLECTION BOX - BLUE BOX", "address": {"city": "BROOKSTON", "state": "TX", "street": "100 N 1ST ST", "postcode": "75421"}}},
{"geometry": {"type": "Point", "coordinates": [-95.6732523482, 33.6246980147]}, "type": "Feature", "properties": {"collection_times": [{"days": "Mon-Fri", "time": "11:30am"}, {"days": "Sat", "time": "8:00am"}, {"days": "Sun", "time": "Closed"}], "id": "7542105796", "name": "USPS COLLECTION BOX - PO LOBBY", "address": {"city": "BROOKSTON", "state": "TX", "street": "100 N 1ST ST", "postcode": "75421"}}},
{"geometry": {"type": "Point", "coordinates": [-95.9574487694, 33.148051423]}, "type": "Feature", "properties": {"collection_times": [{"days": "Mon-Sat", "time": "5:00pm"}, {"days": "Sun", "time": "Closed"}], "id": "7542203094", "name": "USPS COLLECTION BOX - BLUE BOX", "address": {"city": "CAMPBELL", "state": "TX", "street": "609 W MAIN ST", "postcode": "75422"}}},
{"geometry": {"type": "Point", "coordinates": [-95.9574487694, 33.148051423]}, "type": "Feature", "properties": {"collection_times": [{"days": "Mon-Fri", "time": "3:30pm"}, {"days": "Sat", "time": "8:00am"}, {"days": "Sun", "time": "Closed"}], "id": "7542205870", "name": "USPS COLLECTION BOX - PO LOBBY", "address": {"city": "CAMPBELL", "state": "TX", "street": "609 W MAIN ST", "postcode": "75422"}}},
{"geometry": {"type": "Point", "coordinates": [-96.1940551601, 33.2941979545]}, "type": "Feature", "properties": {"collection_times": [{"days": "Mon-Sat", "time": "5:00pm"}, {"days": "Sun", "time": "Closed"}], "id": "7542303095", "name": "USPS COLLECTION BOX - BLUE BOX", "address": {"city": "CELESTE", "state": "TX", "street": "103 N US HIGHWAY 69", "postcode": "75423"}}},
{"geometry": {"type": "Point", "coordinates": [-96.1940551601, 33.2941979545]}, "type": "Feature", "properties": {"collection_times": [{"days": "Mon-Fri", "time": "3:00pm"}, {"days": "Sat-Sun", "time": "Closed"}], "id": "7542305767", "name": "USPS COLLECTION BOX - PO LOBBY", "address": {"city": "CELESTE", "state": "TX", "street": "103 N US HIGHWAY 69", "postcode": "75423"}}},
{"geometry": {"type": "Point", "coordinates": [-96.4007550249, 33.2970838927]}, "type": "Feature", "properties": {"collection_times": [{"days": "Mon-Sat", "time": "3:45pm"}, {"days": "Sun", "time": "Closed"}], "id": "7542400012", "name": "USPS COLLECTION BOX - BLUE BOX", "address": {"city": "BLUE RIDGE", "state": "TX", "street": "301 S BUSINESS HIGHWAY 78", "postcode": "75424"}}},
{"geometry": {"type": "Point", "coordinates": [-96.4007550249, 33.2970838927]}, "type": "Feature", "properties": {"collection_times": [{"days": "Mon-Fri", "time": "3:45pm"}, {"days": "Sat", "time": "10:30am"}, {"days": "Sun", "time": "Closed"}], "id": "7542405867", "name": "USPS COLLECTION BOX - PO LOBBY", "address": {"city": "BLUE RIDGE", "state": "TX", "street": "301 S BUSINESS HIGHWAY 78", "postcode": "75424"}}},
{"geometry": {"type": "Point", "coordinates": [-95.5705253295, 33.869058829]}, "type": "Feature", "properties": {"collection_times": [{"days": "Mon-Sat", "time": "3:15pm"}, {"days": "Sun", "time": "Closed"}], "id": "7542503096", "name": "USPS COLLECTION BOX - BLUE BOX", "address": {"city": "CHICOTA", "state": "TX", "street": "3696 FM 197", "postcode": "75425"}}},
{"geometry": {"type": "Point", "coordinates": [-95.5705253295, 33.869058829]}, "type": "Feature", "properties": {"collection_times": [{"days": "Mon-Fri", "time": "12:00pm"}, {"days": "Sat", "time": "9:00am"}, {"days": "Sun", "time": "Closed"}], "id": "7542503097", "name": "USPS COLLECTION BOX - PO LOBBY", "address": {"city": "CHICOTA", "state": "TX", "street": "3696 FM 197", "postcode": "75425"}}},
{"geometry": {"type": "Point", "coordinates": [-95.0509916663, 33.613059351]}, "type": "Feature", "properties": {"collection_times": [{"days": "Mon-Sat", "time": "4:30pm"}, {"days": "Sun", "time": "Closed"}], "id": "7542603106", "name": "USPS COLLECTION BOX - BLUE BOX", "address": {"city": "CLARKSVILLE", "state": "TX", "street": "403 N WALNUT ST", "postcode": "75426"}}},
{"geometry": {"type": "Point", "coordinates": [-95.0509916663, 33.613059351]}, "type": "Feature", "properties": {"collection_times": [{"days": "Mon-Fri", "time": "4:30pm"}, {"days": "Sat", "time": "10:45am"}, {"days": "Sun", "time": "Closed"}], "id": "7542605766", "name": "USPS COLLECTION BOX - PO LOBBY", "address": {"city": "CLARKSVILLE", "state": "TX", "street": "403 N WALNUT ST", "postcode": "75426"}}},
{"geometry": {"type": "Point", "coordinates": [-95.0509916663, 33.613059351]}, "type": "Feature", "properties": {"collection_times": [{"days": "Mon-Fri", "time": "4:30pm"}, {"days": "Sat", "time": "10:45am"}, {"days": "Sun", "time": "Closed"}], "id": "7542605767", "name": "USPS COLLECTION BOX - PO LOBBY", "address": {"city": "CLARKSVILLE", "state": "TX", "street": "403 N WALNUT ST", "postcode": "75426"}}},
{"geometry": {"type": "Point", "coordinates": [-95.0509916663, 33.613059351]}, "type": "Feature", "properties": {"collection_times": [{"days": "Mon-Sat", "time": "4:30pm"}, {"days": "Sun", "time": "Closed"}], "id": "7542605768", "name": "USPS COLLECTION BOX - BLUE BOX", "address": {"city": "CLARKSVILLE", "state": "TX", "street": "403 N WALNUT ST", "postcode": "75426"}}},
{"geometry": {"type": "Point", "coordinates": [-95.900447556, 33.2501266737]}, "type": "Feature", "properties": {"collection_times": [{"days": "Mon-Fri", "time": "3:00pm"}, {"days": "Sat-Sun", "time": "Closed"}], "id": "7542803119", "name": "USPS COLLECTION BOX - BLUE BOX", "address": {"city": "COMMERCE", "state": "TX", "street": "1233 WASHINGTON ST", "postcode": "75428"}}},
{"geometry": {"type": "Point", "coordinates": [-95.8982542028, 33.2501681257]}, "type": "Feature", "properties": {"collection_times": [{"days": "Mon-Sat", "time": "5:00pm"}, {"days": "Sun", "time": "Closed"}], "id": "7542803120", "name": "USPS COLLECTION BOX - BLUE BOX", "address": {"city": "COMMERCE", "state": "TX", "street": "1300 PARK ST", "postcode": "75428"}}},
{"geometry": {"type": "Point", "coordinates": [-95.8982542028, 33.2501681257]}, "type": "Feature", "properties": {"collection_times": [{"days": "Mon-Fri", "time": "4:00pm"}, {"days": "Sat", "time": "3:00pm"}, {"days": "Sun", "time": "Closed"}], "id": "7542803121", "name": "USPS COLLECTION BOX - PO LOBBY", "address": {"city": "COMMERCE", "state": "TX", "street": "1300 PARK ST", "postcode": "75428"}}},
{"geometry": {"type": "Point", "coordinates": [-95.9040460506, 33.2448667972]}, "type": "Feature", "properties": {"collection_times": [{"days": "Mon-Fri", "time": "3:00pm"}, {"days": "Sat-Sun", "time": "Closed"}], "id": "7542803122", "name": "USPS COLLECTION BOX - BLUE BOX", "address": {"city": "COMMERCE", "state": "TX", "street": "1606 LEE ST", "postcode": "75428"}}},
{"geometry": {"type": "Point", "coordinates": [-95.9093415273, 33.2365995269]}, "type": "Feature", "properties": {"collection_times": [{"days": "Mon-Fri", "time": "3:00pm"}, {"days": "Sat-Sun", "time": "Closed"}], "id": "7542805873", "name": "USPS COLLECTION BOX - BLUE BOX", "address": {"city": "COMMERCE", "state": "TX", "street": "2600 W NEAL ST", "postcode": "75428"}}},
{"geometry": {"type": "Point", "coordinates": [-95.8982542028, 33.2501681257]}, "type": "Feature", "properties": {"collection_times": [{"days": "Mon-Sat", "time": "5:00pm"}, {"days": "Sun", "time": "Closed"}], "id": "7542806582", "name": "USPS COLLECTION BOX - BLUE BOX", "address": {"city": "COMMERCE", "state": "TX", "street": "1300 PARK ST", "postcode": "75428"}}},
{"geometry": {"type": "Point", "coordinates": [-95.9046215546, 33.2371496014]}, "type": "Feature", "properties": {"collection_times": [{"days": "Mon-Fri", "time": "3:45pm"}, {"days": "Sat", "time": "12:30pm"}, {"days": "Sun", "time": "Closed"}], "id": "7542806584", "name": "USPS COLLECTION BOX - BLUE BOX", "address": {"city": "COMMERCE", "state": "TX", "street": "1603 CULVER ST", "postcode": "75428"}}},
{"geometry": {"type": "Point", "coordinates": [-95.354754972, 33.0643631383]}, "type": "Feature", "properties": {"collection_times": [{"days": "Mon-Sat", "time": "5:00pm"}, {"days": "Sun", "time": "Closed"}], "id": "7543103128", "name": "USPS COLLECTION BOX - BLUE BOX", "address": {"city": "COMO", "state": "TX", "street": "103 GASKINS ST", "postcode": "75431"}}},
{"geometry": {"type": "Point", "coordinates": [-95.354754972, 33.0643631383]}, "type": "Feature", "properties": {"collection_times": [{"days": "Mon-Fri", "time": "2:00pm"}, {"days": "Sat", "time": "12:00pm"}, {"days": "Sun", "time": "Closed"}], "id": "7543105604", "name": "USPS COLLECTION BOX - PO LOBBY", "address": {"city": "COMO", "state": "TX", "street": "103 GASKINS ST", "postcode": "75431"}}},
{"geometry": {"type": "Point", "coordinates": [-95.6887795777, 33.3743128477]}, "type": "Feature", "properties": {"collection_times": [{"days": "Mon-Fri", "time": "11:30am"}, {"days": "Sat-Sun", "time": "Closed"}], "id": "7543203130", "name": "USPS COLLECTION BOX - BLUE BOX", "address": {"city": "COOPER", "state": "TX", "street": "61 W SIDE SQ", "postcode": "75432"}}},
{"geometry": {"type": "Point", "coordinates": [-95.6876334208, 33.3739045294]}, "type": "Feature", "properties": {"collection_times": [{"days": "Mon-Sat", "time": "4:30pm"}, {"days": "Sun", "time": "Closed"}], "id": "7543203131", "name": "USPS COLLECTION BOX - BLUE BOX", "address": {"city": "COOPER", "state": "TX", "street": "150 E DALLAS AVE", "postcode": "75432"}}},
{"geometry": {"type": "Point", "coordinates": [-95.6876334208, 33.3739045294]}, "type": "Feature", "properties": {"collection_times": [{"days": "Mon-Sat", "time": "4:30pm"}, {"days": "Sun", "time": "Closed"}], "id": "7543203132", "name": "USPS COLLECTION BOX - BLUE BOX", "address": {"city": "COOPER", "state": "TX", "street": "150 E DALLAS AVE", "postcode": "75432"}}},
{"geometry": {"type": "Point", "coordinates": [-95.6876334208, 33.3739045294]}, "type": "Feature", "properties": {"collection_times": [{"days": "Mon-Fri", "time": "4:00pm"}, {"days": "Sat", "time": "8:30am"}, {"days": "Sun", "time": "Closed"}], "id": "7543205928", "name": "USPS COLLECTION BOX - PO LOBBY", "address": {"city": "COOPER", "state": "TX", "street": "150 E DALLAS AVE", "postcode": "75432"}}},
{"geometry": {"type": "Point", "coordinates": [-95.6876334208, 33.3739045294]}, "type": "Feature", "properties": {"collection_times": [{"days": "Mon-Fri", "time": "4:00pm"}, {"days": "Sat", "time": "8:30am"}, {"days": "Sun", "time": "Closed"}], "id": "7543205929", "name": "USPS COLLECTION BOX - PO LOBBY", "address": {"city": "COOPER", "state": "TX", "street": "150 E DALLAS AVE", "postcode": "75432"}}},
{"geometry": {"type": "Point", "coordinates": [-95.8393627752, 33.1343201406]}, "type": "Feature", "properties": {"collection_times": [{"days": "Mon-Sat", "time": "4:30pm"}, {"days": "Sun", "time": "Closed"}], "id": "7543303137", "name": "USPS COLLECTION BOX - BLUE BOX", "address": {"city": "CUMBY", "state": "TX", "street": "200 DEPOT ST", "postcode": "75433"}}},
{"geometry": {"type": "Point", "coordinates": [-95.8393627752, 33.1343201406]}, "type": "Feature", "properties": {"collection_times": [{"days": "Mon-Fri", "time": "4:00pm"}, {"days": "Sat", "time": "8:00am"}, {"days": "Sun", "time": "Closed"}], "id": "7543305827", "name": "USPS COLLECTION BOX - PO LOBBY", "address": {"city": "CUMBY", "state": "TX", "street": "200 DEPOT ST", "postcode": "75433"}}},
{"geometry": {"type": "Point", "coordinates": [-95.36025341, 33.4264473572]}, "type": "Feature", "properties": {"collection_times": [{"days": "Mon-Fri", "time": "10:00am"}, {"days": "Sat", "time": "8:30am"}, {"days": "Sun", "time": "Closed"}], "id": "7543403138", "name": "USPS COLLECTION BOX - BLUE BOX", "address": {"city": "CUNNINGHAM", "state": "TX", "street": "12810 FM 196", "postcode": "75434"}}},
{"geometry": {"type": "Point", "coordinates": [-95.36025341, 33.4264473572]}, "type": "Feature", "properties": {"collection_times": [{"days": "Mon-Fri", "time": "10:00am"}, {"days": "Sat", "time": "8:30am"}, {"days": "Sun", "time": "Closed"}], "id": "7543405828", "name": "USPS COLLECTION BOX - PO LOBBY", "address": {"city": "CUNNINGHAM", "state": "TX", "street": "12810 FM 196", "postcode": "75434"}}},
{"geometry": {"type": "Point", "coordinates": [-95.3162145738, 33.5286160598]}, "type": "Feature", "properties": {"collection_times": [{"days": "Mon-Fri", "time": "3:15pm"}, {"days": "Sat", "time": "3:30pm"}, {"days": "Sun", "time": "Closed"}], "id": "7543505769", "name": "USPS COLLECTION BOX - BLUE BOX", "address": {"city": "DEPORT", "state": "TX", "street": "141 MONROE ST", "postcode": "75435"}}},
{"geometry": {"type": "Point", "coordinates": [-95.3162145738, 33.5286160598]}, "type": "Feature", "properties": {"collection_times": [{"days": "Mon-Fri", "time": "11:30am"}, {"days": "Sat", "time": "10:30am"}, {"days": "Sun", "time": "Closed"}], "id": "7543505828", "name": "USPS COLLECTION BOX - PO LOBBY", "address": {"city": "DEPORT", "state": "TX", "street": "141 MONROE ST", "postcode": "75435"}}},
{"geometry": {"type": "Point", "coordinates": [-95.2479090975, 33.6744340149]}, "type": "Feature", "properties": {"collection_times": [{"days": "Mon-Sat", "time": "3:45pm"}, {"days": "Sun", "time": "Closed"}], "id": "7543603140", "name": "USPS COLLECTION BOX - BLUE BOX", "address": {"city": "DETROIT", "state": "TX", "street": "215 W GARNER ST", "postcode": "75436"}}},
{"geometry": {"type": "Point", "coordinates": [-95.2479090975, 33.6744340149]}, "type": "Feature", "properties": {"collection_times": [{"days": "Mon-Fri", "time": "2:00pm"}, {"days": "Sat", "time": "9:00am"}, {"days": "Sun", "time": "Closed"}], "id": "7543605863", "name": "USPS COLLECTION BOX - PO LOBBY", "address": {"city": "DETROIT", "state": "TX", "street": "215 W GARNER ST", "postcode": "75436"}}},
{"geometry": {"type": "Point", "coordinates": [-95.2479090975, 33.6744340149]}, "type": "Feature", "properties": {"collection_times": [{"days": "Mon-Fri", "time": "2:00pm"}, {"days": "Sat", "time": "9:00am"}, {"days": "Sun", "time": "Closed"}], "id": "7543605864", "name": "USPS COLLECTION BOX - PO LOBBY", "address": {"city": "DETROIT", "state": "TX", "street": "215 W GARNER ST", "postcode": "75436"}}},
{"geometry": {"type": "Point", "coordinates": [-95.4571665765, 33.1975318968]}, "type": "Feature", "properties": {"collection_times": [{"days": "Mon-Sat", "time": "4:15pm"}, {"days": "Sun", "time": "Closed"}], "id": "7543703141", "name": "USPS COLLECTION BOX - BLUE BOX", "address": {"city": "DIKE", "state": "TX", "street": "6938 FARM ROAD 69 N", "postcode": "75437"}}},
{"geometry": {"type": "Point", "coordinates": [-95.4571665765, 33.1975318968]}, "type": "Feature", "properties": {"collection_times": [{"days": "Mon-Fri", "time": "11:30am"}, {"days": "Sat", "time": "9:00am"}, {"days": "Sun", "time": "Closed"}], "id": "7543703142", "name": "USPS COLLECTION BOX - PO LOBBY", "address": {"city": "DIKE", "state": "TX", "street": "6938 FARM ROAD 69 N", "postcode": "75437"}}},
{"geometry": {"type": "Point", "coordinates": [-96.0756769336, 33.5740434907]}, "type": "Feature", "properties": {"collection_times": [{"days": "Mon-Sat", "time": "4:30pm"}, {"days": "Sun", "time": "Closed"}], "id": "7543803143", "name": "USPS COLLECTION BOX - BLUE BOX", "address": {"city": "DODD CITY", "state": "TX", "street": "210 S MAIN ST", "postcode": "75438"}}},
{"geometry": {"type": "Point", "coordinates": [-96.0756769336, 33.5740434907]}, "type": "Feature", "properties": {"collection_times": [{"days": "Mon-Fri", "time": "11:30am"}, {"days": "Sat", "time": "8:30am"}, {"days": "Sun", "time": "Closed"}], "id": "7543805829", "name": "USPS COLLECTION BOX - PO LOBBY", "address": {"city": "DODD CITY", "state": "TX", "street": "210 S MAIN ST", "postcode": "75438"}}},
{"geometry": {"type": "Point", "coordinates": [-96.2816268075, 33.593391017]}, "type": "Feature", "properties": {"collection_times": [{"days": "Mon-Sat", "time": "4:00pm"}, {"days": "Sun", "time": "Closed"}], "id": "7543903144", "name": "USPS COLLECTION BOX - BLUE BOX", "address": {"city": "ECTOR", "state": "TX", "street": "106 E SAM RAYBURN RD", "postcode": "75439"}}},
{"geometry": {"type": "Point", "coordinates": [-96.2816268075, 33.593391017]}, "type": "Feature", "properties": {"collection_times": [{"days": "Mon-Fri", "time": "3:00pm"}, {"days": "Sat", "time": "9:00am"}, {"days": "Sun", "time": "Closed"}], "id": "7543905831", "name": "USPS COLLECTION BOX - PO LOBBY", "address": {"city": "ECTOR", "state": "TX", "street": "106 E SAM RAYBURN RD", "postcode": "75439"}}},
{"geometry": {"type": "Point", "coordinates": [-95.7659070329, 32.8737499561]}, "type": "Feature", "properties": {"collection_times": [{"days": "Mon-Fri", "time": "1:00pm"}, {"days": "Sat-Sun", "time": "Closed"}], "id": "7544003145", "name": "USPS COLLECTION BOX - BLUE BOX", "address": {"city": "EMORY", "state": "TX", "street": "122 N TEXAS ST", "postcode": "75440"}}},
{"geometry": {"type": "Point", "coordinates": [-95.7618489308, 32.8817159016]}, "type": "Feature", "properties": {"collection_times": [{"days": "Mon-Sat", "time": "4:30pm"}, {"days": "Sun", "time": "Closed"}], "id": "7544003146", "name": "USPS COLLECTION BOX - BLUE BOX", "address": {"city": "EMORY", "state": "TX", "street": "934 N TEXAS ST", "postcode": "75440"}}},
{"geometry": {"type": "Point", "coordinates": [-95.7618489308, 32.8817159016]}, "type": "Feature", "properties": {"collection_times": [{"days": "Mon-Fri", "time": "4:00pm"}, {"days": "Sat-Sun", "time": "Closed"}], "id": "7544005832", "name": "USPS COLLECTION BOX - PO LOBBY", "address": {"city": "EMORY", "state": "TX", "street": "934 N TEXAS ST", "postcode": "75440"}}},
{"geometry": {"type": "Point", "coordinates": [-95.6591538986, 33.4334063622]}, "type": "Feature", "properties": {"collection_times": [{"days": "Mon-Sat", "time": "4:15pm"}, {"days": "Sun", "time": "Closed"}], "id": "7544103147", "name": "USPS COLLECTION BOX - BLUE BOX", "address": {"city": "ENLOE", "state": "TX", "street": "1884 FARM ROAD 2949 S", "postcode": "75441"}}},
{"geometry": {"type": "Point", "coordinates": [-95.6591538986, 33.4334063622]}, "type": "Feature", "properties": {"collection_times": [{"days": "Mon-Fri", "time": "12:30pm"}, {"days": "Sat", "time": "9:30am"}, {"days": "Sun", "time": "Closed"}], "id": "7544105833", "name": "USPS COLLECTION BOX - PO LOBBY", "address": {"city": "ENLOE", "state": "TX", "street": "1884 FARM ROAD 2949 S", "postcode": "75441"}}},
{"geometry": {"type": "Point", "coordinates": [-96.3615360757, 33.163198468]}, "type": "Feature", "properties": {"collection_times": [{"days": "Mon-Sat", "time": "5:00pm"}, {"days": "Sun", "time": "Closed"}], "id": "7544200118", "name": "USPS COLLECTION BOX - BLUE BOX", "address": {"city": "FARMERSVILLE", "state": "TX", "street": "213 MCKINNEY ST", "postcode": "75442"}}},
{"geometry": {"type": "Point", "coordinates": [-96.3615360757, 33.163198468]}, "type": "Feature", "properties": {"collection_times": [{"days": "Mon-Fri", "time": "4:00pm"}, {"days": "Sat", "time": "10:00am"}, {"days": "Sun", "time": "Closed"}], "id": "7544205947", "name": "USPS COLLECTION BOX - PO LOBBY", "address": {"city": "FARMERSVILLE", "state": "TX", "street": "213 MCKINNEY ST", "postcode": "75442"}}},
{"geometry": {"type": "Point", "coordinates": [-96.3615360757, 33.163198468]}, "type": "Feature", "properties": {"collection_times": [{"days": "Mon-Fri", "time": "4:00pm"}, {"days": "Sat", "time": "10:00am"}, {"days": "Sun", "time": "Closed"}], "id": "7544205948", "name": "USPS COLLECTION BOX - PO LOBBY", "address": {"city": "FARMERSVILLE", "state": "TX", "street": "213 MCKINNEY ST", "postcode": "75442"}}},
{"geometry": {"type": "Point", "coordinates": [-96.0978187199, 33.4767702684]}, "type": "Feature", "properties": {"collection_times": [{"days": "Mon-Sat", "time": "5:00pm"}, {"days": "Sun", "time": "Closed"}], "id": "7544303148", "name": "USPS COLLECTION BOX - BLUE BOX", "address": {"city": "GOBER", "state": "TX", "street": "4672 FM 68", "postcode": "75443"}}},
{"geometry": {"type": "Point", "coordinates": [-96.0909603003, 33.4693635893]}, "type": "Feature", "properties": {"collection_times": [{"days": "Mon-Fri", "time": "4:00pm"}, {"days": "Sat", "time": "12:00pm"}, {"days": "Sun", "time": "Closed"}], "id": "7544305833", "name": "USPS COLLECTION BOX - PO LOBBY", "address": {"city": "GOBER", "state": "TX", "street": "4672 FM 68", "postcode": "75443"}}},
{"geometry": {"type": "Point", "coordinates": [-95.5624424835, 32.7297569016]}, "type": "Feature", "properties": {"collection_times": [{"days": "Mon-Fri", "time": "3:00pm"}, {"days": "Sat", "time": "9:00am"}, {"days": "Sun", "time": "Closed"}], "id": "7544405836", "name": "USPS COLLECTION BOX - PO LOBBY", "address": {"city": "GOLDEN", "state": "TX", "street": "5785 FM 779", "postcode": "75444"}}},
{"geometry": {"type": "Point", "coordinates": [-95.5624424835, 32.7297569016]}, "type": "Feature", "properties": {"collection_times": [{"days": "Mon-Sat", "time": "3:15pm"}, {"days": "Sun", "time": "Closed"}], "id": "7544405837", "name": "USPS COLLECTION BOX - BLUE BOX", "address": {"city": "GOLDEN", "state": "TX", "street": "5785 FM 779", "postcode": "75444"}}},
{"geometry": {"type": "Point", "coordinates": [-95.9099425175, 33.5828796122]}, "type": "Feature", "properties": {"collection_times": [{"days": "Mon-Sat", "time": "5:00pm"}, {"days": "Sun", "time": "Closed"}], "id": "7544603153", "name": "USPS COLLECTION BOX - BLUE BOX", "address": {"city": "HONEY GROVE", "state": "TX", "street": "100 E MAIN ST", "postcode": "75446"}}},
{"geometry": {"type": "Point", "coordinates": [-95.9099425175, 33.5828796122]}, "type": "Feature", "properties": {"collection_times": [{"days": "Mon-Fri", "time": "4:00pm"}, {"days": "Sat", "time": "7:30am"}, {"days": "Sun", "time": "Closed"}], "id": "7544605836", "name": "USPS COLLECTION BOX - PO LOBBY", "address": {"city": "HONEY GROVE", "state": "TX", "street": "100 E MAIN ST", "postcode": "75446"}}},
{"geometry": {"type": "Point", "coordinates": [-96.1699985706, 33.6811685358]}, "type": "Feature", "properties": {"collection_times": [{"days": "Mon-Fri", "time": "3:30pm"}, {"days": "Sat", "time": "9:30am"}, {"days": "Sun", "time": "Closed"}], "id": "7544706247", "name": "USPS COLLECTION BOX - BLUE BOX", "address": {"city": "IVANHOE", "state": "TX", "street": "3876 N FM 273", "postcode": "75447"}}},
{"geometry": {"type": "Point", "coordinates": [-96.1699985706, 33.6811685358]}, "type": "Feature", "properties": {"collection_times": [{"days": "Mon-Fri", "time": "3:30pm"}, {"days": "Sat", "time": "9:00am"}, {"days": "Sun", "time": "Closed"}], "id": "7544706249", "name": "USPS COLLECTION BOX - PO LOBBY", "address": {"city": "IVANHOE", "state": "TX", "street": "3876 N FM 273", "postcode": "75447"}}},
{"geometry": {"type": "Point", "coordinates": [-96.1699985706, 33.6811685358]}, "type": "Feature", "properties": {"collection_times": [{"days": "Mon-Fri", "time": "3:30pm"}, {"days": "Sat", "time": "9:00am"}, {"days": "Sun", "time": "Closed"}], "id": "7544706250", "name": "USPS COLLECTION BOX - PO LOBBY", "address": {"city": "IVANHOE", "state": "TX", "street": "3876 N FM 273", "postcode": "75447"}}},
{"geometry": {"type": "Point", "coordinates": [-95.7789431245, 33.3097753336]}, "type": "Feature", "properties": {"collection_times": [{"days": "Mon-Sat", "time": "4:45pm"}, {"days": "Sun", "time": "Closed"}], "id": "7544803157", "name": "USPS COLLECTION BOX - BLUE BOX", "address": {"city": "KLONDIKE", "state": "TX", "street": "5548 FARM ROAD 1528", "postcode": "75448"}}},
{"geometry": {"type": "Point", "coordinates": [-95.7789431245, 33.3097753336]}, "type": "Feature", "properties": {"collection_times": [{"days": "Mon-Fri", "time": "11:30am"}, {"days": "Sat", "time": "8:30am"}, {"days": "Sun", "time": "Closed"}], "id": "7544803158", "name": "USPS COLLECTION BOX - PO LOBBY", "address": {"city": "KLONDIKE", "state": "TX", "street": "5548 FARM ROAD 1528", "postcode": "75448"}}},
{"geometry": {"type": "Point", "coordinates": [-95.9425914829, 33.4259853956]}, "type": "Feature", "properties": {"collection_times": [{"days": "Mon-Sat", "time": "5:00pm"}, {"days": "Sun", "time": "Closed"}], "id": "7544903160", "name": "USPS COLLECTION BOX - BLUE BOX", "address": {"city": "LADONIA", "state": "TX", "street": "202 PARIS ST", "postcode": "75449"}}},
{"geometry": {"type": "Point", "coordinates": [-95.9425914829, 33.4259853956]}, "type": "Feature", "properties": {"collection_times": [{"days": "Mon-Fri", "time": "12:00pm"}, {"days": "Sat", "time": "8:30am"}, {"days": "Sun", "time": "Closed"}], "id": "7544905838", "name": "USPS COLLECTION BOX - PO LOBBY", "address": {"city": "LADONIA", "state": "TX", "street": "202 PARIS ST", "postcode": "75449"}}},
{"geometry": {"type": "Point", "coordinates": [-95.6138891088, 33.467078967]}, "type": "Feature", "properties": {"collection_times": [{"days": "Mon-Sat", "time": "4:00pm"}, {"days": "Sun", "time": "Closed"}], "id": "7545003161", "name": "USPS COLLECTION BOX - BLUE BOX", "address": {"city": "LAKE CREEK", "state": "TX", "street": "2128 COUNTY ROAD 4620", "postcode": "75450"}}},
{"geometry": {"type": "Point", "coordinates": [-95.6138891088, 33.467078967]}, "type": "Feature", "properties": {"collection_times": [{"days": "Mon-Fri", "time": "9:30am"}, {"days": "Sat", "time": "9:00am"}, {"days": "Sun", "time": "Closed"}], "id": "7545005839", "name": "USPS COLLECTION BOX - PO LOBBY", "address": {"city": "LAKE CREEK", "state": "TX", "street": "2128 COUNTY ROAD 4620", "postcode": "75450"}}},
{"geometry": {"type": "Point", "coordinates": [-95.1094905384, 32.9627997425]}, "type": "Feature", "properties": {"collection_times": [{"days": "Mon-Sat", "time": "12:00pm"}, {"days": "Sun", "time": "Closed"}], "id": "7545103162", "name": "USPS COLLECTION BOX - BLUE BOX", "address": {"city": "LEESBURG", "state": "TX", "street": "11095 STATE HIGHWAY 11 W", "postcode": "75451"}}},
{"geometry": {"type": "Point", "coordinates": [-95.1094905384, 32.9627997425]}, "type": "Feature", "properties": {"collection_times": [{"days": "Mon-Sat", "time": "4:00pm"}, {"days": "Sun", "time": "Closed"}], "id": "7545103163", "name": "USPS COLLECTION BOX - BLUE BOX", "address": {"city": "LEESBURG", "state": "TX", "street": "7666 STATE HIGHWAY 11 W", "postcode": "75451"}}},
{"geometry": {"type": "Point", "coordinates": [-95.1094905384, 32.9627997425]}, "type": "Feature", "properties": {"collection_times": [{"days": "Mon-Fri", "time": "2:00pm"}, {"days": "Sat", "time": "11:30am"}, {"days": "Sun", "time": "Closed"}], "id": "7545106190", "name": "USPS COLLECTION BOX - PO LOBBY", "address": {"city": "LEESBURG", "state": "TX", "street": "7666 STATE HIGHWAY 11 W", "postcode": "75451"}}},
{"geometry": {"type": "Point", "coordinates": [-96.24771136, 33.3806828366]}, "type": "Feature", "properties": {"collection_times": [{"days": "Mon-Sat", "time": "5:00pm"}, {"days": "Sun", "time": "Closed"}], "id": "7545203164", "name": "USPS COLLECTION BOX - BLUE BOX", "address": {"city": "LEONARD", "state": "TX", "street": "113 W COLLIN ST", "postcode": "75452"}}},
{"geometry": {"type": "Point", "coordinates": [-96.24771136, 33.3806828366]}, "type": "Feature", "properties": {"collection_times": [{"days": "Mon-Fri", "time": "4:00pm"}, {"days": "Sat", "time": "10:30am"}, {"days": "Sun", "time": "Closed"}], "id": "7545205841", "name": "USPS COLLECTION BOX - PO LOBBY", "address": {"city": "LEONARD", "state": "TX", "street": "113 W COLLIN ST", "postcode": "75452"}}},
{"geometry": {"type": "Point", "coordinates": [-96.24771136, 33.3806828366]}, "type": "Feature", "properties": {"collection_times": [{"days": "Mon-Fri", "time": "4:00pm"}, {"days": "Sat", "time": "10:30am"}, {"days": "Sun", "time": "Closed"}], "id": "7545205843", "name": "USPS COLLECTION BOX - PO LOBBY", "address": {"city": "LEONARD", "state": "TX", "street": "113 W COLLIN ST", "postcode": "75452"}}},
{"geometry": {"type": "Point", "coordinates": [-95.9410409566, 32.9991961895]}, "type": "Feature", "properties": {"collection_times": [{"days": "Mon-Sat", "time": "5:00pm"}, {"days": "Sun", "time": "Closed"}], "id": "7545303166", "name": "USPS COLLECTION BOX - BLUE BOX", "address": {"city": "LONE OAK", "state": "TX", "street": "401 US HIGHWAY 69 N", "postcode": "75453"}}},
{"geometry": {"type": "Point", "coordinates": [-95.9410409566, 32.9991961895]}, "type": "Feature", "properties": {"collection_times": [{"days": "Mon-Fri", "time": "4:00pm"}, {"days": "Sat", "time": "8:00am"}, {"days": "Sun", "time": "Closed"}], "id": "7545307237", "name": "USPS COLLECTION BOX - PO LOBBY", "address": {"city": "LONE OAK", "state": "TX", "street": "401 US HIGHWAY 69 N", "postcode": "75453"}}},
{"geometry": {"type": "Point", "coordinates": [-96.5586443653, 33.2862755494]}, "type": "Feature", "properties": {"collection_times": [{"days": "Mon-Fri", "time": "4:30pm"}, {"days": "Sat", "time": "9:00am"}, {"days": "Sun", "time": "Closed"}], "id": "7545400502", "name": "USPS COLLECTION BOX - PO LOBBY", "address": {"city": "MELISSA", "state": "TX", "street": "1919 E MELISSA RD", "postcode": "75454"}}},
{"geometry": {"type": "Point", "coordinates": [-96.5586443653, 33.2862755494]}, "type": "Feature", "properties": {"collection_times": [{"days": "Mon-Sat", "time": "4:30pm"}, {"days": "Sun", "time": "Closed"}], "id": "7545400503", "name": "USPS COLLECTION BOX - BLUE BOX", "address": {"city": "MELISSA", "state": "TX", "street": "1919 E MELISSA RD", "postcode": "75454"}}},
{"geometry": {"type": "Point", "coordinates": [-96.5586443653, 33.2862755494]}, "type": "Feature", "properties": {"collection_times": [{"days": "Mon-Sat", "time": "10:00am"}, {"days": "Sun", "time": "Closed"}], "id": "7545407242", "name": "USPS COLLECTION BOX - BLUE BOX", "address": {"city": "MELISSA", "state": "TX", "street": "3411 BARKER AVE", "postcode": "75454"}}},
{"geometry": {"type": "Point", "coordinates": [-94.9686360248, 33.1567579225]}, "type": "Feature", "properties": {"collection_times": [{"days": "Mon-Fri", "time": "10:00am"}, {"days": "Sat-Sun", "time": "Closed"}], "id": "7545503168", "name": "USPS COLLECTION BOX - BLUE BOX", "address": {"city": "MOUNT PLEASANT", "state": "TX", "street": "107 W. SECOND", "postcode": "75455"}}},
{"geometry": {"type": "Point", "coordinates": [-94.9688421883, 33.1316378948]}, "type": "Feature", "properties": {"collection_times": [{"days": "Mon-Fri", "time": "10:30am"}, {"days": "Sat-Sun", "time": "Closed"}], "id": "7545503169", "name": "USPS COLLECTION BOX - BLUE BOX", "address": {"city": "MOUNT PLEASANT", "state": "TX", "street": "2311 S JEFFERSON AVE", "postcode": "75455"}}},
{"geometry": {"type": "Point", "coordinates": [-94.9922213878, 33.1614330301]}, "type": "Feature", "properties": {"collection_times": [{"days": "Mon-Sat", "time": "1:00pm"}, {"days": "Sun", "time": "Closed"}], "id": "7545503170", "name": "USPS COLLECTION BOX - BLUE BOX", "address": {"city": "MOUNT PLEASANT", "state": "TX", "street": "1809 W FERGUSON RD", "postcode": "75455"}}},
{"geometry": {"type": "Point", "coordinates": [-94.9705169832, 33.1747769787]}, "type": "Feature", "properties": {"collection_times": [{"days": "Mon-Sat", "time": "2:00pm"}, {"days": "Sun", "time": "Closed"}], "id": "7545503172", "name": "USPS COLLECTION BOX - BLUE BOX", "address": {"city": "MOUNT PLEASANT", "state": "TX", "street": "1901 N JEFFERSON AVE", "postcode": "75455"}}},
{"geometry": {"type": "Point", "coordinates": [-94.9695681182, 33.1558105035]}, "type": "Feature", "properties": {"collection_times": [{"days": "Mon-Sat", "time": "4:30pm"}, {"days": "Sun", "time": "Closed"}], "id": "7545503174", "name": "USPS COLLECTION BOX - PO LOBBY", "address": {"city": "MOUNT PLEASANT", "state": "TX", "street": "201 W ALABAMA ST", "postcode": "75455"}}},
{"geometry": {"type": "Point", "coordinates": [-94.9681158084, 33.1359623043]}, "type": "Feature", "properties": {"collection_times": [{"days": "Mon-Sat", "time": "10:30am"}, {"days": "Sun", "time": "Closed"}], "id": "7545503175", "name": "USPS COLLECTION BOX - BLUE BOX", "address": {"city": "MOUNT PLEASANT", "state": "TX", "street": "1900 S JEFFERSON AVE", "postcode": "75455"}}},
{"geometry": {"type": "Point", "coordinates": [-94.9695681182, 33.1558105035]}, "type": "Feature", "properties": {"collection_times": [{"days": "Mon-Sat", "time": "4:30pm"}, {"days": "Sun", "time": "Closed"}], "id": "7545505211", "name": "USPS COLLECTION BOX - BLUE BOX", "address": {"city": "MOUNT PLEASANT", "state": "TX", "street": "201 W ALABAMA ST", "postcode": "75455"}}},
{"geometry": {"type": "Point", "coordinates": [-94.9695681182, 33.1558105035]}, "type": "Feature", "properties": {"collection_times": [{"days": "Mon-Sat", "time": "4:30pm"}, {"days": "Sun", "time": "Closed"}], "id": "7545505212", "name": "USPS COLLECTION BOX - BLUE BOX", "address": {"city": "MOUNT PLEASANT", "state": "TX", "street": "201 W ALABAMA ST", "postcode": "75455"}}},
{"geometry": {"type": "Point", "coordinates": [-94.9647193402, 33.1502817738]}, "type": "Feature", "properties": {"collection_times": [{"days": "Mon-Sat", "time": "10:30am"}, {"days": "Sun", "time": "Closed"}], "id": "7545506224", "name": "USPS COLLECTION BOX - BLUE BOX", "address": {"city": "MOUNT PLEASANT", "state": "TX", "street": "601 STARK ST", "postcode": "75455"}}},
{"geometry": {"type": "Point", "coordinates": [-94.9695681182, 33.1558105035]}, "type": "Feature", "properties": {"collection_times": [{"days": "Mon-Sat", "time": "4:30pm"}, {"days": "Sun", "time": "Closed"}], "id": "7545506585", "name": "USPS COLLECTION BOX - PO LOBBY", "address": {"city": "MOUNT PLEASANT", "state": "TX", "street": "201 W ALABAMA ST", "postcode": "75455"}}},
{"geometry": {"type": "Point", "coordinates": [-95.2216885396, 33.1882194657]}, "type": "Feature", "properties": {"collection_times": [{"days": "Mon-Sat", "time": "4:45pm"}, {"days": "Sun", "time": "Closed"}], "id": "7545703176", "name": "USPS COLLECTION BOX - BLUE BOX", "address": {"city": "MOUNT VERNON", "state": "TX", "street": "207 KAUFMAN ST S", "postcode": "75457"}}},
{"geometry": {"type": "Point", "coordinates": [-95.218146493, 33.2151737843]}, "type": "Feature", "properties": {"collection_times": [{"days": "Mon-Sat", "time": "1:30pm"}, {"days": "Sun", "time": "Closed"}], "id": "7545703177", "name": "USPS COLLECTION BOX - BLUE BOX", "address": {"city": "MOUNT VERNON", "state": "TX", "street": "539 INTERSTATE 30 W", "postcode": "75457"}}},
{"geometry": {"type": "Point", "coordinates": [-95.2216885396, 33.1882194657]}, "type": "Feature", "properties": {"collection_times": [{"days": "Mon-Fri", "time": "4:30pm"}, {"days": "Sat-Sun", "time": "Closed"}], "id": "7545705843", "name": "USPS COLLECTION BOX - PO LOBBY", "address": {"city": "MOUNT VERNON", "state": "TX", "street": "207 KAUFMAN ST S", "postcode": "75457"}}},
{"geometry": {"type": "Point", "coordinates": [-95.2332424365, 33.182438005]}, "type": "Feature", "properties": {"collection_times": [{"days": "Mon-Sat", "time": "10:00am"}, {"days": "Sun", "time": "Closed"}], "id": "7545706987", "name": "USPS COLLECTION BOX - BLUE BOX", "address": {"city": "MOUNT VERNON", "state": "TX", "street": "306 TEXAS HIGHWAY 37", "postcode": "75457"}}},
{"geometry": {"type": "Point", "coordinates": [-96.28833855, 33.21741743]}, "type": "Feature", "properties": {"collection_times": [{"days": "Mon-Fri", "time": "11:30am"}, {"days": "Sat", "time": "9:30am"}, {"days": "Sun", "time": "Closed"}], "id": "7545800504", "name": "USPS COLLECTION BOX - PO LOBBY", "address": {"city": "MERIT", "state": "TX", "street": "2584 FM 36 N", "postcode": "75458"}}},
{"geometry": {"type": "Point", "coordinates": [-96.28833855, 33.21741743]}, "type": "Feature", "properties": {"collection_times": [{"days": "Mon-Sat", "time": "3:00pm"}, {"days": "Sun", "time": "Closed"}], "id": "7545800506", "name": "USPS COLLECTION BOX - BLUE BOX", "address": {"city": "MERIT", "state": "TX", "street": "2584 FM 36 N", "postcode": "75458"}}},
{"geometry": {"type": "Point", "coordinates": [-96.612909539, 33.5061027994]}, "type": "Feature", "properties": {"collection_times": [{"days": "Mon-Sat", "time": "3:45pm"}, {"days": "Sun", "time": "Closed"}], "id": "7545900287", "name": "USPS COLLECTION BOX - BLUE BOX", "address": {"city": "HOWE", "state": "TX", "street": "101 W HANING ST", "postcode": "75459"}}},
{"geometry": {"type": "Point", "coordinates": [-96.612909539, 33.5061027994]}, "type": "Feature", "properties": {"collection_times": [{"days": "Mon-Fri", "time": "3:45pm"}, {"days": "Sat-Sun", "time": "Closed"}], "id": "7545905462", "name": "USPS COLLECTION BOX - PO LOBBY", "address": {"city": "HOWE", "state": "TX", "street": "101 W HANING ST", "postcode": "75459"}}},
{"geometry": {"type": "Point", "coordinates": [-95.556380653, 33.6605437708]}, "type": "Feature", "properties": {"collection_times": [{"days": "Mon-Sat", "time": "9:30am"}, {"days": "Sun", "time": "Closed"}], "id": "7546003191", "name": "USPS COLLECTION BOX - BLUE BOX", "address": {"city": "PARIS", "state": "TX", "street": "112 S MAIN ST", "postcode": "75460"}}},
{"geometry": {"type": "Point", "coordinates": [-95.542266781, 33.6588402804]}, "type": "Feature", "properties": {"collection_times": [{"days": "Mon-Fri", "time": "3:15pm"}, {"days": "Sat", "time": "4:15pm"}, {"days": "Sun", "time": "Closed"}], "id": "7546003192", "name": "USPS COLLECTION BOX - BLUE BOX", "address": {"city": "PARIS", "state": "TX", "street": "1301 CLARKSVILLE ST", "postcode": "75460"}}},
{"geometry": {"type": "Point", "coordinates": [-95.5563583584, 33.6622770263]}, "type": "Feature", "properties": {"collection_times": [{"days": "Mon-Fri", "time": "3:15pm"}, {"days": "Sat", "time": "3:00pm"}, {"days": "Sun", "time": "Closed"}], "id": "7546003196", "name": "USPS COLLECTION BOX - BLUE BOX", "address": {"city": "PARIS", "state": "TX", "street": "119 N MAIN ST", "postcode": "75460"}}},
{"geometry": {"type": "Point", "coordinates": [-95.5560433925, 33.674384131]}, "type": "Feature", "properties": {"collection_times": [{"days": "Mon-Sat", "time": "9:30am"}, {"days": "Sun", "time": "Closed"}], "id": "7546003198", "name": "USPS COLLECTION BOX - BLUE BOX", "address": {"city": "PARIS", "state": "TX", "street": "1365 N MAIN ST", "postcode": "75460"}}},
{"geometry": {"type": "Point", "coordinates": [-95.5515210247, 33.6605264438]}, "type": "Feature", "properties": {"collection_times": [{"days": "Mon-Sat", "time": "4:45pm"}, {"days": "Sun", "time": "Closed"}], "id": "7546003204", "name": "USPS COLLECTION BOX - BLUE BOX", "address": {"city": "PARIS", "state": "TX", "street": "500 CLARKSVILLE ST", "postcode": "75460"}}},
{"geometry": {"type": "Point", "coordinates": [-95.5515210247, 33.6605264438]}, "type": "Feature", "properties": {"collection_times": [{"days": "Mon-Sat", "time": "4:45pm"}, {"days": "Sun", "time": "Closed"}], "id": "7546003205", "name": "USPS COLLECTION BOX - BLUE BOX", "address": {"city": "PARIS", "state": "TX", "street": "500 CLARKSVILLE ST", "postcode": "75460"}}},
{"geometry": {"type": "Point", "coordinates": [-95.5770649653, 33.6607443258]}, "type": "Feature", "properties": {"collection_times": [{"days": "Mon-Fri", "time": "3:30pm"}, {"days": "Sat", "time": "3:15pm"}, {"days": "Sun", "time": "Closed"}], "id": "7546003206", "name": "USPS COLLECTION BOX - BLUE BOX", "address": {"city": "PARIS", "state": "TX", "street": "1929 BONHAM ST", "postcode": "75460"}}},
{"geometry": {"type": "Point", "coordinates": [-95.5543036996, 33.6899157386]}, "type": "Feature", "properties": {"collection_times": [{"days": "Mon-Sat", "time": "11:00am"}, {"days": "Sun", "time": "Closed"}], "id": "7546003209", "name": "USPS COLLECTION BOX - BLUE BOX", "address": {"city": "PARIS", "state": "TX", "street": "2805 N MAIN ST", "postcode": "75460"}}},
{"geometry": {"type": "Point", "coordinates": [-95.5885596654, 33.660882503]}, "type": "Feature", "properties": {"collection_times": [{"days": "Mon-Sat", "time": "3:30pm"}, {"days": "Sun", "time": "Closed"}], "id": "7546003210", "name": "USPS COLLECTION BOX - BLUE BOX", "address": {"city": "PARIS", "state": "TX", "street": "2880 BONHAM ST", "postcode": "75460"}}},
{"geometry": {"type": "Point", "coordinates": [-95.5210822531, 33.6495718707]}, "type": "Feature", "properties": {"collection_times": [{"days": "Mon-Fri", "time": "3:15pm"}, {"days": "Sat", "time": "4:00pm"}, {"days": "Sun", "time": "Closed"}], "id": "7546003212", "name": "USPS COLLECTION BOX - BLUE BOX", "address": {"city": "PARIS", "state": "TX", "street": "3060 CLARKSVILLE ST", "postcode": "75460"}}},
{"geometry": {"type": "Point", "coordinates": [-95.51121, 33.661232]}, "type": "Feature", "properties": {"collection_times": [{"days": "Mon-Fri", "time": "3:15pm"}, {"days": "Sat", "time": "3:45pm"}, {"days": "Sun", "time": "Closed"}], "id": "7546003218", "name": "USPS COLLECTION BOX - BLUE BOX", "address": {"city": "PARIS", "state": "TX", "street": "3550 LAMAR AVE", "postcode": "75460"}}},
{"geometry": {"type": "Point", "coordinates": [-95.5558096988, 33.6628512344]}, "type": "Feature", "properties": {"collection_times": [{"days": "Mon-Sat", "time": "4:30pm"}, {"days": "Sun", "time": "Closed"}], "id": "7546003223", "name": "USPS COLLECTION BOX - BLUE BOX", "address": {"city": "PARIS", "state": "TX", "street": "6365 LAMAR RD", "postcode": "75460"}}},
{"geometry": {"type": "Point", "coordinates": [-95.562387713, 33.661480348]}, "type": "Feature", "properties": {"collection_times": [{"days": "Mon-Fri", "time": "3:30pm"}, {"days": "Sat", "time": "3:15pm"}, {"days": "Sun", "time": "Closed"}], "id": "7546003224", "name": "USPS COLLECTION BOX - BLUE BOX", "address": {"city": "PARIS", "state": "TX", "street": "650 BONHAM ST", "postcode": "75460"}}},
{"geometry": {"type": "Point", "coordinates": [-95.5492719927, 33.6613991821]}, "type": "Feature", "properties": {"collection_times": [{"days": "Mon-Sat", "time": "11:15am"}, {"days": "Sun", "time": "Closed"}], "id": "7546003228", "name": "USPS COLLECTION BOX - BLUE BOX", "address": {"city": "PARIS", "state": "TX", "street": "707 LAMAR AVE", "postcode": "75460"}}},
{"geometry": {"type": "Point", "coordinates": [-95.54941015, 33.6873533043]}, "type": "Feature", "properties": {"collection_times": [{"days": "Mon-Sat", "time": "3:15pm"}, {"days": "Sun", "time": "Closed"}], "id": "7546003230", "name": "USPS COLLECTION BOX - BLUE BOX", "address": {"city": "PARIS", "state": "TX", "street": "865 DESHONG DR", "postcode": "75460"}}},
{"geometry": {"type": "Point", "coordinates": [-95.5061290385, 33.6619482669]}, "type": "Feature", "properties": {"collection_times": [{"days": "Mon-Fri", "time": "3:15pm"}, {"days": "Sat", "time": "3:45pm"}, {"days": "Sun", "time": "Closed"}], "id": "7546006778", "name": "USPS COLLECTION BOX - BLUE BOX", "address": {"city": "PARIS", "state": "TX", "street": "3855 LAMAR AVE", "postcode": "75460"}}},
{"geometry": {"type": "Point", "coordinates": [-95.5258913601, 33.6600370575]}, "type": "Feature", "properties": {"collection_times": [{"days": "Mon-Fri", "time": "3:15pm"}, {"days": "Sat", "time": "3:45pm"}, {"days": "Sun", "time": "Closed"}], "id": "7546006781", "name": "USPS COLLECTION BOX - BLUE BOX", "address": {"city": "PARIS", "state": "TX", "street": "110 S COLLEGIATE DR", "postcode": "75460"}}},
{"geometry": {"type": "Point", "coordinates": [-95.5515210247, 33.6605264438]}, "type": "Feature", "properties": {"collection_times": [{"days": "Mon-Fri", "time": "4:00pm"}, {"days": "Sat", "time": "4:45pm"}, {"days": "Sun", "time": "Closed"}], "id": "7546006785", "name": "USPS COLLECTION BOX - PO LOBBY", "address": {"city": "PARIS", "state": "TX", "street": "500 CLARKSVILLE ST", "postcode": "75460"}}},
{"geometry": {"type": "Point", "coordinates": [-95.5515210247, 33.6605264438]}, "type": "Feature", "properties": {"collection_times": [{"days": "Mon-Fri", "time": "4:00pm"}, {"days": "Sat", "time": "4:45pm"}, {"days": "Sun", "time": "Closed"}], "id": "7546006788", "name": "USPS COLLECTION BOX - PO LOBBY", "address": {"city": "PARIS", "state": "TX", "street": "500 CLARKSVILLE ST", "postcode": "75460"}}},
{"geometry": {"type": "Point", "coordinates": [-95.3929058911, 33.5617174567]}, "type": "Feature", "properties": {"collection_times": [{"days": "Mon-Sat", "time": "3:15pm"}, {"days": "Sun", "time": "Closed"}], "id": "7546803234", "name": "USPS COLLECTION BOX - BLUE BOX", "address": {"city": "PATTONVILLE", "state": "TX", "street": "6863 US HIGHWAY 271 S", "postcode": "75468"}}},
{"geometry": {"type": "Point", "coordinates": [-95.3929058911, 33.5617174567]}, "type": "Feature", "properties": {"collection_times": [{"days": "Mon-Fri", "time": "11:30am"}, {"days": "Sat", "time": "8:00am"}, {"days": "Sun", "time": "Closed"}], "id": "7546805874", "name": "USPS COLLECTION BOX - PO LOBBY", "address": {"city": "PATTONVILLE", "state": "TX", "street": "6863 US HIGHWAY 271 S", "postcode": "75468"}}},
{"geometry": {"type": "Point", "coordinates": [-95.803247073, 33.4039307563]}, "type": "Feature", "properties": {"collection_times": [{"days": "Mon-Sat", "time": "4:45pm"}, {"days": "Sun", "time": "Closed"}], "id": "7546903235", "name": "USPS COLLECTION BOX - BLUE BOX", "address": {"city": "PECAN GAP", "state": "TX", "street": "112 3RD ST", "postcode": "75469"}}},
{"geometry": {"type": "Point", "coordinates": [-95.803247073, 33.4039307563]}, "type": "Feature", "properties": {"collection_times": [{"days": "Mon-Fri", "time": "12:00pm"}, {"days": "Sat", "time": "7:30am"}, {"days": "Sun", "time": "Closed"}], "id": "7546905844", "name": "USPS COLLECTION BOX - PO LOBBY", "address": {"city": "PECAN GAP", "state": "TX", "street": "112 3RD ST", "postcode": "75469"}}},
{"geometry": {"type": "Point", "coordinates": [-95.8197565948, 33.6082296956]}, "type": "Feature", "properties": {"collection_times": [{"days": "Mon-Fri", "time": "2:30pm"}, {"days": "Sat", "time": "8:30am"}, {"days": "Sun", "time": "Closed"}], "id": "7547003236", "name": "USPS COLLECTION BOX - PO LOBBY", "address": {"city": "PETTY", "state": "TX", "street": "5353 FARM ROAD 1509", "postcode": "75470"}}},
{"geometry": {"type": "Point", "coordinates": [-95.8197565948, 33.6082296956]}, "type": "Feature", "properties": {"collection_times": [{"days": "Mon-Sat", "time": "3:45pm"}, {"days": "Sun", "time": "Closed"}], "id": "7547005291", "name": "USPS COLLECTION BOX - BLUE BOX", "address": {"city": "PETTY", "state": "TX", "street": "5353 FARM ROAD 1509", "postcode": "75470"}}},
{"geometry": {"type": "Point", "coordinates": [-95.389287363, 33.0322518962]}, "type": "Feature", "properties": {"collection_times": [{"days": "Mon-Sat", "time": "4:45pm"}, {"days": "Sun", "time": "Closed"}], "id": "7547103237", "name": "USPS COLLECTION BOX - BLUE BOX", "address": {"city": "PICKTON", "state": "TX", "street": "33 COUNTY ROAD 2419 N", "postcode": "75471"}}},
{"geometry": {"type": "Point", "coordinates": [-95.3892873629, 33.0322432519]}, "type": "Feature", "properties": {"collection_times": [{"days": "Mon-Fri", "time": "11:30am"}, {"days": "Sat", "time": "8:30am"}, {"days": "Sun", "time": "Closed"}], "id": "7547105929", "name": "USPS COLLECTION BOX - PO LOBBY", "address": {"city": "PICKTON", "state": "TX", "street": "33 COUNTY ROAD 2419 N", "postcode": "75471"}}},
{"geometry": {"type": "Point", "coordinates": [-95.8830099436, 32.8856084928]}, "type": "Feature", "properties": {"collection_times": [{"days": "Mon-Sat", "time": "4:45pm"}, {"days": "Sun", "time": "Closed"}], "id": "7547203238", "name": "USPS COLLECTION BOX - BLUE BOX", "address": {"city": "POINT", "state": "TX", "street": "281 AVENUE C", "postcode": "75472"}}},
{"geometry": {"type": "Point", "coordinates": [-95.8830099436, 32.8856084928]}, "type": "Feature", "properties": {"collection_times": [{"days": "Mon-Fri", "time": "4:00pm"}, {"days": "Sat-Sun", "time": "Closed"}], "id": "7547205822", "name": "USPS COLLECTION BOX - PO LOBBY", "address": {"city": "POINT", "state": "TX", "street": "281 AVENUE C", "postcode": "75472"}}},
{"geometry": {"type": "Point", "coordinates": [-95.8830099436, 32.8856084928]}, "type": "Feature", "properties": {"collection_times": [{"days": "Mon-Fri", "time": "12:30pm"}, {"days": "Sat-Sun", "time": "Closed"}], "id": "7547206759", "name": "USPS COLLECTION BOX - BLUE BOX", "address": {"city": "POINT", "state": "TX", "street": "9269 STATE HIGHWAY 276", "postcode": "75472"}}},
{"geometry": {"type": "Point", "coordinates": [-95.8830099436, 32.8856084928]}, "type": "Feature", "properties": {"collection_times": [{"days": "Mon-Sat", "time": "4:45pm"}, {"days": "Sun", "time": "Closed"}], "id": "7547206760", "name": "USPS COLLECTION BOX - BLUE BOX", "address": {"city": "POINT", "state": "TX", "street": "281 AVENUE C", "postcode": "75472"}}},
{"geometry": {"type": "Point", "coordinates": [-95.8830099436, 32.8856084928]}, "type": "Feature", "properties": {"collection_times": [{"days": "Mon-Fri", "time": "4:00pm"}, {"days": "Sat-Sun", "time": "Closed"}], "id": "7547206761", "name": "USPS COLLECTION BOX - PO LOBBY", "address": {"city": "POINT", "state": "TX", "street": "281 AVENUE C", "postcode": "75472"}}},
{"geometry": {"type": "Point", "coordinates": [-95.8830099436, 32.8856084928]}, "type": "Feature", "properties": {"collection_times": [{"days": "Mon-Fri", "time": "10:00am"}, {"days": "Sat-Sun", "time": "Closed"}], "id": "7547206762", "name": "USPS COLLECTION BOX - BLUE BOX", "address": {"city": "POINT", "state": "TX", "street": "482 STATE HIGHWAY 276", "postcode": "75472"}}},
{"geometry": {"type": "Point", "coordinates": [-95.5116494193, 33.8050396771]}, "type": "Feature", "properties": {"collection_times": [{"days": "Mon-Sat", "time": "4:00pm"}, {"days": "Sun", "time": "Closed"}], "id": "7547303239", "name": "USPS COLLECTION BOX - BLUE BOX", "address": {"city": "POWDERLY", "state": "TX", "street": "8500 HIGHWAY 271 N", "postcode": "75473"}}},
{"geometry": {"type": "Point", "coordinates": [-95.5116494193, 33.8050396771]}, "type": "Feature", "properties": {"collection_times": [{"days": "Mon-Fri", "time": "2:30pm"}, {"days": "Sat", "time": "8:15am"}, {"days": "Sun", "time": "Closed"}], "id": "7547305845", "name": "USPS COLLECTION BOX - PO LOBBY", "address": {"city": "POWDERLY", "state": "TX", "street": "8500 HIGHWAY 271 N", "postcode": "75473"}}},
{"geometry": {"type": "Point", "coordinates": [-96.1052889172, 32.918273761]}, "type": "Feature", "properties": {"collection_times": [{"days": "Mon-Sat", "time": "12:00pm"}, {"days": "Sun", "time": "Closed"}], "id": "7547403240", "name": "USPS COLLECTION BOX - BLUE BOX", "address": {"city": "QUINLAN", "state": "TX", "street": "9005 STATE HIGHWAY 34 S", "postcode": "75474"}}},
{"geometry": {"type": "Point", "coordinates": [-96.1329558352, 32.9104781785]}, "type": "Feature", "properties": {"collection_times": [{"days": "Mon-Sat", "time": "12:00pm"}, {"days": "Sun", "time": "Closed"}], "id": "7547403241", "name": "USPS COLLECTION BOX - BLUE BOX", "address": {"city": "QUINLAN", "state": "TX", "street": "228 W STATE HIGHWAY 276", "postcode": "75474"}}},
{"geometry": {"type": "Point", "coordinates": [-96.125734548, 32.9190977864]}, "type": "Feature", "properties": {"collection_times": [{"days": "Mon-Sat", "time": "5:00pm"}, {"days": "Sun", "time": "Closed"}], "id": "7547403242", "name": "USPS COLLECTION BOX - BLUE BOX", "address": {"city": "QUINLAN", "state": "TX", "street": "8570 STATE HIGHWAY 34 S", "postcode": "75474"}}},
{"geometry": {"type": "Point", "coordinates": [-96.125734548, 32.9190977864]}, "type": "Feature", "properties": {"collection_times": [{"days": "Mon-Sat", "time": "5:00pm"}, {"days": "Sun", "time": "Closed"}], "id": "7547405291", "name": "USPS COLLECTION BOX - BLUE BOX", "address": {"city": "QUINLAN", "state": "TX", "street": "8570 STATE HIGHWAY 34 S", "postcode": "75474"}}},
{"geometry": {"type": "Point", "coordinates": [-96.125734548, 32.9190977864]}, "type": "Feature", "properties": {"collection_times": [{"days": "Mon-Fri", "time": "4:30pm"}, {"days": "Sat", "time": "11:00am"}, {"days": "Sun", "time": "Closed"}], "id": "7547405292", "name": "USPS COLLECTION BOX - PO LOBBY", "address": {"city": "QUINLAN", "state": "TX", "street": "8570 STATE HIGHWAY 34 S", "postcode": "75474"}}},
{"geometry": {"type": "Point", "coordinates": [-96.125734548, 32.9190977864]}, "type": "Feature", "properties": {"collection_times": [{"days": "Mon-Fri", "time": "4:30pm"}, {"days": "Sat", "time": "11:00am"}, {"days": "Sun", "time": "Closed"}], "id": "7547405293", "name": "USPS COLLECTION BOX - PO LOBBY", "address": {"city": "QUINLAN", "state": "TX", "street": "8570 STATE HIGHWAY 34 S", "postcode": "75474"}}},
{"geometry": {"type": "Point", "coordinates": [-96.2542283893, 33.4841880601]}, "type": "Feature", "properties": {"collection_times": [{"days": "Mon-Fri", "time": "4:00pm"}, {"days": "Sat", "time": "4:30pm"}, {"days": "Sun", "time": "Closed"}], "id": "7547503243", "name": "USPS COLLECTION BOX - BLUE BOX", "address": {"city": "RANDOLPH", "state": "TX", "street": "100 NW STATE HIGHWAY 11", "postcode": "75475"}}},
{"geometry": {"type": "Point", "coordinates": [-96.2542283893, 33.4841880601]}, "type": "Feature", "properties": {"collection_times": [{"days": "Mon-Fri", "time": "12:30pm"}, {"days": "Sat", "time": "9:30am"}, {"days": "Sun", "time": "Closed"}], "id": "7547505823", "name": "USPS COLLECTION BOX - PO LOBBY", "address": {"city": "RANDOLPH", "state": "TX", "street": "100 NW STATE HIGHWAY 11", "postcode": "75475"}}},
{"geometry": {"type": "Point", "coordinates": [-96.2423077489, 33.6730304914]}, "type": "Feature", "properties": {"collection_times": [{"days": "Mon-Fri", "time": "11:00am"}, {"days": "Sat", "time": "9:00am"}, {"days": "Sun", "time": "Closed"}], "id": "7547603245", "name": "USPS COLLECTION BOX - PO LOBBY", "address": {"city": "RAVENNA", "state": "TX", "street": "105 N MAIN ST", "postcode": "75476"}}},
{"geometry": {"type": "Point", "coordinates": [-96.2423077489, 33.6730304914]}, "type": "Feature", "properties": {"collection_times": [{"days": "Mon-Fri", "time": "3:30pm"}, {"days": "Sat", "time": "9:45am"}, {"days": "Sun", "time": "Closed"}], "id": "7547607303", "name": "USPS COLLECTION BOX - BLUE BOX", "address": {"city": "RAVENNA", "state": "TX", "street": "105 N MAIN ST", "postcode": "75476"}}},
{"geometry": {"type": "Point", "coordinates": [-95.7247368943, 33.5449814144]}, "type": "Feature", "properties": {"collection_times": [{"days": "Mon-Sat", "time": "4:15pm"}, {"days": "Sun", "time": "Closed"}], "id": "7547703246", "name": "USPS COLLECTION BOX - BLUE BOX", "address": {"city": "ROXTON", "state": "TX", "street": "208 HARRISON AVE", "postcode": "75477"}}},
{"geometry": {"type": "Point", "coordinates": [-95.7247368943, 33.5449814144]}, "type": "Feature", "properties": {"collection_times": [{"days": "Mon-Fri", "time": "2:30pm"}, {"days": "Sat", "time": "7:30am"}, {"days": "Sun", "time": "Closed"}], "id": "7547705846", "name": "USPS COLLECTION BOX - PO LOBBY", "address": {"city": "ROXTON", "state": "TX", "street": "208 HARRISON AVE", "postcode": "75477"}}},
{"geometry": {"type": "Point", "coordinates": [-95.3605205175, 33.2001035177]}, "type": "Feature", "properties": {"collection_times": [{"days": "Mon-Fri", "time": "11:30am"}, {"days": "Sat", "time": "8:30am"}, {"days": "Sun", "time": "Closed"}], "id": "7547805847", "name": "USPS COLLECTION BOX - PO LOBBY", "address": {"city": "SALTILLO", "state": "TX", "street": "13562 US HIGHWAY 67", "postcode": "75478"}}},
{"geometry": {"type": "Point", "coordinates": [-95.3605205175, 33.2001035177]}, "type": "Feature", "properties": {"collection_times": [{"days": "Mon-Sat", "time": "5:00pm"}, {"days": "Sun", "time": "Closed"}], "id": "7547805848", "name": "USPS COLLECTION BOX - BLUE BOX", "address": {"city": "SALTILLO", "state": "TX", "street": "13562 US HIGHWAY 67", "postcode": "75478"}}},
{"geometry": {"type": "Point", "coordinates": [-96.3651963972, 33.5990152472]}, "type": "Feature", "properties": {"collection_times": [{"days": "Mon-Sat", "time": "3:45pm"}, {"days": "Sun", "time": "Closed"}], "id": "7547903248", "name": "USPS COLLECTION BOX - BLUE BOX", "address": {"city": "SAVOY", "state": "TX", "street": "301 E HAYES ST", "postcode": "75479"}}},
{"geometry": {"type": "Point", "coordinates": [-96.3651963972, 33.5990152472]}, "type": "Feature", "properties": {"collection_times": [{"days": "Mon-Fri", "time": "3:00pm"}, {"days": "Sat", "time": "9:30am"}, {"days": "Sun", "time": "Closed"}], "id": "7547905850", "name": "USPS COLLECTION BOX - PO LOBBY", "address": {"city": "SAVOY", "state": "TX", "street": "301 E HAYES ST", "postcode": "75479"}}},
{"geometry": {"type": "Point", "coordinates": [-95.2106845301, 33.0118708153]}, "type": "Feature", "properties": {"collection_times": [{"days": "Mon-Sat", "time": "4:00pm"}, {"days": "Sun", "time": "Closed"}], "id": "7548003249", "name": "USPS COLLECTION BOX - BLUE BOX", "address": {"city": "SCROGGINS", "state": "TX", "street": "14891 FARM ROAD 115", "postcode": "75480"}}},
{"geometry": {"type": "Point", "coordinates": [-95.2106845301, 33.0118708153]}, "type": "Feature", "properties": {"collection_times": [{"days": "Mon-Fri", "time": "2:00pm"}, {"days": "Sat", "time": "10:00am"}, {"days": "Sun", "time": "Closed"}], "id": "7548005870", "name": "USPS COLLECTION BOX - PO LOBBY", "address": {"city": "SCROGGINS", "state": "TX", "street": "14891 FARM ROAD 115", "postcode": "75480"}}},
{"geometry": {"type": "Point", "coordinates": [-95.3568619962, 33.3320177229]}, "type": "Feature", "properties": {"collection_times": [{"days": "Mon-Sat", "time": "3:30pm"}, {"days": "Sun", "time": "Closed"}], "id": "7548103252", "name": "USPS COLLECTION BOX - BLUE BOX", "address": {"city": "SULPHUR BLUFF", "state": "TX", "street": "12060 FARM ROAD 71 E", "postcode": "75481"}}},
{"geometry": {"type": "Point", "coordinates": [-95.3568619962, 33.3320177229]}, "type": "Feature", "properties": {"collection_times": [{"days": "Mon-Fri", "time": "2:00pm"}, {"days": "Sat", "time": "9:30am"}, {"days": "Sun", "time": "Closed"}], "id": "7548103253", "name": "USPS COLLECTION BOX - PO LOBBY", "address": {"city": "SULPHUR BLUFF", "state": "TX", "street": "12060 FARM ROAD 71 E", "postcode": "75481"}}},
{"geometry": {"type": "Point", "coordinates": [-95.5849598505, 33.1200850621]}, "type": "Feature", "properties": {"collection_times": [{"days": "Mon-Sat", "time": "3:15pm"}, {"days": "Sun", "time": "Closed"}], "id": "7548203253", "name": "USPS COLLECTION BOX - BLUE BOX", "address": {"city": "SULPHUR SPRINGS", "state": "TX", "street": "101 BILL BRADFORD", "postcode": "75482"}}},
{"geometry": {"type": "Point", "coordinates": [-95.5929739359, 33.1155152273]}, "type": "Feature", "properties": {"collection_times": [{"days": "Mon-Sat", "time": "3:15pm"}, {"days": "Sun", "time": "Closed"}], "id": "7548203255", "name": "USPS COLLECTION BOX - BLUE BOX", "address": {"city": "SULPHUR SPRINGS", "state": "TX", "street": "1133 MOCKINGBIRD LN", "postcode": "75482"}}},
{"geometry": {"type": "Point", "coordinates": [-95.5963153241, 33.1196209696]}, "type": "Feature", "properties": {"collection_times": [{"days": "Mon-Sat", "time": "3:15pm"}, {"days": "Sun", "time": "Closed"}], "id": "7548203257", "name": "USPS COLLECTION BOX - BLUE BOX", "address": {"city": "SULPHUR SPRINGS", "state": "TX", "street": "1217 S BROADWAY ST", "postcode": "75482"}}},
{"geometry": {"type": "Point", "coordinates": [-95.5800165282, 33.1174465134]}, "type": "Feature", "properties": {"collection_times": [{"days": "Mon-Sat", "time": "3:15pm"}, {"days": "Sun", "time": "Closed"}], "id": "7548203268", "name": "USPS COLLECTION BOX - BLUE BOX", "address": {"city": "SULPHUR SPRINGS", "state": "TX", "street": "614 BILL BRADFORD", "postcode": "75482"}}},
{"geometry": {"type": "Point", "coordinates": [-95.5997996017, 33.1284089527]}, "type": "Feature", "properties": {"collection_times": [{"days": "Mon-Sat", "time": "3:15pm"}, {"days": "Sun", "time": "Closed"}], "id": "7548203270", "name": "USPS COLLECTION BOX - BLUE BOX", "address": {"city": "SULPHUR SPRINGS", "state": "TX", "street": "809 GILMER ST", "postcode": "75482"}}},
{"geometry": {"type": "Point", "coordinates": [-95.6128298404, 33.1254589425]}, "type": "Feature", "properties": {"collection_times": [{"days": "Mon-Sat", "time": "3:15pm"}, {"days": "Sun", "time": "Closed"}], "id": "7548203271", "name": "USPS COLLECTION BOX - BLUE BOX", "address": {"city": "SULPHUR SPRINGS", "state": "TX", "street": "597 LEAGUE ST S", "postcode": "75482"}}},
{"geometry": {"type": "Point", "coordinates": [-95.6007614652, 33.1393774533]}, "type": "Feature", "properties": {"collection_times": [{"days": "Mon-Sat", "time": "4:45pm"}, {"days": "Sun", "time": "Closed"}], "id": "7548205772", "name": "USPS COLLECTION BOX - BLUE BOX", "address": {"city": "SULPHUR SPRINGS", "state": "TX", "street": "320 CHURCH ST", "postcode": "75482"}}},
{"geometry": {"type": "Point", "coordinates": [-95.6007614652, 33.1393774533]}, "type": "Feature", "properties": {"collection_times": [{"days": "Mon-Sat", "time": "4:45pm"}, {"days": "Sun", "time": "Closed"}], "id": "7548205773", "name": "USPS COLLECTION BOX - BLUE BOX", "address": {"city": "SULPHUR SPRINGS", "state": "TX", "street": "320 CHURCH ST", "postcode": "75482"}}},
{"geometry": {"type": "Point", "coordinates": [-95.6007614652, 33.1393774533]}, "type": "Feature", "properties": {"collection_times": [{"days": "Mon-Sat", "time": "4:45pm"}, {"days": "Sun", "time": "Closed"}], "id": "7548205849", "name": "USPS COLLECTION BOX - PO LOBBY", "address": {"city": "SULPHUR SPRINGS", "state": "TX", "street": "320 CHURCH ST", "postcode": "75482"}}},
{"geometry": {"type": "Point", "coordinates": [-95.5968524326, 33.1074595112]}, "type": "Feature", "properties": {"collection_times": [{"days": "Mon-Sat", "time": "3:15pm"}, {"days": "Sun", "time": "Closed"}], "id": "7548206882", "name": "USPS COLLECTION BOX - BLUE BOX", "address": {"city": "SULPHUR SPRINGS", "state": "TX", "street": "1750 S BROADWAY ST", "postcode": "75482"}}},
{"geometry": {"type": "Point", "coordinates": [-95.5702710627, 33.1365578909]}, "type": "Feature", "properties": {"collection_times": [{"days": "Mon-Sat", "time": "3:30pm"}, {"days": "Sun", "time": "Closed"}], "id": "7548206884", "name": "USPS COLLECTION BOX - BLUE BOX", "address": {"city": "SULPHUR SPRINGS", "state": "TX", "street": "1400 COLLEGE ST", "postcode": "75482"}}},
{"geometry": {"type": "Point", "coordinates": [-95.5996142199, 33.1562712961]}, "type": "Feature", "properties": {"collection_times": [{"days": "Mon-Sat", "time": "3:15pm"}, {"days": "Sun", "time": "Closed"}], "id": "7548206885", "name": "USPS COLLECTION BOX - BLUE BOX", "address": {"city": "SULPHUR SPRINGS", "state": "TX", "street": "115 AIRPORT RD", "postcode": "75482"}}},
{"geometry": {"type": "Point", "coordinates": [-95.6007614652, 33.1393774533]}, "type": "Feature", "properties": {"collection_times": [{"days": "Mon-Sat", "time": "4:45pm"}, {"days": "Sun", "time": "Closed"}], "id": "7548206887", "name": "USPS COLLECTION BOX - PO LOBBY", "address": {"city": "SULPHUR SPRINGS", "state": "TX", "street": "320 CHURCH ST", "postcode": "75482"}}},
{"geometry": {"type": "Point", "coordinates": [-95.6007614652, 33.1393774533]}, "type": "Feature", "properties": {"collection_times": [{"days": "Mon-Sat", "time": "4:45pm"}, {"days": "Sun", "time": "Closed"}], "id": "7548206888", "name": "USPS COLLECTION BOX - PO LOBBY", "address": {"city": "SULPHUR SPRINGS", "state": "TX", "street": "320 CHURCH ST", "postcode": "75482"}}},
{"geometry": {"type": "Point", "coordinates": [-96.4684928597, 33.3628780708]}, "type": "Feature", "properties": {"collection_times": [{"days": "Mon-Sat", "time": "12:00pm"}, {"days": "Sun", "time": "Closed"}], "id": "7548500762", "name": "USPS COLLECTION BOX - BLUE BOX", "address": {"city": "WESTMINSTER", "state": "TX", "street": "701 W HOUSTON ST", "postcode": "75485"}}},
{"geometry": {"type": "Point", "coordinates": [-96.4684928597, 33.3628780708]}, "type": "Feature", "properties": {"collection_times": [{"days": "Mon-Sat", "time": "12:00pm"}, {"days": "Sun", "time": "Closed"}], "id": "7548505850", "name": "USPS COLLECTION BOX - PO LOBBY", "address": {"city": "WESTMINSTER", "state": "TX", "street": "701 W HOUSTON ST", "postcode": "75485"}}},
{"geometry": {"type": "Point", "coordinates": [-95.6794649783, 33.7405115633]}, "type": "Feature", "properties": {"collection_times": [{"days": "Mon-Sat", "time": "4:30pm"}, {"days": "Sun", "time": "Closed"}], "id": "7548602699", "name": "USPS COLLECTION BOX - BLUE BOX", "address": {"city": "SUMNER", "state": "TX", "street": "10182 FARM ROAD 79", "postcode": "75486"}}},
{"geometry": {"type": "Point", "coordinates": [-95.6794649783, 33.7405115633]}, "type": "Feature", "properties": {"collection_times": [{"days": "Mon-Fri", "time": "3:00pm"}, {"days": "Sat", "time": "9:30am"}, {"days": "Sun", "time": "Closed"}], "id": "7548603273", "name": "USPS COLLECTION BOX - PO LOBBY", "address": {"city": "SUMNER", "state": "TX", "street": "10182 FARM ROAD 79", "postcode": "75486"}}},
{"geometry": {"type": "Point", "coordinates": [-95.1070018548, 33.3625472158]}, "type": "Feature", "properties": {"collection_times": [{"days": "Mon-Sat", "time": "4:00pm"}, {"days": "Sun", "time": "Closed"}], "id": "7548703273", "name": "USPS COLLECTION BOX - BLUE BOX", "address": {"city": "TALCO", "state": "TX", "street": "307 W BROAD ST", "postcode": "75487"}}},
{"geometry": {"type": "Point", "coordinates": [-95.1070018548, 33.3625472158]}, "type": "Feature", "properties": {"collection_times": [{"days": "Mon-Fri", "time": "3:30pm"}, {"days": "Sat", "time": "8:00am"}, {"days": "Sun", "time": "Closed"}], "id": "7548705851", "name": "USPS COLLECTION BOX - PO LOBBY", "address": {"city": "TALCO", "state": "TX", "street": "307 W BROAD ST", "postcode": "75487"}}},
{"geometry": {"type": "Point", "coordinates": [-96.0118339414, 33.802701065]}, "type": "Feature", "properties": {"collection_times": [{"days": "Mon-Fri", "time": "3:30pm"}, {"days": "Sat", "time": "9:30am"}, {"days": "Sun", "time": "Closed"}], "id": "7548803275", "name": "USPS COLLECTION BOX - BLUE BOX", "address": {"city": "TELEPHONE", "state": "TX", "street": "100 MAIN ST", "postcode": "75488"}}},
{"geometry": {"type": "Point", "coordinates": [-96.0118339414, 33.802701065]}, "type": "Feature", "properties": {"collection_times": [{"days": "Mon-Fri", "time": "11:30am"}, {"days": "Sat", "time": "9:00am"}, {"days": "Sun", "time": "Closed"}], "id": "7548805826", "name": "USPS COLLECTION BOX - PO LOBBY", "address": {"city": "TELEPHONE", "state": "TX", "street": "100 MAIN ST", "postcode": "75488"}}},
{"geometry": {"type": "Point", "coordinates": [-96.4844394777, 33.5210236479]}, "type": "Feature", "properties": {"collection_times": [{"days": "Mon-Sat", "time": "4:00pm"}, {"days": "Sun", "time": "Closed"}], "id": "7548905862", "name": "USPS COLLECTION BOX - BLUE BOX", "address": {"city": "TOM BEAN", "state": "TX", "street": "105 BRITTON ST", "postcode": "75489"}}},
{"geometry": {"type": "Point", "coordinates": [-96.4844394777, 33.5210236479]}, "type": "Feature", "properties": {"collection_times": [{"days": "Mon-Fri", "time": "4:00pm"}, {"days": "Sat", "time": "9:00am"}, {"days": "Sun", "time": "Closed"}], "id": "7548905864", "name": "USPS COLLECTION BOX - PO LOBBY", "address": {"city": "TOM BEAN", "state": "TX", "street": "105 BRITTON ST", "postcode": "75489"}}},
{"geometry": {"type": "Point", "coordinates": [-96.3394577958, 33.4310473512]}, "type": "Feature", "properties": {"collection_times": [{"days": "Mon-Sat", "time": "4:45pm"}, {"days": "Sun", "time": "Closed"}], "id": "7549003278", "name": "USPS COLLECTION BOX - BLUE BOX", "address": {"city": "TRENTON", "state": "TX", "street": "200 HAMILTON ST", "postcode": "75490"}}},
{"geometry": {"type": "Point", "coordinates": [-96.3394577958, 33.4310473512]}, "type": "Feature", "properties": {"collection_times": [{"days": "Mon-Fri", "time": "4:00pm"}, {"days": "Sat", "time": "9:00am"}, {"days": "Sun", "time": "Closed"}], "id": "7549005853", "name": "USPS COLLECTION BOX - PO LOBBY", "address": {"city": "TRENTON", "state": "TX", "street": "200 HAMILTON ST", "postcode": "75490"}}},
{"geometry": {"type": "Point", "coordinates": [-96.3929229307, 33.5138242736]}, "type": "Feature", "properties": {"collection_times": [{"days": "Mon-Sat", "time": "4:30pm"}, {"days": "Sun", "time": "Closed"}], "id": "7549103280", "name": "USPS COLLECTION BOX - BLUE BOX", "address": {"city": "WHITEWRIGHT", "state": "TX", "street": "125 W WALNUT ST", "postcode": "75491"}}},
{"geometry": {"type": "Point", "coordinates": [-96.3929229307, 33.5138242736]}, "type": "Feature", "properties": {"collection_times": [{"days": "Mon-Fri", "time": "4:30pm"}, {"days": "Sat", "time": "8:00am"}, {"days": "Sun", "time": "Closed"}], "id": "7549103282", "name": "USPS COLLECTION BOX - PO LOBBY", "address": {"city": "WHITEWRIGHT", "state": "TX", "street": "125 W WALNUT ST", "postcode": "75491"}}},
{"geometry": {"type": "Point", "coordinates": [-96.0003423832, 33.5649714583]}, "type": "Feature", "properties": {"collection_times": [{"days": "Mon-Sat", "time": "4:45pm"}, {"days": "Sun", "time": "Closed"}], "id": "7549203282", "name": "USPS COLLECTION BOX - BLUE BOX", "address": {"city": "WINDOM", "state": "TX", "street": "408 MAIN ST", "postcode": "75492"}}},
{"geometry": {"type": "Point", "coordinates": [-96.0003423832, 33.5649714583]}, "type": "Feature", "properties": {"collection_times": [{"days": "Mon-Fri", "time": "11:30am"}, {"days": "Sat", "time": "9:00am"}, {"days": "Sun", "time": "Closed"}], "id": "7549205854", "name": "USPS COLLECTION BOX - PO LOBBY", "address": {"city": "WINDOM", "state": "TX", "street": "408 MAIN ST", "postcode": "75492"}}},
{"geometry": {"type": "Point", "coordinates": [-95.0778553393, 33.1613771806]}, "type": "Feature", "properties": {"collection_times": [{"days": "Mon-Sat", "time": "4:30pm"}, {"days": "Sun", "time": "Closed"}], "id": "7549303284", "name": "USPS COLLECTION BOX - BLUE BOX", "address": {"city": "WINFIELD", "state": "TX", "street": "116 MAIN ST", "postcode": "75493"}}},
{"geometry": {"type": "Point", "coordinates": [-95.0778553393, 33.1613771806]}, "type": "Feature", "properties": {"collection_times": [{"days": "Mon-Fri", "time": "11:30am"}, {"days": "Sat", "time": "8:30am"}, {"days": "Sun", "time": "Closed"}], "id": "7549305856", "name": "USPS COLLECTION BOX - PO LOBBY", "address": {"city": "WINFIELD", "state": "TX", "street": "116 MAIN ST", "postcode": "75493"}}},
{"geometry": {"type": "Point", "coordinates": [-95.2884965194, 32.9590285943]}, "type": "Feature", "properties": {"collection_times": [{"days": "Mon-Fri", "time": "4:45pm"}, {"days": "Sat", "time": "3:00pm"}, {"days": "Sun", "time": "Closed"}], "id": "7549403285", "name": "USPS COLLECTION BOX - PO LOBBY", "address": {"city": "WINNSBORO", "state": "TX", "street": "210 LOCUST ST", "postcode": "75494"}}},
{"geometry": {"type": "Point", "coordinates": [-95.2884965194, 32.9590285943]}, "type": "Feature", "properties": {"collection_times": [{"days": "Mon-Sat", "time": "4:45pm"}, {"days": "Sun", "time": "Closed"}], "id": "7549403286", "name": "USPS COLLECTION BOX - BLUE BOX", "address": {"city": "WINNSBORO", "state": "TX", "street": "210 LOCUST ST", "postcode": "75494"}}},
{"geometry": {"type": "Point", "coordinates": [-95.2884965194, 32.9590285943]}, "type": "Feature", "properties": {"collection_times": [{"days": "Mon-Sat", "time": "4:45pm"}, {"days": "Sun", "time": "Closed"}], "id": "7549403287", "name": "USPS COLLECTION BOX - BLUE BOX", "address": {"city": "WINNSBORO", "state": "TX", "street": "210 LOCUST ST", "postcode": "75494"}}},
{"geometry": {"type": "Point", "coordinates": [-95.2913299195, 32.9491130118]}, "type": "Feature", "properties": {"collection_times": [{"days": "Mon-Sat", "time": "2:00pm"}, {"days": "Sun", "time": "Closed"}], "id": "7549403289", "name": "USPS COLLECTION BOX - BLUE BOX", "address": {"city": "WINNSBORO", "state": "TX", "street": "212 E COKE RD", "postcode": "75494"}}},
{"geometry": {"type": "Point", "coordinates": [-95.2884965194, 32.9590285943]}, "type": "Feature", "properties": {"collection_times": [{"days": "Mon-Fri", "time": "4:45pm"}, {"days": "Sat", "time": "3:00pm"}, {"days": "Sun", "time": "Closed"}], "id": "7549403291", "name": "USPS COLLECTION BOX - PO LOBBY", "address": {"city": "WINNSBORO", "state": "TX", "street": "210 LOCUST ST", "postcode": "75494"}}},
{"geometry": {"type": "Point", "coordinates": [-95.2884965194, 32.9590285943]}, "type": "Feature", "properties": {"collection_times": [{"days": "Mon-Fri", "time": "4:45pm"}, {"days": "Sat", "time": "3:00pm"}, {"days": "Sun", "time": "Closed"}], "id": "7549405775", "name": "USPS COLLECTION BOX - PO LOBBY", "address": {"city": "WINNSBORO", "state": "TX", "street": "210 LOCUST ST", "postcode": "75494"}}},
{"geometry": {"type": "Point", "coordinates": [-95.2884965194, 32.9590285943]}, "type": "Feature", "properties": {"collection_times": [{"days": "Mon-Sat", "time": "4:45pm"}, {"days": "Sun", "time": "Closed"}], "id": "7549405777", "name": "USPS COLLECTION BOX - BLUE BOX", "address": {"city": "WINNSBORO", "state": "TX", "street": "210 LOCUST ST", "postcode": "75494"}}},
{"geometry": {"type": "Point", "coordinates": [-96.5771457255, 33.4216903803]}, "type": "Feature", "properties": {"collection_times": [{"days": "Mon-Sat", "time": "4:00pm"}, {"days": "Sun", "time": "Closed"}], "id": "7549500761", "name": "USPS COLLECTION BOX - BLUE BOX", "address": {"city": "VAN ALSTYNE", "state": "TX", "street": "101 E JEFFERSON ST", "postcode": "75495"}}},
{"geometry": {"type": "Point", "coordinates": [-96.5771457255, 33.4216903803]}, "type": "Feature", "properties": {"collection_times": [{"days": "Mon-Fri", "time": "4:00pm"}, {"days": "Sat", "time": "12:00pm"}, {"days": "Sun", "time": "Closed"}], "id": "7549505860", "name": "USPS COLLECTION BOX - PO LOBBY", "address": {"city": "VAN ALSTYNE", "state": "TX", "street": "101 E JEFFERSON ST", "postcode": "75495"}}},
{"geometry": {"type": "Point", "coordinates": [-96.0699866828, 33.3707809255]}, "type": "Feature", "properties": {"collection_times": [{"days": "Mon-Sat", "time": "5:00pm"}, {"days": "Sun", "time": "Closed"}], "id": "7549603294", "name": "USPS COLLECTION BOX - BLUE BOX", "address": {"city": "WOLFE CITY", "state": "TX", "street": "200 W MAIN ST", "postcode": "75496"}}},
{"geometry": {"type": "Point", "coordinates": [-96.0699866828, 33.3707809255]}, "type": "Feature", "properties": {"collection_times": [{"days": "Mon-Fri", "time": "4:00pm"}, {"days": "Sat", "time": "7:30am"}, {"days": "Sun", "time": "Closed"}], "id": "7549605859", "name": "USPS COLLECTION BOX - PO LOBBY", "address": {"city": "WOLFE CITY", "state": "TX", "street": "200 W MAIN ST", "postcode": "75496"}}},
{"geometry": {"type": "Point", "coordinates": [-95.5763603175, 32.9349463758]}, "type": "Feature", "properties": {"collection_times": [{"days": "Mon-Fri", "time": "3:30pm"}, {"days": "Sat", "time": "3:45pm"}, {"days": "Sun", "time": "Closed"}], "id": "7549700000", "name": "USPS COLLECTION BOX - BLUE BOX", "address": {"city": "YANTIS", "state": "TX", "street": "122 N MAIN ST", "postcode": "75497"}}},
{"geometry": {"type": "Point", "coordinates": [-95.5763603175, 32.9349463758]}, "type": "Feature", "properties": {"collection_times": [{"days": "Mon-Fri", "time": "3:30pm"}, {"days": "Sat", "time": "7:30am"}, {"days": "Sun", "time": "Closed"}], "id": "7549700001", "name": "USPS COLLECTION BOX - PO LOBBY", "address": {"city": "YANTIS", "state": "TX", "street": "122 N MAIN ST", "postcode": "75497"}}}
]}
