{"type": "FeatureCollection", "features": [
{"geometry": {"type": "Point", "coordinates": [-94.0804446824, 33.4390814216]}, "type": "Feature", "properties": {"collection_times": [{"days": "Mon-Sat", "time": "6:00pm"}, {"days": "Sun", "time": "Closed"}], "id": "7550106986", "name": "USPS COLLECTION BOX - BLUE BOX", "address": {"city": "TEXARKANA", "state": "TX", "street": "2211 N ROBISON RD", "postcode": "75501"}}},
{"geometry": {"type": "Point", "coordinates": [-94.0804446824, 33.4390814216]}, "type": "Feature", "properties": {"collection_times": [{"days": "Mon-Sat", "time": "6:00pm"}, {"days": "Sun", "time": "Closed"}], "id": "7550106988", "name": "USPS COLLECTION BOX - BLUE BOX", "address": {"city": "TEXARKANA", "state": "TX", "street": "2211 N ROBISON RD", "postcode": "75501"}}},
{"geometry": {"type": "Point", "coordinates": [-94.1106648639, 33.4255757003]}, "type": "Feature", "properties": {"collection_times": [{"days": "Mon-Sat", "time": "3:00pm"}, {"days": "Sun", "time": "Closed"}], "id": "7550106999", "name": "USPS COLLECTION BOX - BLUE BOX", "address": {"city": "TEXARKANA", "state": "TX", "street": "500 REDWATER RD", "postcode": "75501"}}},
{"geometry": {"type": "Point", "coordinates": [-94.1166334986, 33.4037061374]}, "type": "Feature", "properties": {"collection_times": [{"days": "Mon-Sat", "time": "10:00am"}, {"days": "Sun", "time": "Closed"}], "id": "7550107012", "name": "USPS COLLECTION BOX - BLUE BOX", "address": {"city": "TEXARKANA", "state": "TX", "street": "800 N KINGS HWY", "postcode": "75501"}}},
{"geometry": {"type": "Point", "coordinates": [-94.0994094307, 33.4183701473]}, "type": "Feature", "properties": {"collection_times": [{"days": "Mon-Sat", "time": "3:00pm"}, {"days": "Sun", "time": "Closed"}], "id": "7550107014", "name": "USPS COLLECTION BOX - BLUE BOX", "address": {"city": "TEXARKANA", "state": "TX", "street": "4520 W 7TH ST", "postcode": "75501"}}},
{"geometry": {"type": "Point", "coordinates": [-94.0497252036, 33.4278943077]}, "type": "Feature", "properties": {"collection_times": [{"days": "Mon-Sat", "time": "10:00am"}, {"days": "Sun", "time": "Closed"}], "id": "7550107017", "name": "USPS COLLECTION BOX - BLUE BOX", "address": {"city": "TEXARKANA", "state": "TX", "street": "1001 TEXAS BLVD", "postcode": "75501"}}},
{"geometry": {"type": "Point", "coordinates": [-94.0958096407, 33.4063525247]}, "type": "Feature", "properties": {"collection_times": [{"days": "Mon-Sat", "time": "9:00am"}, {"days": "Sun", "time": "Closed"}], "id": "7550107020", "name": "USPS COLLECTION BOX - BLUE BOX", "address": {"city": "TEXARKANA", "state": "TX", "street": "1000 PINE ST", "postcode": "75501"}}},
{"geometry": {"type": "Point", "coordinates": [-94.0954419103, 33.3958442656]}, "type": "Feature", "properties": {"collection_times": [{"days": "Mon-Fri", "time": "3:00pm"}, {"days": "Sat-Sun", "time": "Closed"}], "id": "7550107251", "name": "USPS COLLECTION BOX - BLUE BOX", "address": {"city": "TEXARKANA", "state": "TX", "street": "3900 S LAKE DR", "postcode": "75501"}}},
{"geometry": {"type": "Point", "coordinates": [-94.1034367632, 33.4435915331]}, "type": "Feature", "properties": {"collection_times": [{"days": "Mon-Sat", "time": "11:00am"}, {"days": "Sun", "time": "Closed"}], "id": "7550107273", "name": "USPS COLLECTION BOX - BLUE BOX", "address": {"city": "TEXARKANA", "state": "TX", "street": "4000 NEW BOSTON RD", "postcode": "75501"}}},
{"geometry": {"type": "Point", "coordinates": [-94.0431473855, 33.4131065655]}, "type": "Feature", "properties": {"collection_times": [{"days": "Mon-Sat", "time": "3:00pm"}, {"days": "Sun", "time": "Closed"}], "id": "7550107276", "name": "USPS COLLECTION BOX - BLUE BOX", "address": {"city": "TEXARKANA", "state": "TX", "street": "100 N STATE LINE AVE", "postcode": "75501"}}},
{"geometry": {"type": "Point", "coordinates": [-94.0804446824, 33.4390814216]}, "type": "Feature", "properties": {"collection_times": [{"days": "Mon-Sat", "time": "6:00pm"}, {"days": "Sun", "time": "Closed"}], "id": "7550107277", "name": "USPS COLLECTION BOX - PO LOBBY", "address": {"city": "TEXARKANA", "state": "TX", "street": "2211 N ROBISON RD", "postcode": "75501"}}},
{"geometry": {"type": "Point", "coordinates": [-94.0804446824, 33.4390814216]}, "type": "Feature", "properties": {"collection_times": [{"days": "Mon-Sat", "time": "6:00pm"}, {"days": "Sun", "time": "Closed"}], "id": "7550107279", "name": "USPS COLLECTION BOX - PO LOBBY", "address": {"city": "TEXARKANA", "state": "TX", "street": "2211 N ROBISON RD", "postcode": "75501"}}},
{"geometry": {"type": "Point", "coordinates": [-94.0697752156, 33.4737827218]}, "type": "Feature", "properties": {"collection_times": [{"days": "Mon-Sat", "time": "3:00pm"}, {"days": "Sun", "time": "Closed"}], "id": "7550307071", "name": "USPS COLLECTION BOX - BLUE BOX", "address": {"city": "TEXARKANA", "state": "TX", "street": "5600 SUMMERHILL RD", "postcode": "75503"}}},
{"geometry": {"type": "Point", "coordinates": [-94.0843094779, 33.4544073657]}, "type": "Feature", "properties": {"collection_times": [{"days": "Mon-Sat", "time": "3:00pm"}, {"days": "Sun", "time": "Closed"}], "id": "7550307073", "name": "USPS COLLECTION BOX - BLUE BOX", "address": {"city": "TEXARKANA", "state": "TX", "street": "2315 RICHMOND RD", "postcode": "75503"}}},
{"geometry": {"type": "Point", "coordinates": [-94.084748743, 33.4548159818]}, "type": "Feature", "properties": {"collection_times": [{"days": "Mon-Sat", "time": "3:00pm"}, {"days": "Sun", "time": "Closed"}], "id": "7550307076", "name": "USPS COLLECTION BOX - BLUE BOX", "address": {"city": "TEXARKANA", "state": "TX", "street": "2400 RICHMOND RD", "postcode": "75503"}}},
{"geometry": {"type": "Point", "coordinates": [-94.0945784332, 33.465467563]}, "type": "Feature", "properties": {"collection_times": [{"days": "Mon-Sat", "time": "3:00pm"}, {"days": "Sun", "time": "Closed"}], "id": "7550307081", "name": "USPS COLLECTION BOX - BLUE BOX", "address": {"city": "TEXARKANA", "state": "TX", "street": "3302 RICHMOND RD", "postcode": "75503"}}},
{"geometry": {"type": "Point", "coordinates": [-94.048349389, 33.4436834082]}, "type": "Feature", "properties": {"collection_times": [{"days": "Mon-Sat", "time": "3:00pm"}, {"days": "Sun", "time": "Closed"}], "id": "7550307085", "name": "USPS COLLECTION BOX - BLUE BOX", "address": {"city": "TEXARKANA", "state": "TX", "street": "2821 WOOD ST", "postcode": "75503"}}},
{"geometry": {"type": "Point", "coordinates": [-94.0590864313, 33.4489027006]}, "type": "Feature", "properties": {"collection_times": [{"days": "Mon-Sat", "time": "3:00pm"}, {"days": "Sun", "time": "Closed"}], "id": "7550307086", "name": "USPS COLLECTION BOX - BLUE BOX", "address": {"city": "TEXARKANA", "state": "TX", "street": "1400 COLLEGE DR", "postcode": "75503"}}},
{"geometry": {"type": "Point", "coordinates": [-94.0656395448, 33.4585463507]}, "type": "Feature", "properties": {"collection_times": [{"days": "Mon-Fri", "time": "3:00pm"}, {"days": "Sat-Sun", "time": "Closed"}], "id": "7550307087", "name": "USPS COLLECTION BOX - BLUE BOX", "address": {"city": "TEXARKANA", "state": "TX", "street": "4405 SUMMERHILL RD", "postcode": "75503"}}},
{"geometry": {"type": "Point", "coordinates": [-94.0651836689, 33.4548828976]}, "type": "Feature", "properties": {"collection_times": [{"days": "Mon-Sat", "time": "3:00pm"}, {"days": "Sun", "time": "Closed"}], "id": "7550307088", "name": "USPS COLLECTION BOX - BLUE BOX", "address": {"city": "TEXARKANA", "state": "TX", "street": "4000 SUMMERHILL SQ", "postcode": "75503"}}},
{"geometry": {"type": "Point", "coordinates": [-94.0431707883, 33.4544539135]}, "type": "Feature", "properties": {"collection_times": [{"days": "Mon-Sat", "time": "3:00pm"}, {"days": "Sun", "time": "Closed"}], "id": "7550307093", "name": "USPS COLLECTION BOX - BLUE BOX", "address": {"city": "TEXARKANA", "state": "TX", "street": "3923 N STATELINE AVE", "postcode": "75503"}}},
{"geometry": {"type": "Point", "coordinates": [-94.0890223868, 33.4586920421]}, "type": "Feature", "properties": {"collection_times": [{"days": "Mon-Sat", "time": "3:00pm"}, {"days": "Sun", "time": "Closed"}], "id": "7550307100", "name": "USPS COLLECTION BOX - BLUE BOX", "address": {"city": "TEXARKANA", "state": "TX", "street": "2700 RICHMOND RD", "postcode": "75503"}}},
{"geometry": {"type": "Point", "coordinates": [-94.0463084123, 33.4606611226]}, "type": "Feature", "properties": {"collection_times": [{"days": "Mon-Sat", "time": "3:00pm"}, {"days": "Sun", "time": "Closed"}], "id": "7550307273", "name": "USPS COLLECTION BOX - BLUE BOX", "address": {"city": "TEXARKANA", "state": "TX", "street": "4805 TEXAS BLVD", "postcode": "75503"}}},
{"geometry": {"type": "Point", "coordinates": [-94.0688012702, 33.4701296384]}, "type": "Feature", "properties": {"collection_times": [{"days": "Mon-Sat", "time": "3:00pm"}, {"days": "Sun", "time": "Closed"}], "id": "7550307274", "name": "USPS COLLECTION BOX - BLUE BOX", "address": {"city": "TEXARKANA", "state": "TX", "street": "5200 SUMMERHILL RD", "postcode": "75503"}}},
{"geometry": {"type": "Point", "coordinates": [-94.0688012702, 33.4701296384]}, "type": "Feature", "properties": {"collection_times": [{"days": "Mon-Sat", "time": "3:00pm"}, {"days": "Sun", "time": "Closed"}], "id": "7550307275", "name": "USPS COLLECTION BOX - BLUE BOX", "address": {"city": "TEXARKANA", "state": "TX", "street": "5200 SUMMERHILL RD", "postcode": "75503"}}},
{"geometry": {"type": "Point", "coordinates": [-94.1184773636, 33.512718844]}, "type": "Feature", "properties": {"collection_times": [{"days": "Mon-Sat", "time": "3:00pm"}, {"days": "Sun", "time": "Closed"}], "id": "7550307276", "name": "USPS COLLECTION BOX - BLUE BOX", "address": {"city": "TEXARKANA", "state": "TX", "street": "3600 RICHMOND RD", "postcode": "75503"}}},
{"geometry": {"type": "Point", "coordinates": [-94.0751821498, 33.4623518954]}, "type": "Feature", "properties": {"collection_times": [{"days": "Mon-Sat", "time": "3:00pm"}, {"days": "Sun", "time": "Closed"}], "id": "7550307277", "name": "USPS COLLECTION BOX - BLUE BOX", "address": {"city": "TEXARKANA", "state": "TX", "street": "2600 SAINT MICHAEL DR", "postcode": "75503"}}},
{"geometry": {"type": "Point", "coordinates": [-94.0752367288, 33.4623361833]}, "type": "Feature", "properties": {"collection_times": [{"days": "Mon-Sat", "time": "3:00pm"}, {"days": "Sun", "time": "Closed"}], "id": "7550307279", "name": "USPS COLLECTION BOX - BLUE BOX", "address": {"city": "TEXARKANA", "state": "TX", "street": "2604 SAINT MICHAEL DR", "postcode": "75503"}}},
{"geometry": {"type": "Point", "coordinates": [-94.0800730568, 33.4602159919]}, "type": "Feature", "properties": {"collection_times": [{"days": "Mon-Sat", "time": "3:00pm"}, {"days": "Sun", "time": "Closed"}], "id": "7550307281", "name": "USPS COLLECTION BOX - BLUE BOX", "address": {"city": "TEXARKANA", "state": "TX", "street": "2900 SAINT MICHAEL DR", "postcode": "75503"}}},
{"geometry": {"type": "Point", "coordinates": [-94.0945784332, 33.465467563]}, "type": "Feature", "properties": {"collection_times": [{"days": "Mon-Sat", "time": "3:00pm"}, {"days": "Sun", "time": "Closed"}], "id": "7550307282", "name": "USPS COLLECTION BOX - BLUE BOX", "address": {"city": "TEXARKANA", "state": "TX", "street": "3302 RICHMOND RD", "postcode": "75503"}}},
{"geometry": {"type": "Point", "coordinates": [-94.8958058933, 33.5198653926]}, "type": "Feature", "properties": {"collection_times": [{"days": "Mon-Sat", "time": "4:00pm"}, {"days": "Sun", "time": "Closed"}], "id": "7555000000", "name": "USPS COLLECTION BOX - BLUE BOX", "address": {"city": "ANNONA", "state": "TX", "street": "103 E MAIN ST", "postcode": "75550"}}},
{"geometry": {"type": "Point", "coordinates": [-94.8958058933, 33.5198653926]}, "type": "Feature", "properties": {"collection_times": [{"days": "Mon-Fri", "time": "11:30am"}, {"days": "Sat", "time": "8:30am"}, {"days": "Sun", "time": "Closed"}], "id": "7555000001", "name": "USPS COLLECTION BOX - PO LOBBY", "address": {"city": "ANNONA", "state": "TX", "street": "103 E MAIN ST", "postcode": "75550"}}},
{"geometry": {"type": "Point", "coordinates": [-94.1641082627, 33.1138197304]}, "type": "Feature", "properties": {"collection_times": [{"days": "Mon-Fri", "time": "2:30pm"}, {"days": "Sat-Sun", "time": "Closed"}], "id": "7555106396", "name": "USPS COLLECTION BOX - BLUE BOX", "address": {"city": "ATLANTA", "state": "TX", "street": "104 N WILLIAM ST", "postcode": "75551"}}},
{"geometry": {"type": "Point", "coordinates": [-94.182385527, 33.1148319338]}, "type": "Feature", "properties": {"collection_times": [{"days": "Mon-Sat", "time": "2:00pm"}, {"days": "Sun", "time": "Closed"}], "id": "7555106399", "name": "USPS COLLECTION BOX - BLUE BOX", "address": {"city": "ATLANTA", "state": "TX", "street": "201 US HIGHWAY 59", "postcode": "75551"}}},
{"geometry": {"type": "Point", "coordinates": [-94.1643488376, 33.116706279]}, "type": "Feature", "properties": {"collection_times": [{"days": "Mon-Fri", "time": "4:00pm"}, {"days": "Sat", "time": "10:00am"}, {"days": "Sun", "time": "Closed"}], "id": "7555106400", "name": "USPS COLLECTION BOX - BLUE BOX", "address": {"city": "ATLANTA", "state": "TX", "street": "101 E MILLER ST", "postcode": "75551"}}},
{"geometry": {"type": "Point", "coordinates": [-94.1643488376, 33.116706279]}, "type": "Feature", "properties": {"collection_times": [{"days": "Mon-Fri", "time": "4:00pm"}, {"days": "Sat", "time": "10:00am"}, {"days": "Sun", "time": "Closed"}], "id": "7555106401", "name": "USPS COLLECTION BOX - BLUE BOX", "address": {"city": "ATLANTA", "state": "TX", "street": "101 E MILLER ST", "postcode": "75551"}}},
{"geometry": {"type": "Point", "coordinates": [-94.1648174566, 33.1169850591]}, "type": "Feature", "properties": {"collection_times": [{"days": "Mon-Fri", "time": "4:30pm"}, {"days": "Sat", "time": "10:00am"}, {"days": "Sun", "time": "Closed"}], "id": "7555106405", "name": "USPS COLLECTION BOX - PO LOBBY", "address": {"city": "ATLANTA", "state": "TX", "street": "101 E MILLER ST", "postcode": "75551"}}},
{"geometry": {"type": "Point", "coordinates": [-94.1648174566, 33.1169850591]}, "type": "Feature", "properties": {"collection_times": [{"days": "Mon-Fri", "time": "4:30pm"}, {"days": "Sat", "time": "10:00am"}, {"days": "Sun", "time": "Closed"}], "id": "7555106406", "name": "USPS COLLECTION BOX - PO LOBBY", "address": {"city": "ATLANTA", "state": "TX", "street": "101 E MILLER ST", "postcode": "75551"}}},
{"geometry": {"type": "Point", "coordinates": [-94.1781758547, 33.1126990447]}, "type": "Feature", "properties": {"collection_times": [{"days": "Mon-Sat", "time": "2:00pm"}, {"days": "Sun", "time": "Closed"}], "id": "7555106410", "name": "USPS COLLECTION BOX - BLUE BOX", "address": {"city": "ATLANTA", "state": "TX", "street": "809 W MAIN ST", "postcode": "75551"}}},
{"geometry": {"type": "Point", "coordinates": [-94.7798601835, 33.5475696797]}, "type": "Feature", "properties": {"collection_times": [{"days": "Mon-Sat", "time": "4:00pm"}, {"days": "Sun", "time": "Closed"}], "id": "7555407334", "name": "USPS COLLECTION BOX - BLUE BOX", "address": {"city": "AVERY", "state": "TX", "street": "340 SAN MARCUS ST", "postcode": "75554"}}},
{"geometry": {"type": "Point", "coordinates": [-94.7798601835, 33.5475696797]}, "type": "Feature", "properties": {"collection_times": [{"days": "Mon-Fri", "time": "1:00pm"}, {"days": "Sat", "time": "8:30am"}, {"days": "Sun", "time": "Closed"}], "id": "7555407336", "name": "USPS COLLECTION BOX - PO LOBBY", "address": {"city": "AVERY", "state": "TX", "street": "340 SAN MARCUS ST", "postcode": "75554"}}},
{"geometry": {"type": "Point", "coordinates": [-94.1456754511, 32.9550294693]}, "type": "Feature", "properties": {"collection_times": [{"days": "Mon-Fri", "time": "4:00pm"}, {"days": "Sat", "time": "9:30am"}, {"days": "Sun", "time": "Closed"}], "id": "7555500000", "name": "USPS COLLECTION BOX - BLUE BOX", "address": {"city": "BIVINS", "state": "TX", "street": "103 MORSE RD", "postcode": "75555"}}},
{"geometry": {"type": "Point", "coordinates": [-94.1456754511, 32.9550294693]}, "type": "Feature", "properties": {"collection_times": [{"days": "Mon-Fri", "time": "11:00am"}, {"days": "Sat", "time": "9:30am"}, {"days": "Sun", "time": "Closed"}], "id": "7555500001", "name": "USPS COLLECTION BOX - PO LOBBY", "address": {"city": "BIVINS", "state": "TX", "street": "103 MORSE RD", "postcode": "75555"}}},
{"geometry": {"type": "Point", "coordinates": [-94.0600673905, 33.1346909902]}, "type": "Feature", "properties": {"collection_times": [{"days": "Mon-Fri", "time": "4:00pm"}, {"days": "Sat", "time": "8:00am"}, {"days": "Sun", "time": "Closed"}], "id": "7555600000", "name": "USPS COLLECTION BOX - BLUE BOX", "address": {"city": "BLOOMBURG", "state": "TX", "street": "411 S ARKANSAS AVE", "postcode": "75556"}}},
{"geometry": {"type": "Point", "coordinates": [-94.0600673905, 33.1346909902]}, "type": "Feature", "properties": {"collection_times": [{"days": "Mon-Fri", "time": "2:00pm"}, {"days": "Sat", "time": "8:00am"}, {"days": "Sun", "time": "Closed"}], "id": "7555600001", "name": "USPS COLLECTION BOX - PO LOBBY", "address": {"city": "BLOOMBURG", "state": "TX", "street": "411 S ARKANSAS AVE", "postcode": "75556"}}},
{"geometry": {"type": "Point", "coordinates": [-94.0600673905, 33.1346909902]}, "type": "Feature", "properties": {"collection_times": [{"days": "Mon-Fri", "time": "2:00pm"}, {"days": "Sat", "time": "8:00am"}, {"days": "Sun", "time": "Closed"}], "id": "7555600002", "name": "USPS COLLECTION BOX - PO LOBBY", "address": {"city": "BLOOMBURG", "state": "TX", "street": "411 S ARKANSAS AVE", "postcode": "75556"}}},
{"geometry": {"type": "Point", "coordinates": [-94.8550523745, 33.1864266477]}, "type": "Feature", "properties": {"collection_times": [{"days": "Mon-Sat", "time": "4:00pm"}, {"days": "Sun", "time": "Closed"}], "id": "7555800000", "name": "USPS COLLECTION BOX - BLUE BOX", "address": {"city": "COOKVILLE", "state": "TX", "street": "6648 US HIGHWAY 67 E", "postcode": "75558"}}},
{"geometry": {"type": "Point", "coordinates": [-94.8550523745, 33.1864266477]}, "type": "Feature", "properties": {"collection_times": [{"days": "Mon-Fri", "time": "10:30am"}, {"days": "Sat", "time": "8:00am"}, {"days": "Sun", "time": "Closed"}], "id": "7555800001", "name": "USPS COLLECTION BOX - PO LOBBY", "address": {"city": "COOKVILLE", "state": "TX", "street": "6648 US HIGHWAY 67 E", "postcode": "75558"}}},
{"geometry": {"type": "Point", "coordinates": [-94.6178525864, 33.5092088834]}, "type": "Feature", "properties": {"collection_times": [{"days": "Mon-Sat", "time": "3:00pm"}, {"days": "Sun", "time": "Closed"}], "id": "7555906353", "name": "USPS COLLECTION BOX - BLUE BOX", "address": {"city": "DEKALB", "state": "TX", "street": "312 W FRONT ST", "postcode": "75559"}}},
{"geometry": {"type": "Point", "coordinates": [-94.6178525864, 33.5092088834]}, "type": "Feature", "properties": {"collection_times": [{"days": "Mon-Sat", "time": "3:00pm"}, {"days": "Sun", "time": "Closed"}], "id": "7555906355", "name": "USPS COLLECTION BOX - PO LOBBY", "address": {"city": "DEKALB", "state": "TX", "street": "312 W FRONT ST", "postcode": "75559"}}},
{"geometry": {"type": "Point", "coordinates": [-94.3544882243, 33.1996531288]}, "type": "Feature", "properties": {"collection_times": [{"days": "Mon-Fri", "time": "10:30am"}, {"days": "Sat", "time": "9:00am"}, {"days": "Sun", "time": "Closed"}], "id": "7556000001", "name": "USPS COLLECTION BOX - PO LOBBY", "address": {"city": "DOUGLASSVILLE", "state": "TX", "street": "105 W HIGHWAY 77", "postcode": "75560"}}},
{"geometry": {"type": "Point", "coordinates": [-94.3544882243, 33.1996531288]}, "type": "Feature", "properties": {"collection_times": [{"days": "Mon-Sat", "time": "3:30pm"}, {"days": "Sun", "time": "Closed"}], "id": "7556000002", "name": "USPS COLLECTION BOX - BLUE BOX", "address": {"city": "DOUGLASSVILLE", "state": "TX", "street": "105 W HIGHWAY 77", "postcode": "75560"}}},
{"geometry": {"type": "Point", "coordinates": [-94.2886664865, 33.4663208001]}, "type": "Feature", "properties": {"collection_times": [{"days": "Mon-Fri", "time": "3:30pm"}, {"days": "Sat", "time": "8:00am"}, {"days": "Sun", "time": "Closed"}], "id": "7556100001", "name": "USPS COLLECTION BOX - BLUE BOX", "address": {"city": "HOOKS", "state": "TX", "street": "15 E AVENUE A", "postcode": "75561"}}},
{"geometry": {"type": "Point", "coordinates": [-94.2886664865, 33.4663208001]}, "type": "Feature", "properties": {"collection_times": [{"days": "Mon-Fri", "time": "4:00pm"}, {"days": "Sat-Sun", "time": "Closed"}], "id": "7556100004", "name": "USPS COLLECTION BOX - PO LOBBY", "address": {"city": "HOOKS", "state": "TX", "street": "15 E AVENUE A", "postcode": "75561"}}},
{"geometry": {"type": "Point", "coordinates": [-94.2496271865, 32.9439345591]}, "type": "Feature", "properties": {"collection_times": [{"days": "Mon-Fri", "time": "3:00pm"}, {"days": "Sat", "time": "2:45pm"}, {"days": "Sun", "time": "Closed"}], "id": "7556200000", "name": "USPS COLLECTION BOX - BLUE BOX", "address": {"city": "KILDARE", "state": "TX", "street": "1315 COUNTY ROAD 1894", "postcode": "75562"}}},
{"geometry": {"type": "Point", "coordinates": [-94.2496271865, 32.9439345591]}, "type": "Feature", "properties": {"collection_times": [{"days": "Mon-Fri", "time": "11:30am"}, {"days": "Sat", "time": "9:00am"}, {"days": "Sun", "time": "Closed"}], "id": "7556200001", "name": "USPS COLLECTION BOX - PO LOBBY", "address": {"city": "KILDARE", "state": "TX", "street": "1315 COUNTY ROAD 1894", "postcode": "75562"}}},
{"geometry": {"type": "Point", "coordinates": [-94.3777280048, 33.0068412363]}, "type": "Feature", "properties": {"collection_times": [{"days": "Mon-Fri", "time": "4:00pm"}, {"days": "Sat", "time": "9:30am"}, {"days": "Sun", "time": "Closed"}], "id": "7556306525", "name": "USPS COLLECTION BOX - BLUE BOX", "address": {"city": "LINDEN", "state": "TX", "street": "200 E RUSH ST", "postcode": "75563"}}},
{"geometry": {"type": "Point", "coordinates": [-94.3777280048, 33.0068412363]}, "type": "Feature", "properties": {"collection_times": [{"days": "Mon-Fri", "time": "4:00pm"}, {"days": "Sat", "time": "9:30am"}, {"days": "Sun", "time": "Closed"}], "id": "7556306526", "name": "USPS COLLECTION BOX - BLUE BOX", "address": {"city": "LINDEN", "state": "TX", "street": "200 E RUSH ST", "postcode": "75563"}}},
{"geometry": {"type": "Point", "coordinates": [-94.3644938106, 33.0108399628]}, "type": "Feature", "properties": {"collection_times": [{"days": "Mon-Fri", "time": "4:00pm"}, {"days": "Sat", "time": "9:30am"}, {"days": "Sun", "time": "Closed"}], "id": "7556306887", "name": "USPS COLLECTION BOX - BLUE BOX", "address": {"city": "LINDEN", "state": "TX", "street": "200 E RUSH ST", "postcode": "75563"}}},
{"geometry": {"type": "Point", "coordinates": [-94.3759669054, 33.0125907463]}, "type": "Feature", "properties": {"collection_times": [{"days": "Mon-Sat", "time": "9:30am"}, {"days": "Sun", "time": "Closed"}], "id": "7556306888", "name": "USPS COLLECTION BOX - BLUE BOX", "address": {"city": "LINDEN", "state": "TX", "street": "213 TEXAS HIGHWAY 8 N", "postcode": "75563"}}},
{"geometry": {"type": "Point", "coordinates": [-94.3777280048, 33.0068412363]}, "type": "Feature", "properties": {"collection_times": [{"days": "Mon-Fri", "time": "4:00pm"}, {"days": "Sat", "time": "9:30am"}, {"days": "Sun", "time": "Closed"}], "id": "7556306890", "name": "USPS COLLECTION BOX - PO LOBBY", "address": {"city": "LINDEN", "state": "TX", "street": "200 E RUSH ST", "postcode": "75563"}}},
{"geometry": {"type": "Point", "coordinates": [-94.2804894785, 32.8741853813]}, "type": "Feature", "properties": {"collection_times": [{"days": "Mon-Sat", "time": "3:00pm"}, {"days": "Sun", "time": "Closed"}], "id": "7556400000", "name": "USPS COLLECTION BOX - BLUE BOX", "address": {"city": "LODI", "state": "TX", "street": "6819 FM 248 S", "postcode": "75564"}}},
{"geometry": {"type": "Point", "coordinates": [-94.2804894785, 32.8741853813]}, "type": "Feature", "properties": {"collection_times": [{"days": "Mon-Sat", "time": "9:30am"}, {"days": "Sun", "time": "Closed"}], "id": "7556400001", "name": "USPS COLLECTION BOX - PO LOBBY", "address": {"city": "LODI", "state": "TX", "street": "6819 FM 248 S", "postcode": "75564"}}},
{"geometry": {"type": "Point", "coordinates": [-94.08018, 32.944584]}, "type": "Feature", "properties": {"collection_times": [{"days": "Mon-Fri", "time": "3:30pm"}, {"days": "Sat", "time": "9:30am"}, {"days": "Sun", "time": "Closed"}], "id": "7556500000", "name": "USPS COLLECTION BOX - BLUE BOX", "address": {"city": "MCLEOD", "state": "TX", "street": "19641 FM 125 S", "postcode": "75565"}}},
{"geometry": {"type": "Point", "coordinates": [-94.08018, 32.944584]}, "type": "Feature", "properties": {"collection_times": [{"days": "Mon-Fri", "time": "11:30am"}, {"days": "Sat", "time": "9:30am"}, {"days": "Sun", "time": "Closed"}], "id": "7556500002", "name": "USPS COLLECTION BOX - PO LOBBY", "address": {"city": "MCLEOD", "state": "TX", "street": "19641 FM 125 S", "postcode": "75565"}}},
{"geometry": {"type": "Point", "coordinates": [-94.5388365005, 33.1956848763]}, "type": "Feature", "properties": {"collection_times": [{"days": "Mon-Sat", "time": "4:00pm"}, {"days": "Sun", "time": "Closed"}], "id": "7556600000", "name": "USPS COLLECTION BOX - BLUE BOX", "address": {"city": "MARIETTA", "state": "TX", "street": "104 S CENTRAL AVE", "postcode": "75566"}}},
{"geometry": {"type": "Point", "coordinates": [-94.5388365005, 33.1956848763]}, "type": "Feature", "properties": {"collection_times": [{"days": "Mon-Fri", "time": "10:30am"}, {"days": "Sat", "time": "8:30am"}, {"days": "Sun", "time": "Closed"}], "id": "7556600001", "name": "USPS COLLECTION BOX - PO LOBBY", "address": {"city": "MARIETTA", "state": "TX", "street": "104 S CENTRAL AVE", "postcode": "75566"}}},
{"geometry": {"type": "Point", "coordinates": [-94.3454604737, 33.3283242725]}, "type": "Feature", "properties": {"collection_times": [{"days": "Mon-Fri", "time": "4:00pm"}, {"days": "Sat", "time": "8:00am"}, {"days": "Sun", "time": "Closed"}], "id": "7556700002", "name": "USPS COLLECTION BOX - BLUE BOX", "address": {"city": "MAUD", "state": "TX", "street": "366 HOUSTON ST", "postcode": "75567"}}},
{"geometry": {"type": "Point", "coordinates": [-94.3454604737, 33.3283242725]}, "type": "Feature", "properties": {"collection_times": [{"days": "Mon-Fri", "time": "4:00pm"}, {"days": "Sat", "time": "8:00am"}, {"days": "Sun", "time": "Closed"}], "id": "7556700003", "name": "USPS COLLECTION BOX - PO LOBBY", "address": {"city": "MAUD", "state": "TX", "street": "366 HOUSTON ST", "postcode": "75567"}}},
{"geometry": {"type": "Point", "coordinates": [-94.6812190642, 33.2032575102]}, "type": "Feature", "properties": {"collection_times": [{"days": "Mon-Fri", "time": "4:00pm"}, {"days": "Sat", "time": "10:00am"}, {"days": "Sun", "time": "Closed"}], "id": "7556800000", "name": "USPS COLLECTION BOX - BLUE BOX", "address": {"city": "NAPLES", "state": "TX", "street": "203 MAIN ST", "postcode": "75568"}}},
{"geometry": {"type": "Point", "coordinates": [-94.6710424741, 33.2144614533]}, "type": "Feature", "properties": {"collection_times": [{"days": "Mon-Fri", "time": "4:00pm"}, {"days": "Sat", "time": "10:00am"}, {"days": "Sun", "time": "Closed"}], "id": "7556800003", "name": "USPS COLLECTION BOX - PO LOBBY", "address": {"city": "NAPLES", "state": "TX", "street": "203 MAIN ST", "postcode": "75568"}}},
{"geometry": {"type": "Point", "coordinates": [-94.1282921464, 33.4434513122]}, "type": "Feature", "properties": {"collection_times": [{"days": "Mon-Fri", "time": "4:00pm"}, {"days": "Sat", "time": "11:00am"}, {"days": "Sun", "time": "Closed"}], "id": "7556900000", "name": "USPS COLLECTION BOX - BLUE BOX", "address": {"city": "NASH", "state": "TX", "street": "1910 N KINGS HWY", "postcode": "75569"}}},
{"geometry": {"type": "Point", "coordinates": [-94.1282921464, 33.4434513122]}, "type": "Feature", "properties": {"collection_times": [{"days": "Mon-Fri", "time": "4:00pm"}, {"days": "Sat", "time": "11:00am"}, {"days": "Sun", "time": "Closed"}], "id": "7556900001", "name": "USPS COLLECTION BOX - BLUE BOX", "address": {"city": "NASH", "state": "TX", "street": "1910 N KINGS HWY", "postcode": "75569"}}},
{"geometry": {"type": "Point", "coordinates": [-94.1282921464, 33.4434513122]}, "type": "Feature", "properties": {"collection_times": [{"days": "Mon-Fri", "time": "4:30pm"}, {"days": "Sat", "time": "11:00am"}, {"days": "Sun", "time": "Closed"}], "id": "7556900004", "name": "USPS COLLECTION BOX - PO LOBBY", "address": {"city": "NASH", "state": "TX", "street": "1910 N KINGS HWY", "postcode": "75569"}}},
{"geometry": {"type": "Point", "coordinates": [-94.4171167322, 33.4598176104]}, "type": "Feature", "properties": {"collection_times": [{"days": "Mon-Fri", "time": "3:45pm"}, {"days": "Sat", "time": "3:00pm"}, {"days": "Sun", "time": "Closed"}], "id": "7557006346", "name": "USPS COLLECTION BOX - BLUE BOX", "address": {"city": "NEW BOSTON", "state": "TX", "street": "115 N WEST ST", "postcode": "75570"}}},
{"geometry": {"type": "Point", "coordinates": [-94.4084351237, 33.4644711253]}, "type": "Feature", "properties": {"collection_times": [{"days": "Mon-Sat", "time": "1:00pm"}, {"days": "Sun", "time": "Closed"}], "id": "7557006348", "name": "USPS COLLECTION BOX - BLUE BOX", "address": {"city": "NEW BOSTON", "state": "TX", "street": "401 N MCCOY BLVD", "postcode": "75570"}}},
{"geometry": {"type": "Point", "coordinates": [-94.4171167322, 33.4598176104]}, "type": "Feature", "properties": {"collection_times": [{"days": "Mon-Fri", "time": "4:15pm"}, {"days": "Sat", "time": "3:00pm"}, {"days": "Sun", "time": "Closed"}], "id": "7557006351", "name": "USPS COLLECTION BOX - PO LOBBY", "address": {"city": "NEW BOSTON", "state": "TX", "street": "115 N WEST ST", "postcode": "75570"}}},
{"geometry": {"type": "Point", "coordinates": [-94.4171167322, 33.4598176104]}, "type": "Feature", "properties": {"collection_times": [{"days": "Mon-Fri", "time": "3:45pm"}, {"days": "Sat", "time": "3:00pm"}, {"days": "Sun", "time": "Closed"}], "id": "7557006352", "name": "USPS COLLECTION BOX - BLUE BOX", "address": {"city": "NEW BOSTON", "state": "TX", "street": "115 N WEST ST", "postcode": "75570"}}},
{"geometry": {"type": "Point", "coordinates": [-94.7438850479, 33.1803662281]}, "type": "Feature", "properties": {"collection_times": [{"days": "Mon-Fri", "time": "4:00pm"}, {"days": "Sat", "time": "9:00am"}, {"days": "Sun", "time": "Closed"}], "id": "7557100000", "name": "USPS COLLECTION BOX - BLUE BOX", "address": {"city": "OMAHA", "state": "TX", "street": "103 E MAIN ST", "postcode": "75571"}}},
{"geometry": {"type": "Point", "coordinates": [-94.7438850479, 33.1803662281]}, "type": "Feature", "properties": {"collection_times": [{"days": "Mon-Fri", "time": "4:00pm"}, {"days": "Sat", "time": "9:00am"}, {"days": "Sun", "time": "Closed"}], "id": "7557100003", "name": "USPS COLLECTION BOX - PO LOBBY", "address": {"city": "OMAHA", "state": "TX", "street": "103 E MAIN ST", "postcode": "75571"}}},
{"geometry": {"type": "Point", "coordinates": [-94.1545952424, 33.1454312742]}, "type": "Feature", "properties": {"collection_times": [{"days": "Mon-Sat", "time": "2:00pm"}, {"days": "Sun", "time": "Closed"}], "id": "7557200000", "name": "USPS COLLECTION BOX - BLUE BOX", "address": {"city": "QUEEN CITY", "state": "TX", "street": "601 LOOP 236", "postcode": "75572"}}},
{"geometry": {"type": "Point", "coordinates": [-94.1345167958, 33.1438637805]}, "type": "Feature", "properties": {"collection_times": [{"days": "Mon-Fri", "time": "3:30pm"}, {"days": "Sat", "time": "9:00am"}, {"days": "Sun", "time": "Closed"}], "id": "7557200001", "name": "USPS COLLECTION BOX - BLUE BOX", "address": {"city": "QUEEN CITY", "state": "TX", "street": "1014 HOUSTON ST", "postcode": "75572"}}},
{"geometry": {"type": "Point", "coordinates": [-94.1345167958, 33.1438637805]}, "type": "Feature", "properties": {"collection_times": [{"days": "Mon-Fri", "time": "4:00pm"}, {"days": "Sat", "time": "9:00am"}, {"days": "Sun", "time": "Closed"}], "id": "7557200003", "name": "USPS COLLECTION BOX - PO LOBBY", "address": {"city": "QUEEN CITY", "state": "TX", "street": "1014 HOUSTON ST", "postcode": "75572"}}},
{"geometry": {"type": "Point", "coordinates": [-94.1426434958, 33.2241176259]}, "type": "Feature", "properties": {"collection_times": [{"days": "Mon-Sat", "time": "12:00pm"}, {"days": "Sun", "time": "Closed"}], "id": "7557200004", "name": "USPS COLLECTION BOX - BLUE BOX", "address": {"city": "QUEEN CITY", "state": "TX", "street": "401 US HIGHWAY 59 S", "postcode": "75572"}}},
{"geometry": {"type": "Point", "coordinates": [-94.2502859914, 33.3638554293]}, "type": "Feature", "properties": {"collection_times": [{"days": "Mon-Sat", "time": "4:00pm"}, {"days": "Sun", "time": "Closed"}], "id": "7557300000", "name": "USPS COLLECTION BOX - BLUE BOX", "address": {"city": "REDWATER", "state": "TX", "street": "115 REDWATER BLVD W", "postcode": "75573"}}},
{"geometry": {"type": "Point", "coordinates": [-94.2502859914, 33.3638554293]}, "type": "Feature", "properties": {"collection_times": [{"days": "Mon-Fri", "time": "2:30pm"}, {"days": "Sat", "time": "10:00am"}, {"days": "Sun", "time": "Closed"}], "id": "7557300001", "name": "USPS COLLECTION BOX - PO LOBBY", "address": {"city": "REDWATER", "state": "TX", "street": "115 REDWATER BLVD W", "postcode": "75573"}}},
{"geometry": {"type": "Point", "coordinates": [-94.5772445817, 33.4738760025]}, "type": "Feature", "properties": {"collection_times": [{"days": "Mon-Sat", "time": "4:00pm"}, {"days": "Sun", "time": "Closed"}], "id": "7557400000", "name": "USPS COLLECTION BOX - BLUE BOX", "address": {"city": "SIMMS", "state": "TX", "street": "7539 US HIGHWAY 67 W", "postcode": "75574"}}},
{"geometry": {"type": "Point", "coordinates": [-94.5772445817, 33.4738760025]}, "type": "Feature", "properties": {"collection_times": [{"days": "Mon-Fri", "time": "1:30pm"}, {"days": "Sat", "time": "8:30am"}, {"days": "Sun", "time": "Closed"}], "id": "7557400001", "name": "USPS COLLECTION BOX - PO LOBBY", "address": {"city": "SIMMS", "state": "TX", "street": "7539 US HIGHWAY 67 W", "postcode": "75574"}}},
{"geometry": {"type": "Point", "coordinates": [-94.5772445817, 33.4738760025]}, "type": "Feature", "properties": {"collection_times": [{"days": "Mon-Fri", "time": "1:30pm"}, {"days": "Sat", "time": "8:30am"}, {"days": "Sun", "time": "Closed"}], "id": "7557400002", "name": "USPS COLLECTION BOX - PO LOBBY", "address": {"city": "SIMMS", "state": "TX", "street": "7539 US HIGHWAY 67 W", "postcode": "75574"}}}
]}
