{"type": "FeatureCollection", "features": [
{"geometry": {"type": "Point", "coordinates": [-94.7389954741, 32.494820738]}, "type": "Feature", "properties": {"collection_times": [{"days": "Mon-Sat", "time": "9:00am"}, {"days": "Sun", "time": "Closed"}], "id": "7560100001", "name": "USPS COLLECTION BOX - BLUE BOX", "address": {"city": "LONGVIEW", "state": "TX", "street": "140 E TYLER ST", "postcode": "75601"}}},
{"geometry": {"type": "Point", "coordinates": [-94.738285101, 32.5094267939]}, "type": "Feature", "properties": {"collection_times": [{"days": "Mon-Sat", "time": "1:00pm"}, {"days": "Sun", "time": "Closed"}], "id": "7560100011", "name": "USPS COLLECTION BOX - BLUE BOX", "address": {"city": "LONGVIEW", "state": "TX", "street": "1121 JUDSON RD", "postcode": "75601"}}},
{"geometry": {"type": "Point", "coordinates": [-94.738285101, 32.5094267939]}, "type": "Feature", "properties": {"collection_times": [{"days": "Mon-Fri", "time": "3:00pm"}, {"days": "Sat", "time": "1:00pm"}, {"days": "Sun", "time": "Closed"}], "id": "7560100012", "name": "USPS COLLECTION BOX - BLUE BOX", "address": {"city": "LONGVIEW", "state": "TX", "street": "1121 JUDSON RD", "postcode": "75601"}}},
{"geometry": {"type": "Point", "coordinates": [-94.7110777963, 32.5133265402]}, "type": "Feature", "properties": {"collection_times": [{"days": "Mon-Sat", "time": "1:00pm"}, {"days": "Sun", "time": "Closed"}], "id": "7560100013", "name": "USPS COLLECTION BOX - BLUE BOX", "address": {"city": "LONGVIEW", "state": "TX", "street": "1005 N EASTMAN RD", "postcode": "75601"}}},
{"geometry": {"type": "Point", "coordinates": [-94.7497426563, 32.4990770243]}, "type": "Feature", "properties": {"collection_times": [{"days": "Mon-Sat", "time": "9:00am"}, {"days": "Sun", "time": "Closed"}], "id": "7560100014", "name": "USPS COLLECTION BOX - BLUE BOX", "address": {"city": "LONGVIEW", "state": "TX", "street": "701 E MARSHALL AVE", "postcode": "75601"}}},
{"geometry": {"type": "Point", "coordinates": [-94.7393491788, 32.5155012266]}, "type": "Feature", "properties": {"collection_times": [{"days": "Mon-Fri", "time": "3:00pm"}, {"days": "Sat", "time": "1:00pm"}, {"days": "Sun", "time": "Closed"}], "id": "7560100017", "name": "USPS COLLECTION BOX - BLUE BOX", "address": {"city": "LONGVIEW", "state": "TX", "street": "1315 JUDSON RD", "postcode": "75601"}}},
{"geometry": {"type": "Point", "coordinates": [-94.7393491788, 32.5155012266]}, "type": "Feature", "properties": {"collection_times": [{"days": "Mon-Fri", "time": "3:00pm"}, {"days": "Sat", "time": "1:00pm"}, {"days": "Sun", "time": "Closed"}], "id": "7560100018", "name": "USPS COLLECTION BOX - BLUE BOX", "address": {"city": "LONGVIEW", "state": "TX", "street": "1315 JUDSON RD", "postcode": "75601"}}},
{"geometry": {"type": "Point", "coordinates": [-94.7393491788, 32.5155012266]}, "type": "Feature", "properties": {"collection_times": [{"days": "Mon-Fri", "time": "3:00pm"}, {"days": "Sat", "time": "1:00pm"}, {"days": "Sun", "time": "Closed"}], "id": "7560100019", "name": "USPS COLLECTION BOX - BLUE BOX", "address": {"city": "LONGVIEW", "state": "TX", "street": "1315 JUDSON RD", "postcode": "75601"}}},
{"geometry": {"type": "Point", "coordinates": [-94.7493912105, 32.5115634732]}, "type": "Feature", "properties": {"collection_times": [{"days": "Mon-Fri", "time": "3:00pm"}, {"days": "Sat", "time": "1:00pm"}, {"days": "Sun", "time": "Closed"}], "id": "7560100020", "name": "USPS COLLECTION BOX - BLUE BOX", "address": {"city": "LONGVIEW", "state": "TX", "street": "1400 MCCANN RD", "postcode": "75601"}}},
{"geometry": {"type": "Point", "coordinates": [-94.7426033238, 32.5264999359]}, "type": "Feature", "properties": {"collection_times": [{"days": "Mon-Fri", "time": "3:00pm"}, {"days": "Sat", "time": "1:00pm"}, {"days": "Sun", "time": "Closed"}], "id": "7560100021", "name": "USPS COLLECTION BOX - BLUE BOX", "address": {"city": "LONGVIEW", "state": "TX", "street": "1709 JUDSON RD", "postcode": "75601"}}},
{"geometry": {"type": "Point", "coordinates": [-94.7377841241, 32.4957186038]}, "type": "Feature", "properties": {"collection_times": [{"days": "Mon-Fri", "time": "5:00pm"}, {"days": "Sat", "time": "1:00pm"}, {"days": "Sun", "time": "Closed"}], "id": "7560100022", "name": "USPS COLLECTION BOX - BLUE BOX", "address": {"city": "LONGVIEW", "state": "TX", "street": "201 E METHVIN ST", "postcode": "75601"}}},
{"geometry": {"type": "Point", "coordinates": [-94.7377841241, 32.4957186038]}, "type": "Feature", "properties": {"collection_times": [{"days": "Mon-Fri", "time": "5:00pm"}, {"days": "Sat", "time": "1:00pm"}, {"days": "Sun", "time": "Closed"}], "id": "7560100023", "name": "USPS COLLECTION BOX - BLUE BOX", "address": {"city": "LONGVIEW", "state": "TX", "street": "201 E METHVIN ST", "postcode": "75601"}}},
{"geometry": {"type": "Point", "coordinates": [-94.7377841241, 32.4957186038]}, "type": "Feature", "properties": {"collection_times": [{"days": "Mon-Fri", "time": "5:00pm"}, {"days": "Sat", "time": "1:00pm"}, {"days": "Sun", "time": "Closed"}], "id": "7560100024", "name": "USPS COLLECTION BOX - BLUE BOX", "address": {"city": "LONGVIEW", "state": "TX", "street": "201 E METHVIN ST", "postcode": "75601"}}},
{"geometry": {"type": "Point", "coordinates": [-94.7377841241, 32.4957186038]}, "type": "Feature", "properties": {"collection_times": [{"days": "Mon-Fri", "time": "5:00pm"}, {"days": "Sat", "time": "1:00pm"}, {"days": "Sun", "time": "Closed"}], "id": "7560100025", "name": "USPS COLLECTION BOX - BLUE BOX", "address": {"city": "LONGVIEW", "state": "TX", "street": "201 E METHVIN ST", "postcode": "75601"}}},
{"geometry": {"type": "Point", "coordinates": [-94.7377841241, 32.4957186038]}, "type": "Feature", "properties": {"collection_times": [{"days": "Mon-Fri", "time": "5:00pm"}, {"days": "Sat", "time": "9:30am"}, {"days": "Sun", "time": "Closed"}], "id": "7560100026", "name": "USPS COLLECTION BOX - PO LOBBY", "address": {"city": "LONGVIEW", "state": "TX", "street": "201 E METHVIN ST", "postcode": "75601"}}},
{"geometry": {"type": "Point", "coordinates": [-94.7377841241, 32.4957186038]}, "type": "Feature", "properties": {"collection_times": [{"days": "Mon-Fri", "time": "5:00pm"}, {"days": "Sat", "time": "9:30am"}, {"days": "Sun", "time": "Closed"}], "id": "7560100027", "name": "USPS COLLECTION BOX - PO LOBBY", "address": {"city": "LONGVIEW", "state": "TX", "street": "201 E METHVIN ST", "postcode": "75601"}}},
{"geometry": {"type": "Point", "coordinates": [-94.7427620154, 32.4960734915]}, "type": "Feature", "properties": {"collection_times": [{"days": "Mon-Sat", "time": "9:00am"}, {"days": "Sun", "time": "Closed"}], "id": "7560100031", "name": "USPS COLLECTION BOX - BLUE BOX", "address": {"city": "LONGVIEW", "state": "TX", "street": "211 E TYLER ST", "postcode": "75601"}}},
{"geometry": {"type": "Point", "coordinates": [-94.7110777963, 32.5133265402]}, "type": "Feature", "properties": {"collection_times": [{"days": "Mon-Sat", "time": "1:00pm"}, {"days": "Sun", "time": "Closed"}], "id": "7560100033", "name": "USPS COLLECTION BOX - BLUE BOX", "address": {"city": "LONGVIEW", "state": "TX", "street": "1005 N EASTMAN RD", "postcode": "75601"}}},
{"geometry": {"type": "Point", "coordinates": [-94.7426033238, 32.5264999359]}, "type": "Feature", "properties": {"collection_times": [{"days": "Mon-Fri", "time": "3:00pm"}, {"days": "Sat", "time": "1:00pm"}, {"days": "Sun", "time": "Closed"}], "id": "7560100034", "name": "USPS COLLECTION BOX - BLUE BOX", "address": {"city": "LONGVIEW", "state": "TX", "street": "1709 JUDSON RD", "postcode": "75601"}}},
{"geometry": {"type": "Point", "coordinates": [-94.7493912105, 32.5115634732]}, "type": "Feature", "properties": {"collection_times": [{"days": "Mon-Fri", "time": "3:00pm"}, {"days": "Sat", "time": "1:00pm"}, {"days": "Sun", "time": "Closed"}], "id": "7560100035", "name": "USPS COLLECTION BOX - BLUE BOX", "address": {"city": "LONGVIEW", "state": "TX", "street": "1400 MCCANN RD", "postcode": "75601"}}},
{"geometry": {"type": "Point", "coordinates": [-94.7436291244, 32.4825333432]}, "type": "Feature", "properties": {"collection_times": [{"days": "Mon-Sat", "time": "1:00pm"}, {"days": "Sun", "time": "Closed"}], "id": "7560207165", "name": "USPS COLLECTION BOX - BLUE BOX", "address": {"city": "LONGVIEW", "state": "TX", "street": "901 S HIGH ST", "postcode": "75602"}}},
{"geometry": {"type": "Point", "coordinates": [-94.7313133386, 32.4623934668]}, "type": "Feature", "properties": {"collection_times": [{"days": "Mon-Fri", "time": "5:00pm"}, {"days": "Sat", "time": "1:00pm"}, {"days": "Sun", "time": "Closed"}], "id": "7560207230", "name": "USPS COLLECTION BOX - PO LOBBY", "address": {"city": "LONGVIEW", "state": "TX", "street": "2336 S MOBBERLY AVE", "postcode": "75602"}}},
{"geometry": {"type": "Point", "coordinates": [-94.7313133386, 32.4623934668]}, "type": "Feature", "properties": {"collection_times": [{"days": "Mon-Fri", "time": "5:00pm"}, {"days": "Sat", "time": "1:00pm"}, {"days": "Sun", "time": "Closed"}], "id": "7560207231", "name": "USPS COLLECTION BOX - PO LOBBY", "address": {"city": "LONGVIEW", "state": "TX", "street": "2336 S MOBBERLY AVE", "postcode": "75602"}}},
{"geometry": {"type": "Point", "coordinates": [-94.7313133386, 32.4623934668]}, "type": "Feature", "properties": {"collection_times": [{"days": "Mon-Fri", "time": "5:00pm"}, {"days": "Sat", "time": "1:00pm"}, {"days": "Sun", "time": "Closed"}], "id": "7560207232", "name": "USPS COLLECTION BOX - BLUE BOX", "address": {"city": "LONGVIEW", "state": "TX", "street": "2336 S MOBBERLY AVE", "postcode": "75602"}}},
{"geometry": {"type": "Point", "coordinates": [-94.7313133386, 32.4623934668]}, "type": "Feature", "properties": {"collection_times": [{"days": "Mon-Fri", "time": "5:00pm"}, {"days": "Sat", "time": "1:00pm"}, {"days": "Sun", "time": "Closed"}], "id": "7560207234", "name": "USPS COLLECTION BOX - BLUE BOX", "address": {"city": "LONGVIEW", "state": "TX", "street": "2336 S MOBBERLY AVE", "postcode": "75602"}}},
{"geometry": {"type": "Point", "coordinates": [-94.7313133386, 32.4623934668]}, "type": "Feature", "properties": {"collection_times": [{"days": "Mon-Fri", "time": "5:00pm"}, {"days": "Sat", "time": "1:00pm"}, {"days": "Sun", "time": "Closed"}], "id": "7560207236", "name": "USPS COLLECTION BOX - BLUE BOX", "address": {"city": "LONGVIEW", "state": "TX", "street": "2336 S MOBBERLY AVE", "postcode": "75602"}}},
{"geometry": {"type": "Point", "coordinates": [-94.7416831569, 32.4707167661]}, "type": "Feature", "properties": {"collection_times": [{"days": "Mon-Sat", "time": "1:00pm"}, {"days": "Sun", "time": "Closed"}], "id": "7560207238", "name": "USPS COLLECTION BOX - BLUE BOX", "address": {"city": "LONGVIEW", "state": "TX", "street": "1800 S HIGH ST", "postcode": "75602"}}},
{"geometry": {"type": "Point", "coordinates": [-94.706969226, 32.4148278698]}, "type": "Feature", "properties": {"collection_times": [{"days": "Mon-Sat", "time": "11:00am"}, {"days": "Sun", "time": "Closed"}], "id": "7560300001", "name": "USPS COLLECTION BOX - BLUE BOX", "address": {"city": "LONGVIEW", "state": "TX", "street": "5001 ESTES PKWY", "postcode": "75603"}}},
{"geometry": {"type": "Point", "coordinates": [-94.7647958091, 32.5255705733]}, "type": "Feature", "properties": {"collection_times": [{"days": "Mon-Fri", "time": "3:00pm"}, {"days": "Sat-Sun", "time": "Closed"}], "id": "7560400000", "name": "USPS COLLECTION BOX - BLUE BOX", "address": {"city": "LONGVIEW", "state": "TX", "street": "2020 BILL OWENS PKWY", "postcode": "75604"}}},
{"geometry": {"type": "Point", "coordinates": [-94.7910563152, 32.5068892854]}, "type": "Feature", "properties": {"collection_times": [{"days": "Mon-Fri", "time": "3:00pm"}, {"days": "Sat", "time": "10:00am"}, {"days": "Sun", "time": "Closed"}], "id": "7560400001", "name": "USPS COLLECTION BOX - BLUE BOX", "address": {"city": "LONGVIEW", "state": "TX", "street": "3400 W MARSHALL AVE", "postcode": "75604"}}},
{"geometry": {"type": "Point", "coordinates": [-94.7910563152, 32.5068892854]}, "type": "Feature", "properties": {"collection_times": [{"days": "Mon-Fri", "time": "3:00pm"}, {"days": "Sat", "time": "10:00am"}, {"days": "Sun", "time": "Closed"}], "id": "7560400002", "name": "USPS COLLECTION BOX - BLUE BOX", "address": {"city": "LONGVIEW", "state": "TX", "street": "3400 W MARSHALL AVE", "postcode": "75604"}}},
{"geometry": {"type": "Point", "coordinates": [-94.7582682416, 32.497011578]}, "type": "Feature", "properties": {"collection_times": [{"days": "Mon-Fri", "time": "10:00am"}, {"days": "Sat-Sun", "time": "Closed"}], "id": "7560400005", "name": "USPS COLLECTION BOX - BLUE BOX", "address": {"city": "LONGVIEW", "state": "TX", "street": "804 W COTTON ST", "postcode": "75604"}}},
{"geometry": {"type": "Point", "coordinates": [-94.8049470934, 32.5248197245]}, "type": "Feature", "properties": {"collection_times": [{"days": "Mon-Fri", "time": "3:00pm"}, {"days": "Sat", "time": "10:00am"}, {"days": "Sun", "time": "Closed"}], "id": "7560400011", "name": "USPS COLLECTION BOX - BLUE BOX", "address": {"city": "LONGVIEW", "state": "TX", "street": "1800 PINE TREE RD", "postcode": "75604"}}},
{"geometry": {"type": "Point", "coordinates": [-94.7988839547, 32.5470554741]}, "type": "Feature", "properties": {"collection_times": [{"days": "Mon-Fri", "time": "3:00pm"}, {"days": "Sat", "time": "10:00am"}, {"days": "Sun", "time": "Closed"}], "id": "7560400015", "name": "USPS COLLECTION BOX - BLUE BOX", "address": {"city": "LONGVIEW", "state": "TX", "street": "3354 GILMER RD", "postcode": "75604"}}},
{"geometry": {"type": "Point", "coordinates": [-94.7988839547, 32.5470554741]}, "type": "Feature", "properties": {"collection_times": [{"days": "Mon-Fri", "time": "3:00pm"}, {"days": "Sat", "time": "10:00am"}, {"days": "Sun", "time": "Closed"}], "id": "7560400016", "name": "USPS COLLECTION BOX - BLUE BOX", "address": {"city": "LONGVIEW", "state": "TX", "street": "3354 GILMER RD", "postcode": "75604"}}},
{"geometry": {"type": "Point", "coordinates": [-94.7824966128, 32.5246469745]}, "type": "Feature", "properties": {"collection_times": [{"days": "Mon-Sat", "time": "9:00am"}, {"days": "Sun", "time": "Closed"}], "id": "7560400017", "name": "USPS COLLECTION BOX - BLUE BOX", "address": {"city": "LONGVIEW", "state": "TX", "street": "1800 W LOOP 281", "postcode": "75604"}}},
{"geometry": {"type": "Point", "coordinates": [-94.7849232478, 32.5229186254]}, "type": "Feature", "properties": {"collection_times": [{"days": "Mon-Sat", "time": "9:00am"}, {"days": "Sun", "time": "Closed"}], "id": "7560400022", "name": "USPS COLLECTION BOX - BLUE BOX", "address": {"city": "LONGVIEW", "state": "TX", "street": "1905 W LOOP 281", "postcode": "75604"}}},
{"geometry": {"type": "Point", "coordinates": [-94.7646302086, 32.5379320056]}, "type": "Feature", "properties": {"collection_times": [{"days": "Mon-Fri", "time": "3:00pm"}, {"days": "Sat-Sun", "time": "Closed"}], "id": "7560400030", "name": "USPS COLLECTION BOX - BLUE BOX", "address": {"city": "LONGVIEW", "state": "TX", "street": "911 W LOOP 281", "postcode": "75604"}}},
{"geometry": {"type": "Point", "coordinates": [-94.7475399181, 32.5422328908]}, "type": "Feature", "properties": {"collection_times": [{"days": "Mon-Fri", "time": "9:00am"}, {"days": "Sat", "time": "10:00am"}, {"days": "Sun", "time": "Closed"}], "id": "7560500001", "name": "USPS COLLECTION BOX - BLUE BOX", "address": {"city": "LONGVIEW", "state": "TX", "street": "109 W LOOP 281", "postcode": "75605"}}},
{"geometry": {"type": "Point", "coordinates": [-94.74899046, 32.5421878464]}, "type": "Feature", "properties": {"collection_times": [{"days": "Mon-Fri", "time": "1:00pm"}, {"days": "Sat", "time": "10:00am"}, {"days": "Sun", "time": "Closed"}], "id": "7560500002", "name": "USPS COLLECTION BOX - BLUE BOX", "address": {"city": "LONGVIEW", "state": "TX", "street": "109 W LOOP 281", "postcode": "75605"}}},
{"geometry": {"type": "Point", "coordinates": [-94.7681116431, 32.5384033122]}, "type": "Feature", "properties": {"collection_times": [{"days": "Mon-Fri", "time": "3:00pm"}, {"days": "Sat", "time": "10:00am"}, {"days": "Sun", "time": "Closed"}], "id": "7560500003", "name": "USPS COLLECTION BOX - BLUE BOX", "address": {"city": "LONGVIEW", "state": "TX", "street": "2800 BILL OWENS PKWY", "postcode": "75605"}}},
{"geometry": {"type": "Point", "coordinates": [-94.7558088699, 32.5409703331]}, "type": "Feature", "properties": {"collection_times": [{"days": "Mon-Fri", "time": "1:00pm"}, {"days": "Sat", "time": "9:00am"}, {"days": "Sun", "time": "Closed"}], "id": "7560500006", "name": "USPS COLLECTION BOX - BLUE BOX", "address": {"city": "LONGVIEW", "state": "TX", "street": "405 W LOOP 281", "postcode": "75605"}}},
{"geometry": {"type": "Point", "coordinates": [-94.7645438389, 32.5608889962]}, "type": "Feature", "properties": {"collection_times": [{"days": "Mon-Fri", "time": "5:00pm"}, {"days": "Sat", "time": "1:00pm"}, {"days": "Sun", "time": "Closed"}], "id": "7560500010", "name": "USPS COLLECTION BOX - BLUE BOX", "address": {"city": "LONGVIEW", "state": "TX", "street": "4501 MCCANN RD", "postcode": "75605"}}},
{"geometry": {"type": "Point", "coordinates": [-94.7645438389, 32.5608889962]}, "type": "Feature", "properties": {"collection_times": [{"days": "Mon-Fri", "time": "5:00pm"}, {"days": "Sat", "time": "1:00pm"}, {"days": "Sun", "time": "Closed"}], "id": "7560500011", "name": "USPS COLLECTION BOX - BLUE BOX", "address": {"city": "LONGVIEW", "state": "TX", "street": "4501 MCCANN RD", "postcode": "75605"}}},
{"geometry": {"type": "Point", "coordinates": [-94.7645438389, 32.5608889962]}, "type": "Feature", "properties": {"collection_times": [{"days": "Mon-Fri", "time": "5:00pm"}, {"days": "Sat", "time": "1:00pm"}, {"days": "Sun", "time": "Closed"}], "id": "7560500012", "name": "USPS COLLECTION BOX - BLUE BOX", "address": {"city": "LONGVIEW", "state": "TX", "street": "4501 MCCANN RD", "postcode": "75605"}}},
{"geometry": {"type": "Point", "coordinates": [-94.7645438389, 32.5608889962]}, "type": "Feature", "properties": {"collection_times": [{"days": "Mon-Fri", "time": "5:00pm"}, {"days": "Sat", "time": "1:00pm"}, {"days": "Sun", "time": "Closed"}], "id": "7560500013", "name": "USPS COLLECTION BOX - BLUE BOX", "address": {"city": "LONGVIEW", "state": "TX", "street": "4501 MCCANN RD", "postcode": "75605"}}},
{"geometry": {"type": "Point", "coordinates": [-94.7645438389, 32.5608889962]}, "type": "Feature", "properties": {"collection_times": [{"days": "Mon-Fri", "time": "5:00pm"}, {"days": "Sat", "time": "1:00pm"}, {"days": "Sun", "time": "Closed"}], "id": "7560500014", "name": "USPS COLLECTION BOX - PO LOBBY", "address": {"city": "LONGVIEW", "state": "TX", "street": "4501 MCCANN RD", "postcode": "75605"}}},
{"geometry": {"type": "Point", "coordinates": [-94.7645438389, 32.5608889962]}, "type": "Feature", "properties": {"collection_times": [{"days": "Mon-Fri", "time": "5:00pm"}, {"days": "Sat", "time": "1:00pm"}, {"days": "Sun", "time": "Closed"}], "id": "7560500015", "name": "USPS COLLECTION BOX - PO LOBBY", "address": {"city": "LONGVIEW", "state": "TX", "street": "4501 MCCANN RD", "postcode": "75605"}}},
{"geometry": {"type": "Point", "coordinates": [-94.7681116431, 32.5384033122]}, "type": "Feature", "properties": {"collection_times": [{"days": "Mon-Fri", "time": "3:00pm"}, {"days": "Sat", "time": "10:00am"}, {"days": "Sun", "time": "Closed"}], "id": "7560500020", "name": "USPS COLLECTION BOX - BLUE BOX", "address": {"city": "LONGVIEW", "state": "TX", "street": "2800 BILL OWENS PKWY", "postcode": "75605"}}},
{"geometry": {"type": "Point", "coordinates": [-94.7681116431, 32.5384033122]}, "type": "Feature", "properties": {"collection_times": [{"days": "Mon-Fri", "time": "3:00pm"}, {"days": "Sat", "time": "10:00am"}, {"days": "Sun", "time": "Closed"}], "id": "7560500021", "name": "USPS COLLECTION BOX - BLUE BOX", "address": {"city": "LONGVIEW", "state": "TX", "street": "2800 BILL OWENS PKWY", "postcode": "75605"}}},
{"geometry": {"type": "Point", "coordinates": [-94.6616636631, 32.5046724526]}, "type": "Feature", "properties": {"collection_times": [{"days": "Mon-Sat", "time": "1:00pm"}, {"days": "Sun", "time": "Closed"}], "id": "7560500025", "name": "USPS COLLECTION BOX - BLUE BOX", "address": {"city": "LONGVIEW", "state": "TX", "street": "101 COMMUNITY BLVD", "postcode": "75605"}}},
{"geometry": {"type": "Point", "coordinates": [-94.6616636631, 32.5046724526]}, "type": "Feature", "properties": {"collection_times": [{"days": "Mon-Sat", "time": "1:00pm"}, {"days": "Sun", "time": "Closed"}], "id": "7560500026", "name": "USPS COLLECTION BOX - BLUE BOX", "address": {"city": "LONGVIEW", "state": "TX", "street": "101 COMMUNITY BLVD", "postcode": "75605"}}},
{"geometry": {"type": "Point", "coordinates": [-94.7307573479, 32.5433327022]}, "type": "Feature", "properties": {"collection_times": [{"days": "Mon-Fri", "time": "3:00pm"}, {"days": "Sat", "time": "10:00am"}, {"days": "Sun", "time": "Closed"}], "id": "7560500028", "name": "USPS COLLECTION BOX - BLUE BOX", "address": {"city": "LONGVIEW", "state": "TX", "street": "3313 N 4TH ST", "postcode": "75605"}}},
{"geometry": {"type": "Point", "coordinates": [-94.7307573479, 32.5433327022]}, "type": "Feature", "properties": {"collection_times": [{"days": "Mon-Fri", "time": "3:00pm"}, {"days": "Sat", "time": "10:00am"}, {"days": "Sun", "time": "Closed"}], "id": "7560500029", "name": "USPS COLLECTION BOX - BLUE BOX", "address": {"city": "LONGVIEW", "state": "TX", "street": "3313 N 4TH ST", "postcode": "75605"}}},
{"geometry": {"type": "Point", "coordinates": [-94.7314825017, 32.5320638351]}, "type": "Feature", "properties": {"collection_times": [{"days": "Mon-Fri", "time": "3:00pm"}, {"days": "Sat", "time": "9:00am"}, {"days": "Sun", "time": "Closed"}], "id": "7560500030", "name": "USPS COLLECTION BOX - BLUE BOX", "address": {"city": "LONGVIEW", "state": "TX", "street": "707 HOLLYBROOK DR", "postcode": "75605"}}},
{"geometry": {"type": "Point", "coordinates": [-94.5332474144, 32.9155233234]}, "type": "Feature", "properties": {"collection_times": [{"days": "Mon-Fri", "time": "4:00pm"}, {"days": "Sat", "time": "9:00am"}, {"days": "Sun", "time": "Closed"}], "id": "7563000000", "name": "USPS COLLECTION BOX - BLUE BOX", "address": {"city": "AVINGER", "state": "TX", "street": "102 TEXAS HIGHWAY 155", "postcode": "75630"}}},
{"geometry": {"type": "Point", "coordinates": [-94.5861628493, 32.8788995459]}, "type": "Feature", "properties": {"collection_times": [{"days": "Mon-Sat", "time": "1:00pm"}, {"days": "Sun", "time": "Closed"}], "id": "7563000002", "name": "USPS COLLECTION BOX - BLUE BOX", "address": {"city": "AVINGER", "state": "TX", "street": "150 SLAMPA DR", "postcode": "75630"}}},
{"geometry": {"type": "Point", "coordinates": [-94.5332474144, 32.9155233234]}, "type": "Feature", "properties": {"collection_times": [{"days": "Mon-Fri", "time": "4:00pm"}, {"days": "Sat", "time": "9:00am"}, {"days": "Sun", "time": "Closed"}], "id": "7563000004", "name": "USPS COLLECTION BOX - PO LOBBY", "address": {"city": "AVINGER", "state": "TX", "street": "102 TEXAS HIGHWAY 155", "postcode": "75630"}}},
{"geometry": {"type": "Point", "coordinates": [-94.4564336811, 32.2422731705]}, "type": "Feature", "properties": {"collection_times": [{"days": "Mon-Fri", "time": "4:00pm"}, {"days": "Sat", "time": "10:00am"}, {"days": "Sun", "time": "Closed"}], "id": "7563100000", "name": "USPS COLLECTION BOX - BLUE BOX", "address": {"city": "BECKVILLE", "state": "TX", "street": "125 S WASHINGTON ST", "postcode": "75631"}}},
{"geometry": {"type": "Point", "coordinates": [-94.4564336811, 32.2422731705]}, "type": "Feature", "properties": {"collection_times": [{"days": "Mon-Fri", "time": "4:00pm"}, {"days": "Sat", "time": "10:00am"}, {"days": "Sun", "time": "Closed"}], "id": "7563100001", "name": "USPS COLLECTION BOX - PO LOBBY", "address": {"city": "BECKVILLE", "state": "TX", "street": "125 S WASHINGTON ST", "postcode": "75631"}}},
{"geometry": {"type": "Point", "coordinates": [-94.4564336811, 32.2422731705]}, "type": "Feature", "properties": {"collection_times": [{"days": "Mon-Fri", "time": "4:00pm"}, {"days": "Sat", "time": "10:00am"}, {"days": "Sun", "time": "Closed"}], "id": "7563100002", "name": "USPS COLLECTION BOX - PO LOBBY", "address": {"city": "BECKVILLE", "state": "TX", "street": "125 S WASHINGTON ST", "postcode": "75631"}}},
{"geometry": {"type": "Point", "coordinates": [-94.3383805763, 32.1552929145]}, "type": "Feature", "properties": {"collection_times": [{"days": "Mon-Fri", "time": "5:00pm"}, {"days": "Sat", "time": "3:00pm"}, {"days": "Sun", "time": "Closed"}], "id": "7563306490", "name": "USPS COLLECTION BOX - BLUE BOX", "address": {"city": "CARTHAGE", "state": "TX", "street": "109 W WELLINGTON ST", "postcode": "75633"}}},
{"geometry": {"type": "Point", "coordinates": [-94.3408438472, 32.1560632727]}, "type": "Feature", "properties": {"collection_times": [{"days": "Mon-Fri", "time": "3:00pm"}, {"days": "Sat-Sun", "time": "Closed"}], "id": "7563306494", "name": "USPS COLLECTION BOX - BLUE BOX", "address": {"city": "CARTHAGE", "state": "TX", "street": "110 S SYCAMORE ST", "postcode": "75633"}}},
{"geometry": {"type": "Point", "coordinates": [-94.3483730641, 32.157151167]}, "type": "Feature", "properties": {"collection_times": [{"days": "Mon-Fri", "time": "3:00pm"}, {"days": "Sat-Sun", "time": "Closed"}], "id": "7563306495", "name": "USPS COLLECTION BOX - BLUE BOX", "address": {"city": "CARTHAGE", "state": "TX", "street": "615 W PANOLA ST", "postcode": "75633"}}},
{"geometry": {"type": "Point", "coordinates": [-94.338615396, 32.15657356]}, "type": "Feature", "properties": {"collection_times": [{"days": "Mon-Fri", "time": "3:00pm"}, {"days": "Sat-Sun", "time": "Closed"}], "id": "7563306496", "name": "USPS COLLECTION BOX - BLUE BOX", "address": {"city": "CARTHAGE", "state": "TX", "street": "101 W SABINE ST", "postcode": "75633"}}},
{"geometry": {"type": "Point", "coordinates": [-94.3383805763, 32.1552929145]}, "type": "Feature", "properties": {"collection_times": [{"days": "Mon-Fri", "time": "5:00pm"}, {"days": "Sat", "time": "3:00pm"}, {"days": "Sun", "time": "Closed"}], "id": "7563307326", "name": "USPS COLLECTION BOX - BLUE BOX", "address": {"city": "CARTHAGE", "state": "TX", "street": "109 W WELLINGTON ST", "postcode": "75633"}}},
{"geometry": {"type": "Point", "coordinates": [-94.3383805763, 32.1552929145]}, "type": "Feature", "properties": {"collection_times": [{"days": "Mon-Fri", "time": "5:00pm"}, {"days": "Sat", "time": "3:00pm"}, {"days": "Sun", "time": "Closed"}], "id": "7563307328", "name": "USPS COLLECTION BOX - PO LOBBY", "address": {"city": "CARTHAGE", "state": "TX", "street": "109 W WELLINGTON ST", "postcode": "75633"}}},
{"geometry": {"type": "Point", "coordinates": [-94.3383805763, 32.1552929145]}, "type": "Feature", "properties": {"collection_times": [{"days": "Mon-Fri", "time": "5:00pm"}, {"days": "Sat", "time": "3:00pm"}, {"days": "Sun", "time": "Closed"}], "id": "7563307333", "name": "USPS COLLECTION BOX - PO LOBBY", "address": {"city": "CARTHAGE", "state": "TX", "street": "109 W WELLINGTON ST", "postcode": "75633"}}},
{"geometry": {"type": "Point", "coordinates": [-94.8132597049, 33.0385460539]}, "type": "Feature", "properties": {"collection_times": [{"days": "Mon-Fri", "time": "4:00pm"}, {"days": "Sat", "time": "7:30am"}, {"days": "Sun", "time": "Closed"}], "id": "7563600000", "name": "USPS COLLECTION BOX - BLUE BOX", "address": {"city": "CASON", "state": "TX", "street": "4334 TEXAS STATE HIGHWAY 11 W", "postcode": "75636"}}},
{"geometry": {"type": "Point", "coordinates": [-94.8132597049, 33.0385460539]}, "type": "Feature", "properties": {"collection_times": [{"days": "Mon-Fri", "time": "11:30am"}, {"days": "Sat", "time": "7:30am"}, {"days": "Sun", "time": "Closed"}], "id": "7563600002", "name": "USPS COLLECTION BOX - PO LOBBY", "address": {"city": "CASON", "state": "TX", "street": "4334 TEXAS STATE HIGHWAY 11 W", "postcode": "75636"}}},
{"geometry": {"type": "Point", "coordinates": [-94.4754439148, 32.0984424476]}, "type": "Feature", "properties": {"collection_times": [{"days": "Mon-Fri", "time": "3:30pm"}, {"days": "Sat", "time": "8:30am"}, {"days": "Sun", "time": "Closed"}], "id": "7563700000", "name": "USPS COLLECTION BOX - BLUE BOX", "address": {"city": "CLAYTON", "state": "TX", "street": "4535 W HIGHWAY 315", "postcode": "75637"}}},
{"geometry": {"type": "Point", "coordinates": [-94.4754439148, 32.0984424476]}, "type": "Feature", "properties": {"collection_times": [{"days": "Mon-Fri", "time": "12:30pm"}, {"days": "Sat", "time": "8:30am"}, {"days": "Sun", "time": "Closed"}], "id": "7563700001", "name": "USPS COLLECTION BOX - PO LOBBY", "address": {"city": "CLAYTON", "state": "TX", "street": "4535 W HIGHWAY 315", "postcode": "75637"}}},
{"geometry": {"type": "Point", "coordinates": [-94.7302499638, 33.0292103923]}, "type": "Feature", "properties": {"collection_times": [{"days": "Mon-Fri", "time": "3:30pm"}, {"days": "Sat", "time": "12:00pm"}, {"days": "Sun", "time": "Closed"}], "id": "7563806498", "name": "USPS COLLECTION BOX - BLUE BOX", "address": {"city": "DAINGERFIELD", "state": "TX", "street": "214 W SCURRY ST", "postcode": "75638"}}},
{"geometry": {"type": "Point", "coordinates": [-94.7302499638, 33.0292103923]}, "type": "Feature", "properties": {"collection_times": [{"days": "Mon-Fri", "time": "2:00pm"}, {"days": "Sat-Sun", "time": "Closed"}], "id": "7563806499", "name": "USPS COLLECTION BOX - BLUE BOX", "address": {"city": "DAINGERFIELD", "state": "TX", "street": "203 E W M WATSON BLVD", "postcode": "75638"}}},
{"geometry": {"type": "Point", "coordinates": [-94.7258814404, 33.0351711535]}, "type": "Feature", "properties": {"collection_times": [{"days": "Mon-Fri", "time": "2:00pm"}, {"days": "Sat", "time": "1:00pm"}, {"days": "Sun", "time": "Closed"}], "id": "7563806500", "name": "USPS COLLECTION BOX - BLUE BOX", "address": {"city": "DAINGERFIELD", "state": "TX", "street": "500 BROADNAX ST", "postcode": "75638"}}},
{"geometry": {"type": "Point", "coordinates": [-94.7222040783, 33.0318397522]}, "type": "Feature", "properties": {"collection_times": [{"days": "Mon-Fri", "time": "12:00pm"}, {"days": "Sat-Sun", "time": "Closed"}], "id": "7563806501", "name": "USPS COLLECTION BOX - BLUE BOX", "address": {"city": "DAINGERFIELD", "state": "TX", "street": "100 WEBB ST", "postcode": "75638"}}},
{"geometry": {"type": "Point", "coordinates": [-94.7302499638, 33.0292103923]}, "type": "Feature", "properties": {"collection_times": [{"days": "Mon-Fri", "time": "3:30pm"}, {"days": "Sat", "time": "12:00pm"}, {"days": "Sun", "time": "Closed"}], "id": "7563806502", "name": "USPS COLLECTION BOX - BLUE BOX", "address": {"city": "DAINGERFIELD", "state": "TX", "street": "214 W SCURRY ST", "postcode": "75638"}}},
{"geometry": {"type": "Point", "coordinates": [-94.7231864874, 33.0326770933]}, "type": "Feature", "properties": {"collection_times": [{"days": "Mon-Fri", "time": "4:30pm"}, {"days": "Sat", "time": "12:00pm"}, {"days": "Sun", "time": "Closed"}], "id": "7563806503", "name": "USPS COLLECTION BOX - PO LOBBY", "address": {"city": "DAINGERFIELD", "state": "TX", "street": "214 W SCURRY ST", "postcode": "75638"}}},
{"geometry": {"type": "Point", "coordinates": [-94.7231864874, 33.0326770933]}, "type": "Feature", "properties": {"collection_times": [{"days": "Mon-Fri", "time": "4:30pm"}, {"days": "Sat", "time": "12:00pm"}, {"days": "Sun", "time": "Closed"}], "id": "7563806504", "name": "USPS COLLECTION BOX - PO LOBBY", "address": {"city": "DAINGERFIELD", "state": "TX", "street": "214 W SCURRY ST", "postcode": "75638"}}},
{"geometry": {"type": "Point", "coordinates": [-94.1647779055, 32.2794817155]}, "type": "Feature", "properties": {"collection_times": [{"days": "Mon-Fri", "time": "4:00pm"}, {"days": "Sat", "time": "8:30am"}, {"days": "Sun", "time": "Closed"}], "id": "7563900000", "name": "USPS COLLECTION BOX - BLUE BOX", "address": {"city": "DE BERRY", "state": "TX", "street": "7132 US HIGHWAY 79 N", "postcode": "75639"}}},
{"geometry": {"type": "Point", "coordinates": [-94.1647779055, 32.2794817155]}, "type": "Feature", "properties": {"collection_times": [{"days": "Mon-Fri", "time": "4:00pm"}, {"days": "Sat", "time": "8:30am"}, {"days": "Sun", "time": "Closed"}], "id": "7563900001", "name": "USPS COLLECTION BOX - PO LOBBY", "address": {"city": "DE BERRY", "state": "TX", "street": "7132 US HIGHWAY 79 N", "postcode": "75639"}}},
{"geometry": {"type": "Point", "coordinates": [-94.1647779055, 32.2794817155]}, "type": "Feature", "properties": {"collection_times": [{"days": "Mon-Fri", "time": "4:00pm"}, {"days": "Sat", "time": "8:30am"}, {"days": "Sun", "time": "Closed"}], "id": "7563900002", "name": "USPS COLLECTION BOX - PO LOBBY", "address": {"city": "DE BERRY", "state": "TX", "street": "7132 US HIGHWAY 79 N", "postcode": "75639"}}},
{"geometry": {"type": "Point", "coordinates": [-94.7510933358, 32.6967288325]}, "type": "Feature", "properties": {"collection_times": [{"days": "Mon-Fri", "time": "4:00pm"}, {"days": "Sat", "time": "9:00am"}, {"days": "Sun", "time": "Closed"}], "id": "7564000000", "name": "USPS COLLECTION BOX - BLUE BOX", "address": {"city": "DIANA", "state": "TX", "street": "2218 US HIGHWAY 259 S", "postcode": "75640"}}},
{"geometry": {"type": "Point", "coordinates": [-94.6823556778, 32.707819981]}, "type": "Feature", "properties": {"collection_times": [{"days": "Mon-Fri", "time": "4:00pm"}, {"days": "Sat", "time": "8:00am"}, {"days": "Sun", "time": "Closed"}], "id": "7564000001", "name": "USPS COLLECTION BOX - PO LOBBY", "address": {"city": "DIANA", "state": "TX", "street": "2218 US HIGHWAY 259 S", "postcode": "75640"}}},
{"geometry": {"type": "Point", "coordinates": [-94.6823556778, 32.707819981]}, "type": "Feature", "properties": {"collection_times": [{"days": "Mon-Fri", "time": "4:00pm"}, {"days": "Sat", "time": "8:00am"}, {"days": "Sun", "time": "Closed"}], "id": "7564000002", "name": "USPS COLLECTION BOX - PO LOBBY", "address": {"city": "DIANA", "state": "TX", "street": "2218 US HIGHWAY 259 S", "postcode": "75640"}}},
{"geometry": {"type": "Point", "coordinates": [-94.1847782962, 32.3684100702]}, "type": "Feature", "properties": {"collection_times": [{"days": "Mon-Fri", "time": "4:00pm"}, {"days": "Sat", "time": "9:00am"}, {"days": "Sun", "time": "Closed"}], "id": "7564200000", "name": "USPS COLLECTION BOX - BLUE BOX", "address": {"city": "ELYSIAN FIELDS", "state": "TX", "street": "18154 FM 31", "postcode": "75642"}}},
{"geometry": {"type": "Point", "coordinates": [-94.1847782962, 32.3684100702]}, "type": "Feature", "properties": {"collection_times": [{"days": "Mon-Fri", "time": "2:00pm"}, {"days": "Sat", "time": "9:00am"}, {"days": "Sun", "time": "Closed"}], "id": "7564200003", "name": "USPS COLLECTION BOX - PO LOBBY", "address": {"city": "ELYSIAN FIELDS", "state": "TX", "street": "18154 FM 31", "postcode": "75642"}}},
{"geometry": {"type": "Point", "coordinates": [-94.2562906682, 32.0126838642]}, "type": "Feature", "properties": {"collection_times": [{"days": "Mon-Sat", "time": "3:45pm"}, {"days": "Sun", "time": "Closed"}], "id": "7564300000", "name": "USPS COLLECTION BOX - BLUE BOX", "address": {"city": "GARY", "state": "TX", "street": "2601 FM 999", "postcode": "75643"}}},
{"geometry": {"type": "Point", "coordinates": [-94.2562906682, 32.0126838642]}, "type": "Feature", "properties": {"collection_times": [{"days": "Mon-Fri", "time": "2:00pm"}, {"days": "Sat", "time": "8:00am"}, {"days": "Sun", "time": "Closed"}], "id": "7564300002", "name": "USPS COLLECTION BOX - PO LOBBY", "address": {"city": "GARY", "state": "TX", "street": "2601 FM 999", "postcode": "75643"}}},
{"geometry": {"type": "Point", "coordinates": [-94.9445841841, 32.7288116635]}, "type": "Feature", "properties": {"collection_times": [{"days": "Mon-Fri", "time": "2:00pm"}, {"days": "Sat", "time": "1:00pm"}, {"days": "Sun", "time": "Closed"}], "id": "7564406503", "name": "USPS COLLECTION BOX - BLUE BOX", "address": {"city": "GILMER", "state": "TX", "street": "100 W TYLER ST", "postcode": "75644"}}},
{"geometry": {"type": "Point", "coordinates": [-94.9445183456, 32.7299140265]}, "type": "Feature", "properties": {"collection_times": [{"days": "Mon-Fri", "time": "2:00pm"}, {"days": "Sat", "time": "1:00pm"}, {"days": "Sun", "time": "Closed"}], "id": "7564406504", "name": "USPS COLLECTION BOX - BLUE BOX", "address": {"city": "GILMER", "state": "TX", "street": "215 TITUS ST", "postcode": "75644"}}},
{"geometry": {"type": "Point", "coordinates": [-94.9403062688, 32.7326860348]}, "type": "Feature", "properties": {"collection_times": [{"days": "Mon-Fri", "time": "5:00pm"}, {"days": "Sat", "time": "3:00pm"}, {"days": "Sun", "time": "Closed"}], "id": "7564406514", "name": "USPS COLLECTION BOX - BLUE BOX", "address": {"city": "GILMER", "state": "TX", "street": "405 N CYPRESS ST", "postcode": "75644"}}},
{"geometry": {"type": "Point", "coordinates": [-94.9403062688, 32.7326860348]}, "type": "Feature", "properties": {"collection_times": [{"days": "Mon-Fri", "time": "5:00pm"}, {"days": "Sat", "time": "3:00pm"}, {"days": "Sun", "time": "Closed"}], "id": "7564406516", "name": "USPS COLLECTION BOX - PO LOBBY", "address": {"city": "GILMER", "state": "TX", "street": "405 N CYPRESS ST", "postcode": "75644"}}},
{"geometry": {"type": "Point", "coordinates": [-94.9403062688, 32.7326860348]}, "type": "Feature", "properties": {"collection_times": [{"days": "Mon-Fri", "time": "5:00pm"}, {"days": "Sat", "time": "3:00pm"}, {"days": "Sun", "time": "Closed"}], "id": "7564406517", "name": "USPS COLLECTION BOX - PO LOBBY", "address": {"city": "GILMER", "state": "TX", "street": "405 N CYPRESS ST", "postcode": "75644"}}},
{"geometry": {"type": "Point", "coordinates": [-94.9441185129, 32.5406752955]}, "type": "Feature", "properties": {"collection_times": [{"days": "Mon-Fri", "time": "1:30pm"}, {"days": "Sat", "time": "12:30pm"}, {"days": "Sun", "time": "Closed"}], "id": "7564706389", "name": "USPS COLLECTION BOX - BLUE BOX", "address": {"city": "GLADEWATER", "state": "TX", "street": "402 MELBA AVE", "postcode": "75647"}}},
{"geometry": {"type": "Point", "coordinates": [-94.9275958048, 32.533766113]}, "type": "Feature", "properties": {"collection_times": [{"days": "Mon-Sat", "time": "11:00am"}, {"days": "Sun", "time": "Closed"}], "id": "7564706390", "name": "USPS COLLECTION BOX - BLUE BOX", "address": {"city": "GLADEWATER", "state": "TX", "street": "1300 BROADWAY AVE", "postcode": "75647"}}},
{"geometry": {"type": "Point", "coordinates": [-94.9504588528, 32.5312984606]}, "type": "Feature", "properties": {"collection_times": [{"days": "Mon-Fri", "time": "1:30pm"}, {"days": "Sat-Sun", "time": "Closed"}], "id": "7564706391", "name": "USPS COLLECTION BOX - BLUE BOX", "address": {"city": "GLADEWATER", "state": "TX", "street": "511 S TYLER ST", "postcode": "75647"}}},
{"geometry": {"type": "Point", "coordinates": [-94.9382602598, 32.5351986257]}, "type": "Feature", "properties": {"collection_times": [{"days": "Mon-Fri", "time": "12:30pm"}, {"days": "Sat-Sun", "time": "Closed"}], "id": "7564706392", "name": "USPS COLLECTION BOX - BLUE BOX", "address": {"city": "GLADEWATER", "state": "TX", "street": "601 BROADWAY AVE", "postcode": "75647"}}},
{"geometry": {"type": "Point", "coordinates": [-94.9449202389, 32.535581955]}, "type": "Feature", "properties": {"collection_times": [{"days": "Mon-Fri", "time": "4:00pm"}, {"days": "Sat", "time": "11:30am"}, {"days": "Sun", "time": "Closed"}], "id": "7564706393", "name": "USPS COLLECTION BOX - PO LOBBY", "address": {"city": "GLADEWATER", "state": "TX", "street": "101 N DEAN ST", "postcode": "75647"}}},
{"geometry": {"type": "Point", "coordinates": [-94.9449202389, 32.535581955]}, "type": "Feature", "properties": {"collection_times": [{"days": "Mon-Fri", "time": "4:00pm"}, {"days": "Sat", "time": "11:30am"}, {"days": "Sun", "time": "Closed"}], "id": "7564706394", "name": "USPS COLLECTION BOX - BLUE BOX", "address": {"city": "GLADEWATER", "state": "TX", "street": "101 N DEAN ST", "postcode": "75647"}}},
{"geometry": {"type": "Point", "coordinates": [-94.9449202389, 32.535581955]}, "type": "Feature", "properties": {"collection_times": [{"days": "Mon-Fri", "time": "4:00pm"}, {"days": "Sat", "time": "11:30am"}, {"days": "Sun", "time": "Closed"}], "id": "7564706460", "name": "USPS COLLECTION BOX - BLUE BOX", "address": {"city": "GLADEWATER", "state": "TX", "street": "101 N DEAN ST", "postcode": "75647"}}},
{"geometry": {"type": "Point", "coordinates": [-94.9449202389, 32.535581955]}, "type": "Feature", "properties": {"collection_times": [{"days": "Mon-Fri", "time": "4:00pm"}, {"days": "Sat", "time": "11:30am"}, {"days": "Sun", "time": "Closed"}], "id": "7564706461", "name": "USPS COLLECTION BOX - PO LOBBY", "address": {"city": "GLADEWATER", "state": "TX", "street": "101 N DEAN ST", "postcode": "75647"}}},
{"geometry": {"type": "Point", "coordinates": [-94.5734149138, 32.5046512651]}, "type": "Feature", "properties": {"collection_times": [{"days": "Mon-Fri", "time": "4:00pm"}, {"days": "Sat", "time": "10:00am"}, {"days": "Sun", "time": "Closed"}], "id": "7565000000", "name": "USPS COLLECTION BOX - PO LOBBY", "address": {"city": "HALLSVILLE", "state": "TX", "street": "208 E MAIN ST", "postcode": "75650"}}},
{"geometry": {"type": "Point", "coordinates": [-94.5734149138, 32.5046512651]}, "type": "Feature", "properties": {"collection_times": [{"days": "Mon-Fri", "time": "3:30pm"}, {"days": "Sat", "time": "10:00am"}, {"days": "Sun", "time": "Closed"}], "id": "7565000001", "name": "USPS COLLECTION BOX - BLUE BOX", "address": {"city": "HALLSVILLE", "state": "TX", "street": "208 E MAIN ST", "postcode": "75650"}}},
{"geometry": {"type": "Point", "coordinates": [-94.5734149138, 32.5046512651]}, "type": "Feature", "properties": {"collection_times": [{"days": "Mon-Fri", "time": "3:30pm"}, {"days": "Sat", "time": "10:00am"}, {"days": "Sun", "time": "Closed"}], "id": "7565000002", "name": "USPS COLLECTION BOX - BLUE BOX", "address": {"city": "HALLSVILLE", "state": "TX", "street": "208 E MAIN ST", "postcode": "75650"}}},
{"geometry": {"type": "Point", "coordinates": [-94.579675582, 32.5047967091]}, "type": "Feature", "properties": {"collection_times": [{"days": "Mon-Sat", "time": "1:00pm"}, {"days": "Sun", "time": "Closed"}], "id": "7565000005", "name": "USPS COLLECTION BOX - BLUE BOX", "address": {"city": "HALLSVILLE", "state": "TX", "street": "590 W MAIN ST", "postcode": "75650"}}},
{"geometry": {"type": "Point", "coordinates": [-94.5724024672, 32.6756928409]}, "type": "Feature", "properties": {"collection_times": [{"days": "Mon-Fri", "time": "4:00pm"}, {"days": "Sat", "time": "9:00am"}, {"days": "Sun", "time": "Closed"}], "id": "7565107356", "name": "USPS COLLECTION BOX - BLUE BOX", "address": {"city": "HARLETON", "state": "TX", "street": "17017 STATE HIGHWAY 154", "postcode": "75651"}}},
{"geometry": {"type": "Point", "coordinates": [-94.5713538015, 32.6756180763]}, "type": "Feature", "properties": {"collection_times": [{"days": "Mon-Fri", "time": "4:00pm"}, {"days": "Sat-Sun", "time": "Closed"}], "id": "7565107359", "name": "USPS COLLECTION BOX - PO LOBBY", "address": {"city": "HARLETON", "state": "TX", "street": "17017 STATE HIGHWAY 154", "postcode": "75651"}}},
{"geometry": {"type": "Point", "coordinates": [-94.8235498008, 32.1559659313]}, "type": "Feature", "properties": {"collection_times": [{"days": "Mon-Sat", "time": "9:00am"}, {"days": "Sun", "time": "Closed"}], "id": "7565206426", "name": "USPS COLLECTION BOX - BLUE BOX", "address": {"city": "HENDERSON", "state": "TX", "street": "1802 ELM ST", "postcode": "75652"}}},
{"geometry": {"type": "Point", "coordinates": [-94.7861858792, 32.1657954274]}, "type": "Feature", "properties": {"collection_times": [{"days": "Mon-Sat", "time": "9:00am"}, {"days": "Sun", "time": "Closed"}], "id": "7565206428", "name": "USPS COLLECTION BOX - BLUE BOX", "address": {"city": "HENDERSON", "state": "TX", "street": "1315 US HIGHWAY 79 N", "postcode": "75652"}}},
{"geometry": {"type": "Point", "coordinates": [-94.8025433325, 32.1530763976]}, "type": "Feature", "properties": {"collection_times": [{"days": "Mon-Fri", "time": "2:45pm"}, {"days": "Sat-Sun", "time": "Closed"}], "id": "7565206430", "name": "USPS COLLECTION BOX - BLUE BOX", "address": {"city": "HENDERSON", "state": "TX", "street": "400 W MAIN ST", "postcode": "75652"}}},
{"geometry": {"type": "Point", "coordinates": [-94.7994885211, 32.1534111665]}, "type": "Feature", "properties": {"collection_times": [{"days": "Mon-Fri", "time": "2:45pm"}, {"days": "Sat-Sun", "time": "Closed"}], "id": "7565206432", "name": "USPS COLLECTION BOX - BLUE BOX", "address": {"city": "HENDERSON", "state": "TX", "street": "102 N MAIN ST", "postcode": "75652"}}},
{"geometry": {"type": "Point", "coordinates": [-94.8184301468, 32.1506589568]}, "type": "Feature", "properties": {"collection_times": [{"days": "Mon-Sat", "time": "9:00am"}, {"days": "Sun", "time": "Closed"}], "id": "7565206436", "name": "USPS COLLECTION BOX - BLUE BOX", "address": {"city": "HENDERSON", "state": "TX", "street": "1414 W MAIN ST", "postcode": "75652"}}},
{"geometry": {"type": "Point", "coordinates": [-94.7996204396, 32.1547414824]}, "type": "Feature", "properties": {"collection_times": [{"days": "Mon-Fri", "time": "2:45pm"}, {"days": "Sat-Sun", "time": "Closed"}], "id": "7565206447", "name": "USPS COLLECTION BOX - BLUE BOX", "address": {"city": "HENDERSON", "state": "TX", "street": "201 N MAIN ST", "postcode": "75652"}}},
{"geometry": {"type": "Point", "coordinates": [-94.7994863379, 32.1532386459]}, "type": "Feature", "properties": {"collection_times": [{"days": "Mon-Fri", "time": "2:45pm"}, {"days": "Sat-Sun", "time": "Closed"}], "id": "7565400000", "name": "USPS COLLECTION BOX - BLUE BOX", "address": {"city": "HENDERSON", "state": "TX", "street": "101 S MAIN ST", "postcode": "75654"}}},
{"geometry": {"type": "Point", "coordinates": [-94.7994542547, 32.1492625884]}, "type": "Feature", "properties": {"collection_times": [{"days": "Mon-Fri", "time": "5:00pm"}, {"days": "Sat", "time": "1:00pm"}, {"days": "Sun", "time": "Closed"}], "id": "7565400001", "name": "USPS COLLECTION BOX - BLUE BOX", "address": {"city": "HENDERSON", "state": "TX", "street": "505 S MAIN ST", "postcode": "75654"}}},
{"geometry": {"type": "Point", "coordinates": [-94.7995162009, 32.1492165031]}, "type": "Feature", "properties": {"collection_times": [{"days": "Mon-Fri", "time": "5:00pm"}, {"days": "Sat", "time": "1:00pm"}, {"days": "Sun", "time": "Closed"}], "id": "7565400002", "name": "USPS COLLECTION BOX - BLUE BOX", "address": {"city": "HENDERSON", "state": "TX", "street": "505 S MAIN ST", "postcode": "75654"}}},
{"geometry": {"type": "Point", "coordinates": [-94.7995162009, 32.1492165031]}, "type": "Feature", "properties": {"collection_times": [{"days": "Mon-Fri", "time": "5:00pm"}, {"days": "Sat", "time": "1:00pm"}, {"days": "Sun", "time": "Closed"}], "id": "7565400003", "name": "USPS COLLECTION BOX - BLUE BOX", "address": {"city": "HENDERSON", "state": "TX", "street": "505 S MAIN ST", "postcode": "75654"}}},
{"geometry": {"type": "Point", "coordinates": [-94.7994542547, 32.1492625884]}, "type": "Feature", "properties": {"collection_times": [{"days": "Mon-Fri", "time": "5:00pm"}, {"days": "Sat", "time": "1:00pm"}, {"days": "Sun", "time": "Closed"}], "id": "7565400005", "name": "USPS COLLECTION BOX - PO LOBBY", "address": {"city": "HENDERSON", "state": "TX", "street": "505 S MAIN ST", "postcode": "75654"}}},
{"geometry": {"type": "Point", "coordinates": [-94.7994542547, 32.1492625884]}, "type": "Feature", "properties": {"collection_times": [{"days": "Mon-Fri", "time": "5:00pm"}, {"days": "Sat", "time": "1:00pm"}, {"days": "Sun", "time": "Closed"}], "id": "7565400006", "name": "USPS COLLECTION BOX - PO LOBBY", "address": {"city": "HENDERSON", "state": "TX", "street": "505 S MAIN ST", "postcode": "75654"}}},
{"geometry": {"type": "Point", "coordinates": [-94.7994542547, 32.1492625884]}, "type": "Feature", "properties": {"collection_times": [{"days": "Mon-Fri", "time": "5:00pm"}, {"days": "Sat", "time": "1:00pm"}, {"days": "Sun", "time": "Closed"}], "id": "7565400008", "name": "USPS COLLECTION BOX - PO LOBBY", "address": {"city": "HENDERSON", "state": "TX", "street": "505 S MAIN ST", "postcode": "75654"}}},
{"geometry": {"type": "Point", "coordinates": [-94.7982205298, 32.1492208987]}, "type": "Feature", "properties": {"collection_times": [{"days": "Mon-Fri", "time": "5:00pm"}, {"days": "Sat", "time": "1:00pm"}, {"days": "Sun", "time": "Closed"}], "id": "7565400010", "name": "USPS COLLECTION BOX - BLUE BOX", "address": {"city": "HENDERSON", "state": "TX", "street": "504 S MARSHALL ST", "postcode": "75654"}}},
{"geometry": {"type": "Point", "coordinates": [-94.7982205298, 32.1492208987]}, "type": "Feature", "properties": {"collection_times": [{"days": "Mon-Fri", "time": "5:00pm"}, {"days": "Sat", "time": "1:00pm"}, {"days": "Sun", "time": "Closed"}], "id": "7565400011", "name": "USPS COLLECTION BOX - BLUE BOX", "address": {"city": "HENDERSON", "state": "TX", "street": "504 S MARSHALL ST", "postcode": "75654"}}},
{"geometry": {"type": "Point", "coordinates": [-94.8025678496, 32.1332819486]}, "type": "Feature", "properties": {"collection_times": [{"days": "Mon-Sat", "time": "9:00am"}, {"days": "Sun", "time": "Closed"}], "id": "7565400013", "name": "USPS COLLECTION BOX - BLUE BOX", "address": {"city": "HENDERSON", "state": "TX", "street": "2315 US HIGHWAY 79 S", "postcode": "75654"}}},
{"geometry": {"type": "Point", "coordinates": [-94.6319363892, 32.9991772226]}, "type": "Feature", "properties": {"collection_times": [{"days": "Mon-Fri", "time": "3:00pm"}, {"days": "Sat", "time": "8:30am"}, {"days": "Sun", "time": "Closed"}], "id": "7565600000", "name": "USPS COLLECTION BOX - BLUE BOX", "address": {"city": "HUGHES SPRINGS", "state": "TX", "street": "104 E 2ND", "postcode": "75656"}}},
{"geometry": {"type": "Point", "coordinates": [-94.6319363892, 32.9991772226]}, "type": "Feature", "properties": {"collection_times": [{"days": "Mon-Fri", "time": "4:30pm"}, {"days": "Sat-Sun", "time": "Closed"}], "id": "7565600005", "name": "USPS COLLECTION BOX - PO LOBBY", "address": {"city": "HUGHES SPRINGS", "state": "TX", "street": "104 E 2ND", "postcode": "75656"}}},
{"geometry": {"type": "Point", "coordinates": [-94.344249967, 32.7566689828]}, "type": "Feature", "properties": {"collection_times": [{"days": "Mon-Fri", "time": "3:00pm"}, {"days": "Sat-Sun", "time": "Closed"}], "id": "7565706447", "name": "USPS COLLECTION BOX - BLUE BOX", "address": {"city": "JEFFERSON", "state": "TX", "street": "102 W AUSTIN ST", "postcode": "75657"}}},
{"geometry": {"type": "Point", "coordinates": [-94.3466780354, 32.7605226014]}, "type": "Feature", "properties": {"collection_times": [{"days": "Mon-Fri", "time": "10:30am"}, {"days": "Sat-Sun", "time": "Closed"}], "id": "7565706448", "name": "USPS COLLECTION BOX - BLUE BOX", "address": {"city": "JEFFERSON", "state": "TX", "street": "203 E CLARKSVILLE ST", "postcode": "75657"}}},
{"geometry": {"type": "Point", "coordinates": [-94.3501004338, 32.761477472]}, "type": "Feature", "properties": {"collection_times": [{"days": "Mon-Fri", "time": "11:00am"}, {"days": "Sat-Sun", "time": "Closed"}], "id": "7565706449", "name": "USPS COLLECTION BOX - BLUE BOX", "address": {"city": "JEFFERSON", "state": "TX", "street": "505 E BROADWAY ST", "postcode": "75657"}}},
{"geometry": {"type": "Point", "coordinates": [-94.3460941914, 32.7567026737]}, "type": "Feature", "properties": {"collection_times": [{"days": "Mon-Fri", "time": "3:30pm"}, {"days": "Sat", "time": "10:00am"}, {"days": "Sun", "time": "Closed"}], "id": "7565706450", "name": "USPS COLLECTION BOX - BLUE BOX", "address": {"city": "JEFFERSON", "state": "TX", "street": "214 W LAFAYETTE ST", "postcode": "75657"}}},
{"geometry": {"type": "Point", "coordinates": [-94.3460941914, 32.7567026737]}, "type": "Feature", "properties": {"collection_times": [{"days": "Mon-Fri", "time": "4:30pm"}, {"days": "Sat", "time": "10:00am"}, {"days": "Sun", "time": "Closed"}], "id": "7565706451", "name": "USPS COLLECTION BOX - PO LOBBY", "address": {"city": "JEFFERSON", "state": "TX", "street": "214 W LAFAYETTE ST", "postcode": "75657"}}},
{"geometry": {"type": "Point", "coordinates": [-94.3460941914, 32.7567026737]}, "type": "Feature", "properties": {"collection_times": [{"days": "Mon-Fri", "time": "4:30pm"}, {"days": "Sat", "time": "10:00am"}, {"days": "Sun", "time": "Closed"}], "id": "7565706452", "name": "USPS COLLECTION BOX - PO LOBBY", "address": {"city": "JEFFERSON", "state": "TX", "street": "214 W LAFAYETTE ST", "postcode": "75657"}}},
{"geometry": {"type": "Point", "coordinates": [-94.3460941914, 32.7567026737]}, "type": "Feature", "properties": {"collection_times": [{"days": "Mon-Fri", "time": "3:30pm"}, {"days": "Sat", "time": "10:00am"}, {"days": "Sun", "time": "Closed"}], "id": "7565706454", "name": "USPS COLLECTION BOX - BLUE BOX", "address": {"city": "JEFFERSON", "state": "TX", "street": "214 W LAFAYETTE ST", "postcode": "75657"}}},
{"geometry": {"type": "Point", "coordinates": [-94.3460941914, 32.7567026737]}, "type": "Feature", "properties": {"collection_times": [{"days": "Mon-Fri", "time": "3:30pm"}, {"days": "Sat", "time": "10:00am"}, {"days": "Sun", "time": "Closed"}], "id": "7565706455", "name": "USPS COLLECTION BOX - BLUE BOX", "address": {"city": "JEFFERSON", "state": "TX", "street": "214 W LAFAYETTE ST", "postcode": "75657"}}},
{"geometry": {"type": "Point", "coordinates": [-94.9077575368, 32.177710885]}, "type": "Feature", "properties": {"collection_times": [{"days": "Mon-Fri", "time": "3:00pm"}, {"days": "Sat", "time": "9:30am"}, {"days": "Sun", "time": "Closed"}], "id": "7565800000", "name": "USPS COLLECTION BOX - BLUE BOX", "address": {"city": "JOINERVILLE", "state": "TX", "street": "7110 HIGHWAY 64 W", "postcode": "75658"}}},
{"geometry": {"type": "Point", "coordinates": [-94.9077575368, 32.177710885]}, "type": "Feature", "properties": {"collection_times": [{"days": "Mon-Fri", "time": "11:30am"}, {"days": "Sat", "time": "9:30am"}, {"days": "Sun", "time": "Closed"}], "id": "7565800002", "name": "USPS COLLECTION BOX - PO LOBBY", "address": {"city": "JOINERVILLE", "state": "TX", "street": "7110 HIGHWAY 64 W", "postcode": "75658"}}},
{"geometry": {"type": "Point", "coordinates": [-94.0875241413, 32.4841188016]}, "type": "Feature", "properties": {"collection_times": [{"days": "Mon-Fri", "time": "4:00pm"}, {"days": "Sat", "time": "3:45pm"}, {"days": "Sun", "time": "Closed"}], "id": "7565900000", "name": "USPS COLLECTION BOX - BLUE BOX", "address": {"city": "JONESVILLE", "state": "TX", "street": "2335 FM 134", "postcode": "75659"}}},
{"geometry": {"type": "Point", "coordinates": [-94.0875241413, 32.4841188016]}, "type": "Feature", "properties": {"collection_times": [{"days": "Mon-Fri", "time": "12:00pm"}, {"days": "Sat", "time": "9:00am"}, {"days": "Sun", "time": "Closed"}], "id": "7565900002", "name": "USPS COLLECTION BOX - PO LOBBY", "address": {"city": "JONESVILLE", "state": "TX", "street": "2335 FM 134", "postcode": "75659"}}},
{"geometry": {"type": "Point", "coordinates": [-94.753350884, 32.5824285997]}, "type": "Feature", "properties": {"collection_times": [{"days": "Mon-Fri", "time": "3:00pm"}, {"days": "Sat", "time": "8:00am"}, {"days": "Sun", "time": "Closed"}], "id": "7566000000", "name": "USPS COLLECTION BOX - BLUE BOX", "address": {"city": "JUDSON", "state": "TX", "street": "6460 TRYON RD", "postcode": "75660"}}},
{"geometry": {"type": "Point", "coordinates": [-94.753350884, 32.5824285997]}, "type": "Feature", "properties": {"collection_times": [{"days": "Mon-Fri", "time": "3:00pm"}, {"days": "Sat", "time": "8:00am"}, {"days": "Sun", "time": "Closed"}], "id": "7566000001", "name": "USPS COLLECTION BOX - BLUE BOX", "address": {"city": "JUDSON", "state": "TX", "street": "6460 TRYON RD", "postcode": "75660"}}},
{"geometry": {"type": "Point", "coordinates": [-94.753350884, 32.5824285997]}, "type": "Feature", "properties": {"collection_times": [{"days": "Mon-Fri", "time": "3:00pm"}, {"days": "Sat", "time": "8:00am"}, {"days": "Sun", "time": "Closed"}], "id": "7566000003", "name": "USPS COLLECTION BOX - PO LOBBY", "address": {"city": "JUDSON", "state": "TX", "street": "6460 TRYON RD", "postcode": "75660"}}},
{"geometry": {"type": "Point", "coordinates": [-94.1558435405, 32.6316370285]}, "type": "Feature", "properties": {"collection_times": [{"days": "Mon-Fri", "time": "3:00pm"}, {"days": "Sat", "time": "9:30am"}, {"days": "Sun", "time": "Closed"}], "id": "7566100000", "name": "USPS COLLECTION BOX - PO LOBBY", "address": {"city": "KARNACK", "state": "TX", "street": "15592 FM 134", "postcode": "75661"}}},
{"geometry": {"type": "Point", "coordinates": [-94.1558435405, 32.6316370285]}, "type": "Feature", "properties": {"collection_times": [{"days": "Mon-Sat", "time": "3:30pm"}, {"days": "Sun", "time": "Closed"}], "id": "7566100001", "name": "USPS COLLECTION BOX - BLUE BOX", "address": {"city": "KARNACK", "state": "TX", "street": "15592 FM 134", "postcode": "75661"}}},
{"geometry": {"type": "Point", "coordinates": [-94.8695710981, 32.3791853037]}, "type": "Feature", "properties": {"collection_times": [{"days": "Mon-Sat", "time": "10:30am"}, {"days": "Sun", "time": "Closed"}], "id": "7566206541", "name": "USPS COLLECTION BOX - BLUE BOX", "address": {"city": "KILGORE", "state": "TX", "street": "5309 FM 1252 W", "postcode": "75662"}}},
{"geometry": {"type": "Point", "coordinates": [-94.8726307995, 32.3894297408]}, "type": "Feature", "properties": {"collection_times": [{"days": "Mon-Fri", "time": "5:00pm"}, {"days": "Sat", "time": "3:30pm"}, {"days": "Sun", "time": "Closed"}], "id": "7566206543", "name": "USPS COLLECTION BOX - BLUE BOX", "address": {"city": "KILGORE", "state": "TX", "street": "500 N KILGORE ST", "postcode": "75662"}}},
{"geometry": {"type": "Point", "coordinates": [-94.8726307995, 32.3894297408]}, "type": "Feature", "properties": {"collection_times": [{"days": "Mon-Fri", "time": "5:00pm"}, {"days": "Sat", "time": "3:30pm"}, {"days": "Sun", "time": "Closed"}], "id": "7566206544", "name": "USPS COLLECTION BOX - BLUE BOX", "address": {"city": "KILGORE", "state": "TX", "street": "500 N KILGORE ST", "postcode": "75662"}}},
{"geometry": {"type": "Point", "coordinates": [-94.8726307995, 32.3894297408]}, "type": "Feature", "properties": {"collection_times": [{"days": "Mon-Fri", "time": "5:00pm"}, {"days": "Sat", "time": "3:30pm"}, {"days": "Sun", "time": "Closed"}], "id": "7566206546", "name": "USPS COLLECTION BOX - PO LOBBY", "address": {"city": "KILGORE", "state": "TX", "street": "500 N KILGORE ST", "postcode": "75662"}}},
{"geometry": {"type": "Point", "coordinates": [-94.8726307995, 32.3894297408]}, "type": "Feature", "properties": {"collection_times": [{"days": "Mon-Fri", "time": "5:00pm"}, {"days": "Sat", "time": "3:30pm"}, {"days": "Sun", "time": "Closed"}], "id": "7566206547", "name": "USPS COLLECTION BOX - PO LOBBY", "address": {"city": "KILGORE", "state": "TX", "street": "500 N KILGORE ST", "postcode": "75662"}}},
{"geometry": {"type": "Point", "coordinates": [-94.8726307995, 32.3894297408]}, "type": "Feature", "properties": {"collection_times": [{"days": "Mon-Fri", "time": "5:00pm"}, {"days": "Sat", "time": "3:30pm"}, {"days": "Sun", "time": "Closed"}], "id": "7566206553", "name": "USPS COLLECTION BOX - BLUE BOX", "address": {"city": "KILGORE", "state": "TX", "street": "500 N KILGORE ST", "postcode": "75662"}}},
{"geometry": {"type": "Point", "coordinates": [-94.8726307995, 32.3894297408]}, "type": "Feature", "properties": {"collection_times": [{"days": "Mon-Fri", "time": "5:00pm"}, {"days": "Sat", "time": "3:30pm"}, {"days": "Sun", "time": "Closed"}], "id": "7566206554", "name": "USPS COLLECTION BOX - PO LOBBY", "address": {"city": "KILGORE", "state": "TX", "street": "500 N KILGORE ST", "postcode": "75662"}}},
{"geometry": {"type": "Point", "coordinates": [-94.8608869927, 32.3918280067]}, "type": "Feature", "properties": {"collection_times": [{"days": "Mon-Fri", "time": "12:15pm"}, {"days": "Sat-Sun", "time": "Closed"}], "id": "7566206557", "name": "USPS COLLECTION BOX - BLUE BOX", "address": {"city": "KILGORE", "state": "TX", "street": "1100 STONE RD", "postcode": "75662"}}},
{"geometry": {"type": "Point", "coordinates": [-94.8726307995, 32.3894297408]}, "type": "Feature", "properties": {"collection_times": [{"days": "Mon-Fri", "time": "5:00pm"}, {"days": "Sat", "time": "3:30pm"}, {"days": "Sun", "time": "Closed"}], "id": "7566206558", "name": "USPS COLLECTION BOX - BLUE BOX", "address": {"city": "KILGORE", "state": "TX", "street": "500 N KILGORE ST", "postcode": "75662"}}},
{"geometry": {"type": "Point", "coordinates": [-94.8692226947, 32.3727949719]}, "type": "Feature", "properties": {"collection_times": [{"days": "Mon-Fri", "time": "9:00am"}, {"days": "Sat-Sun", "time": "Closed"}], "id": "7566206559", "name": "USPS COLLECTION BOX - BLUE BOX", "address": {"city": "KILGORE", "state": "TX", "street": "1711 S HENDERSON BLVD", "postcode": "75662"}}},
{"geometry": {"type": "Point", "coordinates": [-94.9051972648, 32.3530041162]}, "type": "Feature", "properties": {"collection_times": [{"days": "Mon-Fri", "time": "4:00pm"}, {"days": "Sat", "time": "7:45am"}, {"days": "Sun", "time": "Closed"}], "id": "7566600000", "name": "USPS COLLECTION BOX - BLUE BOX", "address": {"city": "LAIRD HILL", "state": "TX", "street": "10992 STATE HIGHWAY 42 N", "postcode": "75666"}}},
{"geometry": {"type": "Point", "coordinates": [-94.9045224094, 32.3542121655]}, "type": "Feature", "properties": {"collection_times": [{"days": "Mon-Fri", "time": "2:30pm"}, {"days": "Sat", "time": "7:45am"}, {"days": "Sun", "time": "Closed"}], "id": "7566600001", "name": "USPS COLLECTION BOX - PO LOBBY", "address": {"city": "LAIRD HILL", "state": "TX", "street": "10992 STATE HIGHWAY 42 N", "postcode": "75666"}}},
{"geometry": {"type": "Point", "coordinates": [-94.9045224094, 32.3542121655]}, "type": "Feature", "properties": {"collection_times": [{"days": "Mon-Fri", "time": "2:30pm"}, {"days": "Sat", "time": "7:45am"}, {"days": "Sun", "time": "Closed"}], "id": "7566600002", "name": "USPS COLLECTION BOX - PO LOBBY", "address": {"city": "LAIRD HILL", "state": "TX", "street": "10992 STATE HIGHWAY 42 N", "postcode": "75666"}}},
{"geometry": {"type": "Point", "coordinates": [-94.9051972648, 32.3530041162]}, "type": "Feature", "properties": {"collection_times": [{"days": "Mon-Fri", "time": "4:00pm"}, {"days": "Sat", "time": "7:45am"}, {"days": "Sun", "time": "Closed"}], "id": "7566600003", "name": "USPS COLLECTION BOX - BLUE BOX", "address": {"city": "LAIRD HILL", "state": "TX", "street": "10992 STATE HIGHWAY 42 N", "postcode": "75666"}}},
{"geometry": {"type": "Point", "coordinates": [-94.8146812194, 31.9712229834]}, "type": "Feature", "properties": {"collection_times": [{"days": "Mon-Fri", "time": "3:30pm"}, {"days": "Sat", "time": "7:00am"}, {"days": "Sun", "time": "Closed"}], "id": "7566700000", "name": "USPS COLLECTION BOX - BLUE BOX", "address": {"city": "LANEVILLE", "state": "TX", "street": "13836 FM 225 S", "postcode": "75667"}}},
{"geometry": {"type": "Point", "coordinates": [-94.8146812194, 31.9712229834]}, "type": "Feature", "properties": {"collection_times": [{"days": "Mon-Fri", "time": "11:00am"}, {"days": "Sat", "time": "7:00am"}, {"days": "Sun", "time": "Closed"}], "id": "7566700001", "name": "USPS COLLECTION BOX - PO LOBBY", "address": {"city": "LANEVILLE", "state": "TX", "street": "13836 FM 225 S", "postcode": "75667"}}},
{"geometry": {"type": "Point", "coordinates": [-94.8146812194, 31.9712229834]}, "type": "Feature", "properties": {"collection_times": [{"days": "Mon-Fri", "time": "11:00am"}, {"days": "Sat", "time": "7:00am"}, {"days": "Sun", "time": "Closed"}], "id": "7566700002", "name": "USPS COLLECTION BOX - PO LOBBY", "address": {"city": "LANEVILLE", "state": "TX", "street": "13836 FM 225 S", "postcode": "75667"}}},
{"geometry": {"type": "Point", "coordinates": [-94.7112093747, 32.94377044]}, "type": "Feature", "properties": {"collection_times": [{"days": "Mon-Fri", "time": "3:00pm"}, {"days": "Sat", "time": "9:00am"}, {"days": "Sun", "time": "Closed"}], "id": "7566800001", "name": "USPS COLLECTION BOX - BLUE BOX", "address": {"city": "LONE STAR", "state": "TX", "street": "308 N MAIN ST", "postcode": "75668"}}},
{"geometry": {"type": "Point", "coordinates": [-94.7112093747, 32.94377044]}, "type": "Feature", "properties": {"collection_times": [{"days": "Mon-Fri", "time": "4:00pm"}, {"days": "Sat-Sun", "time": "Closed"}], "id": "7566800004", "name": "USPS COLLECTION BOX - PO LOBBY", "address": {"city": "LONE STAR", "state": "TX", "street": "308 N MAIN ST", "postcode": "75668"}}},
{"geometry": {"type": "Point", "coordinates": [-94.7112093747, 32.94377044]}, "type": "Feature", "properties": {"collection_times": [{"days": "Mon-Fri", "time": "3:00pm"}, {"days": "Sat", "time": "9:00am"}, {"days": "Sun", "time": "Closed"}], "id": "7566800005", "name": "USPS COLLECTION BOX - BLUE BOX", "address": {"city": "LONE STAR", "state": "TX", "street": "308 N MAIN ST", "postcode": "75668"}}},
{"geometry": {"type": "Point", "coordinates": [-94.5645412125, 32.0635867691]}, "type": "Feature", "properties": {"collection_times": [{"days": "Mon-Fri", "time": "3:45pm"}, {"days": "Sat", "time": "8:30am"}, {"days": "Sun", "time": "Closed"}], "id": "7566900000", "name": "USPS COLLECTION BOX - BLUE BOX", "address": {"city": "LONG BRANCH", "state": "TX", "street": "671 FM 348", "postcode": "75669"}}},
{"geometry": {"type": "Point", "coordinates": [-94.5645412125, 32.0635867691]}, "type": "Feature", "properties": {"collection_times": [{"days": "Mon-Fri", "time": "11:00am"}, {"days": "Sat", "time": "8:30am"}, {"days": "Sun", "time": "Closed"}], "id": "7566900001", "name": "USPS COLLECTION BOX - PO LOBBY", "address": {"city": "LONG BRANCH", "state": "TX", "street": "671 FM 348", "postcode": "75669"}}},
{"geometry": {"type": "Point", "coordinates": [-94.3662849504, 32.5414982738]}, "type": "Feature", "properties": {"collection_times": [{"days": "Mon-Fri", "time": "5:00pm"}, {"days": "Sat", "time": "1:00pm"}, {"days": "Sun", "time": "Closed"}], "id": "7567006917", "name": "USPS COLLECTION BOX - BLUE BOX", "address": {"city": "MARSHALL", "state": "TX", "street": "202 E TRAVIS ST", "postcode": "75670"}}},
{"geometry": {"type": "Point", "coordinates": [-94.3662849504, 32.5414982738]}, "type": "Feature", "properties": {"collection_times": [{"days": "Mon-Fri", "time": "5:00pm"}, {"days": "Sat", "time": "1:00pm"}, {"days": "Sun", "time": "Closed"}], "id": "7567006918", "name": "USPS COLLECTION BOX - BLUE BOX", "address": {"city": "MARSHALL", "state": "TX", "street": "202 E TRAVIS ST", "postcode": "75670"}}},
{"geometry": {"type": "Point", "coordinates": [-94.3662849504, 32.5414982738]}, "type": "Feature", "properties": {"collection_times": [{"days": "Mon-Fri", "time": "5:00pm"}, {"days": "Sat", "time": "1:00pm"}, {"days": "Sun", "time": "Closed"}], "id": "7567006919", "name": "USPS COLLECTION BOX - BLUE BOX", "address": {"city": "MARSHALL", "state": "TX", "street": "202 E TRAVIS ST", "postcode": "75670"}}},
{"geometry": {"type": "Point", "coordinates": [-94.3662849504, 32.5414982738]}, "type": "Feature", "properties": {"collection_times": [{"days": "Mon-Fri", "time": "5:00pm"}, {"days": "Sat", "time": "1:00pm"}, {"days": "Sun", "time": "Closed"}], "id": "7567006920", "name": "USPS COLLECTION BOX - BLUE BOX", "address": {"city": "MARSHALL", "state": "TX", "street": "202 E TRAVIS ST", "postcode": "75670"}}},
{"geometry": {"type": "Point", "coordinates": [-94.4130799775, 32.5811157944]}, "type": "Feature", "properties": {"collection_times": [{"days": "Mon-Fri", "time": "2:30pm"}, {"days": "Sat", "time": "1:00pm"}, {"days": "Sun", "time": "Closed"}], "id": "7567006928", "name": "USPS COLLECTION BOX - BLUE BOX", "address": {"city": "MARSHALL", "state": "TX", "street": "1 TIGER DR", "postcode": "75670"}}},
{"geometry": {"type": "Point", "coordinates": [-94.3631033424, 32.5416375326]}, "type": "Feature", "properties": {"collection_times": [{"days": "Mon-Fri", "time": "3:00pm"}, {"days": "Sat", "time": "1:00pm"}, {"days": "Sun", "time": "Closed"}], "id": "7567006929", "name": "USPS COLLECTION BOX - BLUE BOX", "address": {"city": "MARSHALL", "state": "TX", "street": "505 E TRAVIS ST", "postcode": "75670"}}},
{"geometry": {"type": "Point", "coordinates": [-94.3672479584, 32.5452748277]}, "type": "Feature", "properties": {"collection_times": [{"days": "Mon-Fri", "time": "3:00pm"}, {"days": "Sat", "time": "1:00pm"}, {"days": "Sun", "time": "Closed"}], "id": "7567006933", "name": "USPS COLLECTION BOX - BLUE BOX", "address": {"city": "MARSHALL", "state": "TX", "street": "104 E HOUSTON ST", "postcode": "75670"}}},
{"geometry": {"type": "Point", "coordinates": [-94.3693469798, 32.5449538953]}, "type": "Feature", "properties": {"collection_times": [{"days": "Mon-Fri", "time": "3:00pm"}, {"days": "Sat", "time": "1:00pm"}, {"days": "Sun", "time": "Closed"}], "id": "7567006935", "name": "USPS COLLECTION BOX - BLUE BOX", "address": {"city": "MARSHALL", "state": "TX", "street": "300 W HOUSTON ST", "postcode": "75670"}}},
{"geometry": {"type": "Point", "coordinates": [-94.35604628, 32.5485019733]}, "type": "Feature", "properties": {"collection_times": [{"days": "Mon-Fri", "time": "3:00pm"}, {"days": "Sat", "time": "1:00pm"}, {"days": "Sun", "time": "Closed"}], "id": "7567006937", "name": "USPS COLLECTION BOX - BLUE BOX", "address": {"city": "MARSHALL", "state": "TX", "street": "1209 E GRAND AVE", "postcode": "75670"}}},
{"geometry": {"type": "Point", "coordinates": [-94.3500765665, 32.5460010456]}, "type": "Feature", "properties": {"collection_times": [{"days": "Mon-Fri", "time": "3:00pm"}, {"days": "Sat", "time": "1:00pm"}, {"days": "Sun", "time": "Closed"}], "id": "7567006940", "name": "USPS COLLECTION BOX - BLUE BOX", "address": {"city": "MARSHALL", "state": "TX", "street": "300 E END BLVD N", "postcode": "75670"}}},
{"geometry": {"type": "Point", "coordinates": [-94.3697639894, 32.5363453142]}, "type": "Feature", "properties": {"collection_times": [{"days": "Mon-Fri", "time": "3:00pm"}, {"days": "Sat", "time": "1:00pm"}, {"days": "Sun", "time": "Closed"}], "id": "7567006946", "name": "USPS COLLECTION BOX - BLUE BOX", "address": {"city": "MARSHALL", "state": "TX", "street": "304 UNIVERSITY AVE", "postcode": "75670"}}},
{"geometry": {"type": "Point", "coordinates": [-94.3672610673, 32.5460330759]}, "type": "Feature", "properties": {"collection_times": [{"days": "Mon-Fri", "time": "3:00pm"}, {"days": "Sat", "time": "1:00pm"}, {"days": "Sun", "time": "Closed"}], "id": "7567007258", "name": "USPS COLLECTION BOX - BLUE BOX", "address": {"city": "MARSHALL", "state": "TX", "street": "216 N WASHINGTON AVE", "postcode": "75670"}}},
{"geometry": {"type": "Point", "coordinates": [-94.3662849504, 32.5414982738]}, "type": "Feature", "properties": {"collection_times": [{"days": "Mon-Fri", "time": "5:00pm"}, {"days": "Sat", "time": "1:00pm"}, {"days": "Sun", "time": "Closed"}], "id": "7567007336", "name": "USPS COLLECTION BOX - PO LOBBY", "address": {"city": "MARSHALL", "state": "TX", "street": "202 E TRAVIS ST", "postcode": "75670"}}},
{"geometry": {"type": "Point", "coordinates": [-94.3662849504, 32.5414982738]}, "type": "Feature", "properties": {"collection_times": [{"days": "Mon-Fri", "time": "5:00pm"}, {"days": "Sat", "time": "1:00pm"}, {"days": "Sun", "time": "Closed"}], "id": "7567007337", "name": "USPS COLLECTION BOX - PO LOBBY", "address": {"city": "MARSHALL", "state": "TX", "street": "202 E TRAVIS ST", "postcode": "75670"}}},
{"geometry": {"type": "Point", "coordinates": [-94.3662849504, 32.5414982738]}, "type": "Feature", "properties": {"collection_times": [{"days": "Mon-Fri", "time": "5:00pm"}, {"days": "Sat", "time": "1:00pm"}, {"days": "Sun", "time": "Closed"}], "id": "7567007338", "name": "USPS COLLECTION BOX - PO LOBBY", "address": {"city": "MARSHALL", "state": "TX", "street": "202 E TRAVIS ST", "postcode": "75670"}}},
{"geometry": {"type": "Point", "coordinates": [-94.3661691417, 32.5459336944]}, "type": "Feature", "properties": {"collection_times": [{"days": "Mon-Fri", "time": "3:00pm"}, {"days": "Sat", "time": "1:00pm"}, {"days": "Sun", "time": "Closed"}], "id": "7567007339", "name": "USPS COLLECTION BOX - BLUE BOX", "address": {"city": "MARSHALL", "state": "TX", "street": "215 E AUSTIN ST", "postcode": "75670"}}},
{"geometry": {"type": "Point", "coordinates": [-94.3585407, 32.5551634767]}, "type": "Feature", "properties": {"collection_times": [{"days": "Mon-Fri", "time": "3:00pm"}, {"days": "Sat", "time": "1:00pm"}, {"days": "Sun", "time": "Closed"}], "id": "7567007340", "name": "USPS COLLECTION BOX - BLUE BOX", "address": {"city": "MARSHALL", "state": "TX", "street": "1001 POPLAR ST", "postcode": "75670"}}},
{"geometry": {"type": "Point", "coordinates": [-94.6510600463, 31.9170650329]}, "type": "Feature", "properties": {"collection_times": [{"days": "Mon-Fri", "time": "4:00pm"}, {"days": "Sat", "time": "9:30am"}, {"days": "Sun", "time": "Closed"}], "id": "7568100001", "name": "USPS COLLECTION BOX - BLUE BOX", "address": {"city": "MT ENTERPRISE", "state": "TX", "street": "211 E RUSK ST", "postcode": "75681"}}},
{"geometry": {"type": "Point", "coordinates": [-94.6510600463, 31.9170650329]}, "type": "Feature", "properties": {"collection_times": [{"days": "Mon-Fri", "time": "4:00pm"}, {"days": "Sat", "time": "9:30am"}, {"days": "Sun", "time": "Closed"}], "id": "7568100003", "name": "USPS COLLECTION BOX - PO LOBBY", "address": {"city": "MT ENTERPRISE", "state": "TX", "street": "211 E RUSK ST", "postcode": "75681"}}},
{"geometry": {"type": "Point", "coordinates": [-94.9440259159, 32.2309889022]}, "type": "Feature", "properties": {"collection_times": [{"days": "Mon-Fri", "time": "4:00pm"}, {"days": "Sat", "time": "8:30am"}, {"days": "Sun", "time": "Closed"}], "id": "7568200000", "name": "USPS COLLECTION BOX - BLUE BOX", "address": {"city": "NEW LONDON", "state": "TX", "street": "10750 S MAIN ST", "postcode": "75682"}}},
{"geometry": {"type": "Point", "coordinates": [-94.7207586706, 32.8010594143]}, "type": "Feature", "properties": {"collection_times": [{"days": "Mon-Fri", "time": "4:00pm"}, {"days": "Sat", "time": "9:30am"}, {"days": "Sun", "time": "Closed"}], "id": "7568300001", "name": "USPS COLLECTION BOX - BLUE BOX", "address": {"city": "ORE CITY", "state": "TX", "street": "203 US HIGHWAY 259 N", "postcode": "75683"}}},
{"geometry": {"type": "Point", "coordinates": [-94.7207586706, 32.8010594143]}, "type": "Feature", "properties": {"collection_times": [{"days": "Mon-Fri", "time": "4:00pm"}, {"days": "Sat", "time": "9:30am"}, {"days": "Sun", "time": "Closed"}], "id": "7568300002", "name": "USPS COLLECTION BOX - PO LOBBY", "address": {"city": "ORE CITY", "state": "TX", "street": "203 US HIGHWAY 259 N", "postcode": "75683"}}},
{"geometry": {"type": "Point", "coordinates": [-94.7207586706, 32.8010594143]}, "type": "Feature", "properties": {"collection_times": [{"days": "Mon-Fri", "time": "4:00pm"}, {"days": "Sat", "time": "9:30am"}, {"days": "Sun", "time": "Closed"}], "id": "7568300003", "name": "USPS COLLECTION BOX - PO LOBBY", "address": {"city": "ORE CITY", "state": "TX", "street": "203 US HIGHWAY 259 N", "postcode": "75683"}}},
{"geometry": {"type": "Point", "coordinates": [-94.9771494323, 32.2740777532]}, "type": "Feature", "properties": {"collection_times": [{"days": "Mon-Fri", "time": "4:00pm"}, {"days": "Sat", "time": "8:00am"}, {"days": "Sun", "time": "Closed"}], "id": "7568400000", "name": "USPS COLLECTION BOX - BLUE BOX", "address": {"city": "OVERTON", "state": "TX", "street": "115 S RUSK ST", "postcode": "75684"}}},
{"geometry": {"type": "Point", "coordinates": [-94.9771494323, 32.2740777532]}, "type": "Feature", "properties": {"collection_times": [{"days": "Mon-Fri", "time": "4:00pm"}, {"days": "Sat", "time": "8:00am"}, {"days": "Sun", "time": "Closed"}], "id": "7568400005", "name": "USPS COLLECTION BOX - PO LOBBY", "address": {"city": "OVERTON", "state": "TX", "street": "115 S RUSK ST", "postcode": "75684"}}},
{"geometry": {"type": "Point", "coordinates": [-94.9771494323, 32.2740777532]}, "type": "Feature", "properties": {"collection_times": [{"days": "Mon-Fri", "time": "4:00pm"}, {"days": "Sat", "time": "8:00am"}, {"days": "Sun", "time": "Closed"}], "id": "7568400006", "name": "USPS COLLECTION BOX - PO LOBBY", "address": {"city": "OVERTON", "state": "TX", "street": "115 S RUSK ST", "postcode": "75684"}}},
{"geometry": {"type": "Point", "coordinates": [-94.0919569905, 32.3575126491]}, "type": "Feature", "properties": {"collection_times": [{"days": "Mon-Fri", "time": "4:30pm"}, {"days": "Sat", "time": "9:00am"}, {"days": "Sun", "time": "Closed"}], "id": "7568500000", "name": "USPS COLLECTION BOX - BLUE BOX", "address": {"city": "PANOLA", "state": "TX", "street": "175 S FM 9", "postcode": "75685"}}},
{"geometry": {"type": "Point", "coordinates": [-94.0919569905, 32.3575126491]}, "type": "Feature", "properties": {"collection_times": [{"days": "Mon-Fri", "time": "4:30pm"}, {"days": "Sat", "time": "9:00am"}, {"days": "Sun", "time": "Closed"}], "id": "7568500001", "name": "USPS COLLECTION BOX - PO LOBBY", "address": {"city": "PANOLA", "state": "TX", "street": "175 S FM 9", "postcode": "75685"}}},
{"geometry": {"type": "Point", "coordinates": [-94.9667724678, 32.9947282805]}, "type": "Feature", "properties": {"collection_times": [{"days": "Mon-Fri", "time": "4:30pm"}, {"days": "Sat", "time": "3:30pm"}, {"days": "Sun", "time": "Closed"}], "id": "7568606403", "name": "USPS COLLECTION BOX - PO LOBBY", "address": {"city": "PITTSBURG", "state": "TX", "street": "151 E MARSHALL ST", "postcode": "75686"}}},
{"geometry": {"type": "Point", "coordinates": [-94.9667724678, 32.9947282805]}, "type": "Feature", "properties": {"collection_times": [{"days": "Mon-Fri", "time": "4:30pm"}, {"days": "Sat", "time": "3:30pm"}, {"days": "Sun", "time": "Closed"}], "id": "7568606404", "name": "USPS COLLECTION BOX - PO LOBBY", "address": {"city": "PITTSBURG", "state": "TX", "street": "151 E MARSHALL ST", "postcode": "75686"}}},
{"geometry": {"type": "Point", "coordinates": [-94.9667724678, 32.9947282805]}, "type": "Feature", "properties": {"collection_times": [{"days": "Mon-Sat", "time": "3:30pm"}, {"days": "Sun", "time": "Closed"}], "id": "7568606406", "name": "USPS COLLECTION BOX - BLUE BOX", "address": {"city": "PITTSBURG", "state": "TX", "street": "151 E MARSHALL ST", "postcode": "75686"}}},
{"geometry": {"type": "Point", "coordinates": [-94.9667724678, 32.9947282805]}, "type": "Feature", "properties": {"collection_times": [{"days": "Mon-Sat", "time": "3:30pm"}, {"days": "Sun", "time": "Closed"}], "id": "7568606408", "name": "USPS COLLECTION BOX - BLUE BOX", "address": {"city": "PITTSBURG", "state": "TX", "street": "151 E MARSHALL ST", "postcode": "75686"}}},
{"geometry": {"type": "Point", "coordinates": [-94.9822557614, 32.1097059645]}, "type": "Feature", "properties": {"collection_times": [{"days": "Mon-Fri", "time": "4:00pm"}, {"days": "Sat", "time": "9:30am"}, {"days": "Sun", "time": "Closed"}], "id": "7568700000", "name": "USPS COLLECTION BOX - BLUE BOX", "address": {"city": "PRICE", "state": "TX", "street": "9031 FM 13", "postcode": "75687"}}},
{"geometry": {"type": "Point", "coordinates": [-94.9822557614, 32.1097059645]}, "type": "Feature", "properties": {"collection_times": [{"days": "Mon-Fri", "time": "11:30am"}, {"days": "Sat", "time": "9:00am"}, {"days": "Sun", "time": "Closed"}], "id": "7568700002", "name": "USPS COLLECTION BOX - PO LOBBY", "address": {"city": "PRICE", "state": "TX", "street": "9031 FM 13", "postcode": "75687"}}},
{"geometry": {"type": "Point", "coordinates": [-94.2430191154, 32.5176592734]}, "type": "Feature", "properties": {"collection_times": [{"days": "Mon-Fri", "time": "2:30pm"}, {"days": "Sat", "time": "9:00am"}, {"days": "Sun", "time": "Closed"}], "id": "7568800001", "name": "USPS COLLECTION BOX - PO LOBBY", "address": {"city": "SCOTTSVILLE", "state": "TX", "street": "8657 US HIGHWAY 80 E", "postcode": "75688"}}},
{"geometry": {"type": "Point", "coordinates": [-94.2430191154, 32.5176592734]}, "type": "Feature", "properties": {"collection_times": [{"days": "Mon-Fri", "time": "4:30pm"}, {"days": "Sat", "time": "9:00am"}, {"days": "Sun", "time": "Closed"}], "id": "7568800002", "name": "USPS COLLECTION BOX - BLUE BOX", "address": {"city": "SCOTTSVILLE", "state": "TX", "street": "8657 US HIGHWAY 80 E", "postcode": "75688"}}},
{"geometry": {"type": "Point", "coordinates": [-94.2430191154, 32.5176592734]}, "type": "Feature", "properties": {"collection_times": [{"days": "Mon-Fri", "time": "4:30pm"}, {"days": "Sat", "time": "9:00am"}, {"days": "Sun", "time": "Closed"}], "id": "7568800003", "name": "USPS COLLECTION BOX - BLUE BOX", "address": {"city": "SCOTTSVILLE", "state": "TX", "street": "8657 US HIGHWAY 80 E", "postcode": "75688"}}},
{"geometry": {"type": "Point", "coordinates": [-94.9553197359, 32.1726415241]}, "type": "Feature", "properties": {"collection_times": [{"days": "Mon-Fri", "time": "3:30pm"}, {"days": "Sat", "time": "8:00am"}, {"days": "Sun", "time": "Closed"}], "id": "7568907323", "name": "USPS COLLECTION BOX - BLUE BOX", "address": {"city": "SELMAN CITY", "state": "TX", "street": "10310 HIGHWAY 64 W", "postcode": "75689"}}},
{"geometry": {"type": "Point", "coordinates": [-94.9553197359, 32.1726415241]}, "type": "Feature", "properties": {"collection_times": [{"days": "Mon-Fri", "time": "11:30am"}, {"days": "Sat", "time": "8:00am"}, {"days": "Sun", "time": "Closed"}], "id": "7568907324", "name": "USPS COLLECTION BOX - PO LOBBY", "address": {"city": "SELMAN CITY", "state": "TX", "street": "10310 HIGHWAY 64 W", "postcode": "75689"}}},
{"geometry": {"type": "Point", "coordinates": [-94.9553197359, 32.1726415241]}, "type": "Feature", "properties": {"collection_times": [{"days": "Mon-Fri", "time": "11:30am"}, {"days": "Sat", "time": "8:00am"}, {"days": "Sun", "time": "Closed"}], "id": "7568907325", "name": "USPS COLLECTION BOX - PO LOBBY", "address": {"city": "SELMAN CITY", "state": "TX", "street": "10310 HIGHWAY 64 W", "postcode": "75689"}}},
{"geometry": {"type": "Point", "coordinates": [-94.5589264006, 32.3212215376]}, "type": "Feature", "properties": {"collection_times": [{"days": "Mon-Fri", "time": "4:00pm"}, {"days": "Sat", "time": "9:30am"}, {"days": "Sun", "time": "Closed"}], "id": "7569100001", "name": "USPS COLLECTION BOX - BLUE BOX", "address": {"city": "TATUM", "state": "TX", "street": "265 N HOOD ST", "postcode": "75691"}}},
{"geometry": {"type": "Point", "coordinates": [-94.5589264006, 32.3212215376]}, "type": "Feature", "properties": {"collection_times": [{"days": "Mon-Fri", "time": "4:00pm"}, {"days": "Sat", "time": "9:30am"}, {"days": "Sun", "time": "Closed"}], "id": "7569100003", "name": "USPS COLLECTION BOX - PO LOBBY", "address": {"city": "TATUM", "state": "TX", "street": "265 N HOOD ST", "postcode": "75691"}}},
{"geometry": {"type": "Point", "coordinates": [-94.0631212074, 32.4795646234]}, "type": "Feature", "properties": {"collection_times": [{"days": "Mon-Fri", "time": "9:00am"}, {"days": "Sat-Sun", "time": "Closed"}], "id": "7569200000", "name": "USPS COLLECTION BOX - BLUE BOX", "address": {"city": "WASKOM", "state": "TX", "street": "396 W TEXAS AVE", "postcode": "75692"}}},
{"geometry": {"type": "Point", "coordinates": [-94.0531154645, 32.4749217051]}, "type": "Feature", "properties": {"collection_times": [{"days": "Mon-Fri", "time": "4:00pm"}, {"days": "Sat", "time": "9:00am"}, {"days": "Sun", "time": "Closed"}], "id": "7569200001", "name": "USPS COLLECTION BOX - BLUE BOX", "address": {"city": "WASKOM", "state": "TX", "street": "265 SPUR 156", "postcode": "75692"}}},
{"geometry": {"type": "Point", "coordinates": [-94.0531154645, 32.4749217051]}, "type": "Feature", "properties": {"collection_times": [{"days": "Mon-Fri", "time": "4:00pm"}, {"days": "Sat", "time": "9:00am"}, {"days": "Sun", "time": "Closed"}], "id": "7569200002", "name": "USPS COLLECTION BOX - BLUE BOX", "address": {"city": "WASKOM", "state": "TX", "street": "265 SPUR 156", "postcode": "75692"}}},
{"geometry": {"type": "Point", "coordinates": [-94.1249930836, 32.4791375293]}, "type": "Feature", "properties": {"collection_times": [{"days": "Mon-Fri", "time": "12:00pm"}, {"days": "Sat-Sun", "time": "Closed"}], "id": "7569200003", "name": "USPS COLLECTION BOX - BLUE BOX", "address": {"city": "WASKOM", "state": "TX", "street": "1255 N INTERSTATE 20 WEST", "postcode": "75692"}}},
{"geometry": {"type": "Point", "coordinates": [-94.0531154645, 32.4749217051]}, "type": "Feature", "properties": {"collection_times": [{"days": "Mon-Fri", "time": "4:00pm"}, {"days": "Sat", "time": "9:00am"}, {"days": "Sun", "time": "Closed"}], "id": "7569200005", "name": "USPS COLLECTION BOX - PO LOBBY", "address": {"city": "WASKOM", "state": "TX", "street": "265 SPUR 156", "postcode": "75692"}}},
{"geometry": {"type": "Point", "coordinates": [-94.8620208405, 32.518921161]}, "type": "Feature", "properties": {"collection_times": [{"days": "Mon-Fri", "time": "3:00pm"}, {"days": "Sat", "time": "12:00pm"}, {"days": "Sun", "time": "Closed"}], "id": "7569306355", "name": "USPS COLLECTION BOX - BLUE BOX", "address": {"city": "WHITE OAK", "state": "TX", "street": "1200 S WHITE OAK RD", "postcode": "75693"}}},
{"geometry": {"type": "Point", "coordinates": [-94.8620208405, 32.518921161]}, "type": "Feature", "properties": {"collection_times": [{"days": "Mon-Fri", "time": "3:00pm"}, {"days": "Sat", "time": "12:00pm"}, {"days": "Sun", "time": "Closed"}], "id": "7569306356", "name": "USPS COLLECTION BOX - BLUE BOX", "address": {"city": "WHITE OAK", "state": "TX", "street": "1200 S WHITE OAK RD", "postcode": "75693"}}},
{"geometry": {"type": "Point", "coordinates": [-94.8620208405, 32.518921161]}, "type": "Feature", "properties": {"collection_times": [{"days": "Mon-Fri", "time": "3:00pm"}, {"days": "Sat", "time": "12:00pm"}, {"days": "Sun", "time": "Closed"}], "id": "7569306358", "name": "USPS COLLECTION BOX - PO LOBBY", "address": {"city": "WHITE OAK", "state": "TX", "street": "1200 S WHITE OAK RD", "postcode": "75693"}}},
{"geometry": {"type": "Point", "coordinates": [-94.3428363665, 32.6662961182]}, "type": "Feature", "properties": {"collection_times": [{"days": "Mon-Fri", "time": "4:00pm"}, {"days": "Sat", "time": "9:30am"}, {"days": "Sun", "time": "Closed"}], "id": "7569400000", "name": "USPS COLLECTION BOX - BLUE BOX", "address": {"city": "WOODLAWN", "state": "TX", "street": "9600 US HIGHWAY 59 N", "postcode": "75694"}}},
{"geometry": {"type": "Point", "coordinates": [-94.3428363665, 32.6662961182]}, "type": "Feature", "properties": {"collection_times": [{"days": "Mon-Fri", "time": "11:30am"}, {"days": "Sat", "time": "9:30am"}, {"days": "Sun", "time": "Closed"}], "id": "7569400001", "name": "USPS COLLECTION BOX - PO LOBBY", "address": {"city": "WOODLAWN", "state": "TX", "street": "9600 US HIGHWAY 59 N", "postcode": "75694"}}}
]}
