{"type": "FeatureCollection", "features": [
{"geometry": {"type": "Point", "coordinates": [-95.2887749729, 32.3430821025]}, "type": "Feature", "properties": {"collection_times": [{"days": "Mon-Fri", "time": "1:00pm"}, {"days": "Sat-Sun", "time": "Closed"}], "id": "7570106858", "name": "USPS COLLECTION BOX - BLUE BOX", "address": {"city": "TYLER", "state": "TX", "street": "619 S FLEISHEL AVE", "postcode": "75701"}}},
{"geometry": {"type": "Point", "coordinates": [-95.2908635911, 32.3417528561]}, "type": "Feature", "properties": {"collection_times": [{"days": "Mon-Fri", "time": "4:00pm"}, {"days": "Sat", "time": "1:00pm"}, {"days": "Sun", "time": "Closed"}], "id": "7570106859", "name": "USPS COLLECTION BOX - BLUE BOX", "address": {"city": "TYLER", "state": "TX", "street": "802 E DAWSON ST", "postcode": "75701"}}},
{"geometry": {"type": "Point", "coordinates": [-95.2888111418, 32.3400329233]}, "type": "Feature", "properties": {"collection_times": [{"days": "Mon-Fri", "time": "4:00pm"}, {"days": "Sat", "time": "1:00pm"}, {"days": "Sun", "time": "Closed"}], "id": "7570106860", "name": "USPS COLLECTION BOX - BLUE BOX", "address": {"city": "TYLER", "state": "TX", "street": "826 S FLEISHEL AVE", "postcode": "75701"}}},
{"geometry": {"type": "Point", "coordinates": [-95.3003754059, 32.3281979861]}, "type": "Feature", "properties": {"collection_times": [{"days": "Mon-Fri", "time": "4:00pm"}, {"days": "Sat", "time": "1:00pm"}, {"days": "Sun", "time": "Closed"}], "id": "7570106863", "name": "USPS COLLECTION BOX - BLUE BOX", "address": {"city": "TYLER", "state": "TX", "street": "120 E 8TH ST", "postcode": "75701"}}},
{"geometry": {"type": "Point", "coordinates": [-95.2876116215, 32.3363137004]}, "type": "Feature", "properties": {"collection_times": [{"days": "Mon-Fri", "time": "4:00pm"}, {"days": "Sat-Sun", "time": "Closed"}], "id": "7570106898", "name": "USPS COLLECTION BOX - BLUE BOX", "address": {"city": "TYLER", "state": "TX", "street": "1100 E LAKE ST", "postcode": "75701"}}},
{"geometry": {"type": "Point", "coordinates": [-95.2903523785, 32.3333466697]}, "type": "Feature", "properties": {"collection_times": [{"days": "Mon-Fri", "time": "4:30pm"}, {"days": "Sat-Sun", "time": "Closed"}], "id": "7570106899", "name": "USPS COLLECTION BOX - BLUE BOX", "address": {"city": "TYLER", "state": "TX", "street": "1020 E 2ND ST", "postcode": "75701"}}},
{"geometry": {"type": "Point", "coordinates": [-95.2906178969, 32.3028914317]}, "type": "Feature", "properties": {"collection_times": [{"days": "Mon-Fri", "time": "3:30pm"}, {"days": "Sat-Sun", "time": "Closed"}], "id": "7570106900", "name": "USPS COLLECTION BOX - BLUE BOX", "address": {"city": "TYLER", "state": "TX", "street": "909 E SOUTHEAST LOOP 323", "postcode": "75701"}}},
{"geometry": {"type": "Point", "coordinates": [-95.3006821351, 32.3089873483]}, "type": "Feature", "properties": {"collection_times": [{"days": "Mon-Fri", "time": "11:00am"}, {"days": "Sat-Sun", "time": "Closed"}], "id": "7570106903", "name": "USPS COLLECTION BOX - BLUE BOX", "address": {"city": "TYLER", "state": "TX", "street": "3613 S BROADWAY AVE", "postcode": "75701"}}},
{"geometry": {"type": "Point", "coordinates": [-95.2882142773, 32.303258355]}, "type": "Feature", "properties": {"collection_times": [{"days": "Mon-Fri", "time": "3:45pm"}, {"days": "Sat-Sun", "time": "Closed"}], "id": "7570106904", "name": "USPS COLLECTION BOX - BLUE BOX", "address": {"city": "TYLER", "state": "TX", "street": "1121 E SOUTHEAST LOOP 323", "postcode": "75701"}}},
{"geometry": {"type": "Point", "coordinates": [-95.2982501792, 32.3030986817]}, "type": "Feature", "properties": {"collection_times": [{"days": "Mon-Sat", "time": "12:00pm"}, {"days": "Sun", "time": "Closed"}], "id": "7570106905", "name": "USPS COLLECTION BOX - BLUE BOX", "address": {"city": "TYLER", "state": "TX", "street": "322 E SOUTHEAST LOOP 323", "postcode": "75701"}}},
{"geometry": {"type": "Point", "coordinates": [-95.2777530806, 32.3094528788]}, "type": "Feature", "properties": {"collection_times": [{"days": "Mon-Fri", "time": "4:15pm"}, {"days": "Sat", "time": "1:00pm"}, {"days": "Sun", "time": "Closed"}], "id": "7570106906", "name": "USPS COLLECTION BOX - BLUE BOX", "address": {"city": "TYLER", "state": "TX", "street": "1900 E SOUTHEAST LOOP 323", "postcode": "75701"}}},
{"geometry": {"type": "Point", "coordinates": [-95.2774919974, 32.316438382]}, "type": "Feature", "properties": {"collection_times": [{"days": "Mon-Fri", "time": "4:15pm"}, {"days": "Sat", "time": "1:00pm"}, {"days": "Sun", "time": "Closed"}], "id": "7570106908", "name": "USPS COLLECTION BOX - BLUE BOX", "address": {"city": "TYLER", "state": "TX", "street": "1801 TROUP HWY", "postcode": "75701"}}},
{"geometry": {"type": "Point", "coordinates": [-95.2759985133, 32.3143922878]}, "type": "Feature", "properties": {"collection_times": [{"days": "Mon-Fri", "time": "4:15pm"}, {"days": "Sat", "time": "1:00pm"}, {"days": "Sun", "time": "Closed"}], "id": "7570106911", "name": "USPS COLLECTION BOX - BLUE BOX", "address": {"city": "TYLER", "state": "TX", "street": "3200 TROUP HWY", "postcode": "75701"}}},
{"geometry": {"type": "Point", "coordinates": [-95.2955960094, 32.3239204095]}, "type": "Feature", "properties": {"collection_times": [{"days": "Mon-Fri", "time": "2:00pm"}, {"days": "Sat-Sun", "time": "Closed"}], "id": "7570106913", "name": "USPS COLLECTION BOX - BLUE BOX", "address": {"city": "TYLER", "state": "TX", "street": "12300 HIGHWAY 64 E", "postcode": "75701"}}},
{"geometry": {"type": "Point", "coordinates": [-95.3399614535, 32.3097197824]}, "type": "Feature", "properties": {"collection_times": [{"days": "Mon-Fri", "time": "10:00am"}, {"days": "Sat-Sun", "time": "Closed"}], "id": "7570106914", "name": "USPS COLLECTION BOX - BLUE BOX", "address": {"city": "TYLER", "state": "TX", "street": "3350 S SOUTHWEST LOOP 323", "postcode": "75701"}}},
{"geometry": {"type": "Point", "coordinates": [-95.3399614535, 32.3097197824]}, "type": "Feature", "properties": {"collection_times": [{"days": "Mon-Fri", "time": "10:00am"}, {"days": "Sat-Sun", "time": "Closed"}], "id": "7570106915", "name": "USPS COLLECTION BOX - BLUE BOX", "address": {"city": "TYLER", "state": "TX", "street": "3350 S SOUTHWEST LOOP 323", "postcode": "75701"}}},
{"geometry": {"type": "Point", "coordinates": [-95.3088386371, 32.3056407573]}, "type": "Feature", "properties": {"collection_times": [{"days": "Mon-Fri", "time": "11:00am"}, {"days": "Sat-Sun", "time": "Closed"}], "id": "7570106918", "name": "USPS COLLECTION BOX - BLUE BOX", "address": {"city": "TYLER", "state": "TX", "street": "3910 BROOKSIDE DR", "postcode": "75701"}}},
{"geometry": {"type": "Point", "coordinates": [-95.2888111418, 32.3400329233]}, "type": "Feature", "properties": {"collection_times": [{"days": "Mon-Fri", "time": "4:00pm"}, {"days": "Sat", "time": "1:00pm"}, {"days": "Sun", "time": "Closed"}], "id": "7570106921", "name": "USPS COLLECTION BOX - BLUE BOX", "address": {"city": "TYLER", "state": "TX", "street": "826 S FLEISHEL AVE", "postcode": "75701"}}},
{"geometry": {"type": "Point", "coordinates": [-95.3003754059, 32.3281979861]}, "type": "Feature", "properties": {"collection_times": [{"days": "Mon-Fri", "time": "4:00pm"}, {"days": "Sat", "time": "1:00pm"}, {"days": "Sun", "time": "Closed"}], "id": "7570106924", "name": "USPS COLLECTION BOX - BLUE BOX", "address": {"city": "TYLER", "state": "TX", "street": "120 E 8TH ST", "postcode": "75701"}}},
{"geometry": {"type": "Point", "coordinates": [-95.2659418833, 32.3306456627]}, "type": "Feature", "properties": {"collection_times": [{"days": "Mon-Fri", "time": "4:00pm"}, {"days": "Sat", "time": "1:00pm"}, {"days": "Sun", "time": "Closed"}], "id": "7570106928", "name": "USPS COLLECTION BOX - BLUE BOX", "address": {"city": "TYLER", "state": "TX", "street": "1702 S SOUTHEAST LOOP 323", "postcode": "75701"}}},
{"geometry": {"type": "Point", "coordinates": [-95.2659418833, 32.3306456627]}, "type": "Feature", "properties": {"collection_times": [{"days": "Mon-Fri", "time": "4:00pm"}, {"days": "Sat", "time": "1:00pm"}, {"days": "Sun", "time": "Closed"}], "id": "7570106929", "name": "USPS COLLECTION BOX - BLUE BOX", "address": {"city": "TYLER", "state": "TX", "street": "1702 S SOUTHEAST LOOP 323", "postcode": "75701"}}},
{"geometry": {"type": "Point", "coordinates": [-95.3125647885, 32.3034647902]}, "type": "Feature", "properties": {"collection_times": [{"days": "Mon-Fri", "time": "3:30pm"}, {"days": "Sat", "time": "1:00pm"}, {"days": "Sun", "time": "Closed"}], "id": "7570106932", "name": "USPS COLLECTION BOX - BLUE BOX", "address": {"city": "TYLER", "state": "TX", "street": "1000 W SOUTHWEST LOOP 323", "postcode": "75701"}}},
{"geometry": {"type": "Point", "coordinates": [-95.3125647885, 32.3034647902]}, "type": "Feature", "properties": {"collection_times": [{"days": "Mon-Fri", "time": "3:30pm"}, {"days": "Sat", "time": "1:00pm"}, {"days": "Sun", "time": "Closed"}], "id": "7570106933", "name": "USPS COLLECTION BOX - BLUE BOX", "address": {"city": "TYLER", "state": "TX", "street": "1000 W SOUTHWEST LOOP 323", "postcode": "75701"}}},
{"geometry": {"type": "Point", "coordinates": [-95.3006048266, 32.3137150735]}, "type": "Feature", "properties": {"collection_times": [{"days": "Mon-Fri", "time": "2:30pm"}, {"days": "Sat-Sun", "time": "Closed"}], "id": "7570106935", "name": "USPS COLLECTION BOX - BLUE BOX", "address": {"city": "TYLER", "state": "TX", "street": "3304 S BROADWAY AVE", "postcode": "75701"}}},
{"geometry": {"type": "Point", "coordinates": [-95.2777530806, 32.3094528788]}, "type": "Feature", "properties": {"collection_times": [{"days": "Mon-Fri", "time": "4:15pm"}, {"days": "Sat", "time": "1:00pm"}, {"days": "Sun", "time": "Closed"}], "id": "7570106938", "name": "USPS COLLECTION BOX - BLUE BOX", "address": {"city": "TYLER", "state": "TX", "street": "1900 E SOUTHEAST LOOP 323", "postcode": "75701"}}},
{"geometry": {"type": "Point", "coordinates": [-95.2745517545, 32.311905708]}, "type": "Feature", "properties": {"collection_times": [{"days": "Mon-Fri", "time": "4:30pm"}, {"days": "Sat", "time": "1:00pm"}, {"days": "Sun", "time": "Closed"}], "id": "7570106941", "name": "USPS COLLECTION BOX - BLUE BOX", "address": {"city": "TYLER", "state": "TX", "street": "3320 TROUP HWY", "postcode": "75701"}}},
{"geometry": {"type": "Point", "coordinates": [-95.2745517545, 32.311905708]}, "type": "Feature", "properties": {"collection_times": [{"days": "Mon-Fri", "time": "4:30pm"}, {"days": "Sat", "time": "1:00pm"}, {"days": "Sun", "time": "Closed"}], "id": "7570106942", "name": "USPS COLLECTION BOX - BLUE BOX", "address": {"city": "TYLER", "state": "TX", "street": "3320 TROUP HWY", "postcode": "75701"}}},
{"geometry": {"type": "Point", "coordinates": [-95.3006691225, 32.3210760059]}, "type": "Feature", "properties": {"collection_times": [{"days": "Mon-Fri", "time": "5:00pm"}, {"days": "Sat", "time": "1:00pm"}, {"days": "Sun", "time": "Closed"}], "id": "7570106950", "name": "USPS COLLECTION BOX - BLUE BOX", "address": {"city": "TYLER", "state": "TX", "street": "2627 S BROADWAY AVE", "postcode": "75701"}}},
{"geometry": {"type": "Point", "coordinates": [-95.3006691225, 32.3210760059]}, "type": "Feature", "properties": {"collection_times": [{"days": "Mon-Fri", "time": "5:00pm"}, {"days": "Sat", "time": "1:00pm"}, {"days": "Sun", "time": "Closed"}], "id": "7570106951", "name": "USPS COLLECTION BOX - BLUE BOX", "address": {"city": "TYLER", "state": "TX", "street": "2627 S BROADWAY AVE", "postcode": "75701"}}},
{"geometry": {"type": "Point", "coordinates": [-95.293006503, 32.3028845381]}, "type": "Feature", "properties": {"collection_times": [{"days": "Mon-Fri", "time": "3:30pm"}, {"days": "Sat-Sun", "time": "Closed"}], "id": "7570106957", "name": "USPS COLLECTION BOX - BLUE BOX", "address": {"city": "TYLER", "state": "TX", "street": "821 E SOUTHEAST LOOP 323", "postcode": "75701"}}},
{"geometry": {"type": "Point", "coordinates": [-95.3006691225, 32.3210760059]}, "type": "Feature", "properties": {"collection_times": [{"days": "Mon-Fri", "time": "5:00pm"}, {"days": "Sat", "time": "1:00pm"}, {"days": "Sun", "time": "Closed"}], "id": "7570106960", "name": "USPS COLLECTION BOX - PO LOBBY", "address": {"city": "TYLER", "state": "TX", "street": "2627 S BROADWAY AVE", "postcode": "75701"}}},
{"geometry": {"type": "Point", "coordinates": [-95.3006691225, 32.3210760059]}, "type": "Feature", "properties": {"collection_times": [{"days": "Mon-Fri", "time": "5:00pm"}, {"days": "Sat", "time": "1:00pm"}, {"days": "Sun", "time": "Closed"}], "id": "7570106961", "name": "USPS COLLECTION BOX - PO LOBBY", "address": {"city": "TYLER", "state": "TX", "street": "2627 S BROADWAY AVE", "postcode": "75701"}}},
{"geometry": {"type": "Point", "coordinates": [-95.2745517545, 32.311905708]}, "type": "Feature", "properties": {"collection_times": [{"days": "Mon-Fri", "time": "5:00pm"}, {"days": "Sat-Sun", "time": "Closed"}], "id": "7570106963", "name": "USPS COLLECTION BOX - PO LOBBY", "address": {"city": "TYLER", "state": "TX", "street": "3320 TROUP HWY", "postcode": "75701"}}},
{"geometry": {"type": "Point", "coordinates": [-95.2745517545, 32.311905708]}, "type": "Feature", "properties": {"collection_times": [{"days": "Mon-Fri", "time": "5:00pm"}, {"days": "Sat-Sun", "time": "Closed"}], "id": "7570106964", "name": "USPS COLLECTION BOX - PO LOBBY", "address": {"city": "TYLER", "state": "TX", "street": "3320 TROUP HWY", "postcode": "75701"}}},
{"geometry": {"type": "Point", "coordinates": [-95.3144544146, 32.3034654009]}, "type": "Feature", "properties": {"collection_times": [{"days": "Mon-Fri", "time": "3:15pm"}, {"days": "Sat-Sun", "time": "Closed"}], "id": "7570106967", "name": "USPS COLLECTION BOX - BLUE BOX", "address": {"city": "TYLER", "state": "TX", "street": "1222 W SOUTHWEST LOOP 323", "postcode": "75701"}}},
{"geometry": {"type": "Point", "coordinates": [-95.2727560228, 32.3442643676]}, "type": "Feature", "properties": {"collection_times": [{"days": "Mon-Fri", "time": "1:45pm"}, {"days": "Sat", "time": "1:00pm"}, {"days": "Sun", "time": "Closed"}], "id": "7570106977", "name": "USPS COLLECTION BOX - BLUE BOX", "address": {"city": "TYLER", "state": "TX", "street": "601 GOLDEN RD", "postcode": "75701"}}},
{"geometry": {"type": "Point", "coordinates": [-95.2918773715, 32.3381721289]}, "type": "Feature", "properties": {"collection_times": [{"days": "Mon-Fri", "time": "4:15pm"}, {"days": "Sat-Sun", "time": "Closed"}], "id": "7570106979", "name": "USPS COLLECTION BOX - BLUE BOX", "address": {"city": "TYLER", "state": "TX", "street": "1000 S BECKHAM AVE", "postcode": "75701"}}},
{"geometry": {"type": "Point", "coordinates": [-95.3006691225, 32.3210760059]}, "type": "Feature", "properties": {"collection_times": [{"days": "Mon-Fri", "time": "5:00pm"}, {"days": "Sat", "time": "1:00pm"}, {"days": "Sun", "time": "Closed"}], "id": "7570106980", "name": "USPS COLLECTION BOX - APC", "address": {"city": "TYLER", "state": "TX", "street": "2627 S BROADWAY AVE", "postcode": "75701"}}},
{"geometry": {"type": "Point", "coordinates": [-95.2745517545, 32.311905708]}, "type": "Feature", "properties": {"collection_times": [{"days": "Mon-Fri", "time": "5:00pm"}, {"days": "Sat-Sun", "time": "Closed"}], "id": "7570106981", "name": "USPS COLLECTION BOX - APC", "address": {"city": "TYLER", "state": "TX", "street": "3320 TROUP HWY", "postcode": "75701"}}},
{"geometry": {"type": "Point", "coordinates": [-95.3006359997, 32.3534157381]}, "type": "Feature", "properties": {"collection_times": [{"days": "Mon-Fri", "time": "4:00pm"}, {"days": "Sat-Sun", "time": "Closed"}], "id": "7570206783", "name": "USPS COLLECTION BOX - BLUE BOX", "address": {"city": "TYLER", "state": "TX", "street": "315 N BROADWAY AVE", "postcode": "75702"}}},
{"geometry": {"type": "Point", "coordinates": [-95.3016876502, 32.3509090481]}, "type": "Feature", "properties": {"collection_times": [{"days": "Mon-Fri", "time": "4:00pm"}, {"days": "Sat", "time": "1:00pm"}, {"days": "Sun", "time": "Closed"}], "id": "7570206788", "name": "USPS COLLECTION BOX - BLUE BOX", "address": {"city": "TYLER", "state": "TX", "street": "102 S COLLEGE AVE", "postcode": "75702"}}},
{"geometry": {"type": "Point", "coordinates": [-95.3016876502, 32.3509090481]}, "type": "Feature", "properties": {"collection_times": [{"days": "Mon-Fri", "time": "4:00pm"}, {"days": "Sat", "time": "1:00pm"}, {"days": "Sun", "time": "Closed"}], "id": "7570206789", "name": "USPS COLLECTION BOX - BLUE BOX", "address": {"city": "TYLER", "state": "TX", "street": "102 S COLLEGE AVE", "postcode": "75702"}}},
{"geometry": {"type": "Point", "coordinates": [-95.3006395485, 32.347508041]}, "type": "Feature", "properties": {"collection_times": [{"days": "Mon-Fri", "time": "4:00pm"}, {"days": "Sat", "time": "1:00pm"}, {"days": "Sun", "time": "Closed"}], "id": "7570206800", "name": "USPS COLLECTION BOX - BLUE BOX", "address": {"city": "TYLER", "state": "TX", "street": "315 S BROADWAY AVE", "postcode": "75702"}}},
{"geometry": {"type": "Point", "coordinates": [-95.3007033939, 32.3505139712]}, "type": "Feature", "properties": {"collection_times": [{"days": "Mon-Fri", "time": "3:30pm"}, {"days": "Sat", "time": "1:00pm"}, {"days": "Sun", "time": "Closed"}], "id": "7570206802", "name": "USPS COLLECTION BOX - BLUE BOX", "address": {"city": "TYLER", "state": "TX", "street": "121 S BROADWAY AVE", "postcode": "75702"}}},
{"geometry": {"type": "Point", "coordinates": [-95.2959125448, 32.346697939]}, "type": "Feature", "properties": {"collection_times": [{"days": "Mon-Fri", "time": "4:00pm"}, {"days": "Sat", "time": "1:00pm"}, {"days": "Sun", "time": "Closed"}], "id": "7570206805", "name": "USPS COLLECTION BOX - BLUE BOX", "address": {"city": "TYLER", "state": "TX", "street": "506 E FRONT ST", "postcode": "75702"}}},
{"geometry": {"type": "Point", "coordinates": [-95.2940632243, 32.3446888865]}, "type": "Feature", "properties": {"collection_times": [{"days": "Mon-Fri", "time": "4:00pm"}, {"days": "Sat", "time": "1:00pm"}, {"days": "Sun", "time": "Closed"}], "id": "7570206806", "name": "USPS COLLECTION BOX - BLUE BOX", "address": {"city": "TYLER", "state": "TX", "street": "514 S BECKHAM AVE", "postcode": "75702"}}},
{"geometry": {"type": "Point", "coordinates": [-95.3167348882, 32.3466042604]}, "type": "Feature", "properties": {"collection_times": [{"days": "Mon-Fri", "time": "4:00pm"}, {"days": "Sat-Sun", "time": "Closed"}], "id": "7570206810", "name": "USPS COLLECTION BOX - BLUE BOX", "address": {"city": "TYLER", "state": "TX", "street": "1517 W FRONT ST", "postcode": "75702"}}},
{"geometry": {"type": "Point", "coordinates": [-95.3414995685, 32.3450855378]}, "type": "Feature", "properties": {"collection_times": [{"days": "Mon-Fri", "time": "4:30pm"}, {"days": "Sat", "time": "1:00pm"}, {"days": "Sun", "time": "Closed"}], "id": "7570206811", "name": "USPS COLLECTION BOX - BLUE BOX", "address": {"city": "TYLER", "state": "TX", "street": "510 S SOUTHWEST LOOP 323", "postcode": "75702"}}},
{"geometry": {"type": "Point", "coordinates": [-95.3044652378, 32.3507446168]}, "type": "Feature", "properties": {"collection_times": [{"days": "Mon-Fri", "time": "3:30pm"}, {"days": "Sat", "time": "1:00pm"}, {"days": "Sun", "time": "Closed"}], "id": "7570206813", "name": "USPS COLLECTION BOX - BLUE BOX", "address": {"city": "TYLER", "state": "TX", "street": "410 W ERWIN ST", "postcode": "75702"}}},
{"geometry": {"type": "Point", "coordinates": [-95.3107786898, 32.3594843176]}, "type": "Feature", "properties": {"collection_times": [{"days": "Mon-Fri", "time": "3:30pm"}, {"days": "Sat-Sun", "time": "Closed"}], "id": "7570206814", "name": "USPS COLLECTION BOX - BLUE BOX", "address": {"city": "TYLER", "state": "TX", "street": "900 W GENTRY PKWY", "postcode": "75702"}}},
{"geometry": {"type": "Point", "coordinates": [-95.2910391012, 32.344687276]}, "type": "Feature", "properties": {"collection_times": [{"days": "Mon-Fri", "time": "4:00pm"}, {"days": "Sat-Sun", "time": "Closed"}], "id": "7570207351", "name": "USPS COLLECTION BOX - BLUE BOX", "address": {"city": "TYLER", "state": "TX", "street": "520 DOUGLAS BLVD", "postcode": "75702"}}},
{"geometry": {"type": "Point", "coordinates": [-95.3251788493, 32.3689089517]}, "type": "Feature", "properties": {"collection_times": [{"days": "Mon-Fri", "time": "5:00pm"}, {"days": "Sat", "time": "1:00pm"}, {"days": "Sun", "time": "Closed"}], "id": "7570207357", "name": "USPS COLLECTION BOX - BLUE BOX", "address": {"city": "TYLER", "state": "TX", "street": "2100 W MARTIN LUTHER KING JR BLVD", "postcode": "75702"}}},
{"geometry": {"type": "Point", "coordinates": [-95.3251788493, 32.3689089517]}, "type": "Feature", "properties": {"collection_times": [{"days": "Mon-Fri", "time": "5:00pm"}, {"days": "Sat", "time": "1:00pm"}, {"days": "Sun", "time": "Closed"}], "id": "7570207358", "name": "USPS COLLECTION BOX - BLUE BOX", "address": {"city": "TYLER", "state": "TX", "street": "2100 W MARTIN LUTHER KING JR BLVD", "postcode": "75702"}}},
{"geometry": {"type": "Point", "coordinates": [-95.3016876502, 32.3509090481]}, "type": "Feature", "properties": {"collection_times": [{"days": "Mon-Fri", "time": "4:00pm"}, {"days": "Sat", "time": "1:00pm"}, {"days": "Sun", "time": "Closed"}], "id": "7570207360", "name": "USPS COLLECTION BOX - BLUE BOX", "address": {"city": "TYLER", "state": "TX", "street": "102 S COLLEGE AVE", "postcode": "75702"}}},
{"geometry": {"type": "Point", "coordinates": [-95.3016876502, 32.3509090481]}, "type": "Feature", "properties": {"collection_times": [{"days": "Mon-Fri", "time": "4:00pm"}, {"days": "Sat", "time": "1:00pm"}, {"days": "Sun", "time": "Closed"}], "id": "7570207361", "name": "USPS COLLECTION BOX - BLUE BOX", "address": {"city": "TYLER", "state": "TX", "street": "102 S COLLEGE AVE", "postcode": "75702"}}},
{"geometry": {"type": "Point", "coordinates": [-95.3251788493, 32.3689089517]}, "type": "Feature", "properties": {"collection_times": [{"days": "Mon-Fri", "time": "5:00pm"}, {"days": "Sat", "time": "1:00pm"}, {"days": "Sun", "time": "Closed"}], "id": "7570207362", "name": "USPS COLLECTION BOX - PO LOBBY", "address": {"city": "TYLER", "state": "TX", "street": "2100 W MARTIN LUTHER KING JR BLVD", "postcode": "75702"}}},
{"geometry": {"type": "Point", "coordinates": [-95.3251788493, 32.3689089517]}, "type": "Feature", "properties": {"collection_times": [{"days": "Mon-Fri", "time": "5:00pm"}, {"days": "Sat", "time": "1:00pm"}, {"days": "Sun", "time": "Closed"}], "id": "7570207363", "name": "USPS COLLECTION BOX - PO LOBBY", "address": {"city": "TYLER", "state": "TX", "street": "2100 W MARTIN LUTHER KING JR BLVD", "postcode": "75702"}}},
{"geometry": {"type": "Point", "coordinates": [-95.3414995685, 32.3450855378]}, "type": "Feature", "properties": {"collection_times": [{"days": "Mon-Fri", "time": "4:30pm"}, {"days": "Sat", "time": "1:00pm"}, {"days": "Sun", "time": "Closed"}], "id": "7570207367", "name": "USPS COLLECTION BOX - BLUE BOX", "address": {"city": "TYLER", "state": "TX", "street": "510 S SOUTHWEST LOOP 323", "postcode": "75702"}}},
{"geometry": {"type": "Point", "coordinates": [-95.3414995685, 32.3450855378]}, "type": "Feature", "properties": {"collection_times": [{"days": "Mon-Fri", "time": "4:30pm"}, {"days": "Sat", "time": "1:00pm"}, {"days": "Sun", "time": "Closed"}], "id": "7570207369", "name": "USPS COLLECTION BOX - BLUE BOX", "address": {"city": "TYLER", "state": "TX", "street": "510 S SOUTHWEST LOOP 323", "postcode": "75702"}}},
{"geometry": {"type": "Point", "coordinates": [-95.2800513307, 32.3463724004]}, "type": "Feature", "properties": {"collection_times": [{"days": "Mon-Fri", "time": "4:00pm"}, {"days": "Sat-Sun", "time": "Closed"}], "id": "7570207372", "name": "USPS COLLECTION BOX - BLUE BOX", "address": {"city": "TYLER", "state": "TX", "street": "1700 E FRONT ST", "postcode": "75702"}}},
{"geometry": {"type": "Point", "coordinates": [-95.2996675813, 32.3517344001]}, "type": "Feature", "properties": {"collection_times": [{"days": "Mon-Fri", "time": "4:00pm"}, {"days": "Sat-Sun", "time": "Closed"}], "id": "7570207384", "name": "USPS COLLECTION BOX - BLUE BOX", "address": {"city": "TYLER", "state": "TX", "street": "200 N SPRING RD", "postcode": "75702"}}},
{"geometry": {"type": "Point", "coordinates": [-95.3167348882, 32.3466042604]}, "type": "Feature", "properties": {"collection_times": [{"days": "Mon-Fri", "time": "4:00pm"}, {"days": "Sat-Sun", "time": "Closed"}], "id": "7570207385", "name": "USPS COLLECTION BOX - BLUE BOX", "address": {"city": "TYLER", "state": "TX", "street": "1517 W FRONT ST", "postcode": "75702"}}},
{"geometry": {"type": "Point", "coordinates": [-95.3006324508, 32.3008320292]}, "type": "Feature", "properties": {"collection_times": [{"days": "Mon-Fri", "time": "4:00pm"}, {"days": "Sat", "time": "1:00pm"}, {"days": "Sun", "time": "Closed"}], "id": "7570300000", "name": "USPS COLLECTION BOX - BLUE BOX", "address": {"city": "TYLER", "state": "TX", "street": "4500 S BROADWAY AVE", "postcode": "75703"}}},
{"geometry": {"type": "Point", "coordinates": [-95.3006324508, 32.3008320292]}, "type": "Feature", "properties": {"collection_times": [{"days": "Mon-Fri", "time": "4:00pm"}, {"days": "Sat", "time": "1:00pm"}, {"days": "Sun", "time": "Closed"}], "id": "7570300001", "name": "USPS COLLECTION BOX - BLUE BOX", "address": {"city": "TYLER", "state": "TX", "street": "4500 S BROADWAY AVE", "postcode": "75703"}}},
{"geometry": {"type": "Point", "coordinates": [-95.3006324508, 32.3008320292]}, "type": "Feature", "properties": {"collection_times": [{"days": "Mon-Fri", "time": "4:00pm"}, {"days": "Sat", "time": "1:00pm"}, {"days": "Sun", "time": "Closed"}], "id": "7570300002", "name": "USPS COLLECTION BOX - BLUE BOX", "address": {"city": "TYLER", "state": "TX", "street": "4500 S BROADWAY AVE", "postcode": "75703"}}},
{"geometry": {"type": "Point", "coordinates": [-95.3006324508, 32.3008320292]}, "type": "Feature", "properties": {"collection_times": [{"days": "Mon-Fri", "time": "4:00pm"}, {"days": "Sat", "time": "1:00pm"}, {"days": "Sun", "time": "Closed"}], "id": "7570300003", "name": "USPS COLLECTION BOX - BLUE BOX", "address": {"city": "TYLER", "state": "TX", "street": "4500 S BROADWAY AVE", "postcode": "75703"}}},
{"geometry": {"type": "Point", "coordinates": [-95.3066643585, 32.2753688374]}, "type": "Feature", "properties": {"collection_times": [{"days": "Mon-Fri", "time": "4:00pm"}, {"days": "Sat", "time": "1:00pm"}, {"days": "Sun", "time": "Closed"}], "id": "7570300005", "name": "USPS COLLECTION BOX - BLUE BOX", "address": {"city": "TYLER", "state": "TX", "street": "6722 S BROADWAY AVE", "postcode": "75703"}}},
{"geometry": {"type": "Point", "coordinates": [-95.3050519855, 32.2835596453]}, "type": "Feature", "properties": {"collection_times": [{"days": "Mon-Fri", "time": "3:30pm"}, {"days": "Sat-Sun", "time": "Closed"}], "id": "7570300011", "name": "USPS COLLECTION BOX - BLUE BOX", "address": {"city": "TYLER", "state": "TX", "street": "6101 S BROADWAY AVE", "postcode": "75703"}}},
{"geometry": {"type": "Point", "coordinates": [-95.3017255785, 32.2956867269]}, "type": "Feature", "properties": {"collection_times": [{"days": "Mon-Fri", "time": "4:00pm"}, {"days": "Sat", "time": "1:00pm"}, {"days": "Sun", "time": "Closed"}], "id": "7570300012", "name": "USPS COLLECTION BOX - BLUE BOX", "address": {"city": "TYLER", "state": "TX", "street": "5101 S BROADWAY AVE", "postcode": "75703"}}},
{"geometry": {"type": "Point", "coordinates": [-95.3017255785, 32.2956867269]}, "type": "Feature", "properties": {"collection_times": [{"days": "Mon-Fri", "time": "4:00pm"}, {"days": "Sat", "time": "1:00pm"}, {"days": "Sun", "time": "Closed"}], "id": "7570300013", "name": "USPS COLLECTION BOX - BLUE BOX", "address": {"city": "TYLER", "state": "TX", "street": "5101 S BROADWAY AVE", "postcode": "75703"}}},
{"geometry": {"type": "Point", "coordinates": [-95.3017255785, 32.2956867269]}, "type": "Feature", "properties": {"collection_times": [{"days": "Mon-Fri", "time": "4:00pm"}, {"days": "Sat", "time": "1:00pm"}, {"days": "Sun", "time": "Closed"}], "id": "7570300014", "name": "USPS COLLECTION BOX - BLUE BOX", "address": {"city": "TYLER", "state": "TX", "street": "5101 S BROADWAY AVE", "postcode": "75703"}}},
{"geometry": {"type": "Point", "coordinates": [-95.3017255785, 32.2956867269]}, "type": "Feature", "properties": {"collection_times": [{"days": "Mon-Fri", "time": "4:00pm"}, {"days": "Sat", "time": "1:00pm"}, {"days": "Sun", "time": "Closed"}], "id": "7570300015", "name": "USPS COLLECTION BOX - BLUE BOX", "address": {"city": "TYLER", "state": "TX", "street": "5101 S BROADWAY AVE", "postcode": "75703"}}},
{"geometry": {"type": "Point", "coordinates": [-95.3075480289, 32.282473689]}, "type": "Feature", "properties": {"collection_times": [{"days": "Mon-Fri", "time": "2:00pm"}, {"days": "Sat-Sun", "time": "Closed"}], "id": "7570300023", "name": "USPS COLLECTION BOX - BLUE BOX", "address": {"city": "TYLER", "state": "TX", "street": "212 GRANDE BLVD", "postcode": "75703"}}},
{"geometry": {"type": "Point", "coordinates": [-95.3075480289, 32.282473689]}, "type": "Feature", "properties": {"collection_times": [{"days": "Mon-Fri", "time": "2:00pm"}, {"days": "Sat-Sun", "time": "Closed"}], "id": "7570300024", "name": "USPS COLLECTION BOX - BLUE BOX", "address": {"city": "TYLER", "state": "TX", "street": "212 GRANDE BLVD", "postcode": "75703"}}},
{"geometry": {"type": "Point", "coordinates": [-95.3063390448, 32.2875142771]}, "type": "Feature", "properties": {"collection_times": [{"days": "Mon-Fri", "time": "2:00pm"}, {"days": "Sat-Sun", "time": "Closed"}], "id": "7570300030", "name": "USPS COLLECTION BOX - BLUE BOX", "address": {"city": "TYLER", "state": "TX", "street": "5620 OLD BULLARD RD", "postcode": "75703"}}},
{"geometry": {"type": "Point", "coordinates": [-95.2684495328, 32.3016880056]}, "type": "Feature", "properties": {"collection_times": [{"days": "Mon-Fri", "time": "2:00pm"}, {"days": "Sat", "time": "1:00pm"}, {"days": "Sun", "time": "Closed"}], "id": "7570300045", "name": "USPS COLLECTION BOX - BLUE BOX", "address": {"city": "TYLER", "state": "TX", "street": "4601 TROUP HWY", "postcode": "75703"}}},
{"geometry": {"type": "Point", "coordinates": [-95.4058680115, 32.2362878234]}, "type": "Feature", "properties": {"collection_times": [{"days": "Mon-Fri", "time": "10:30am"}, {"days": "Sat-Sun", "time": "Closed"}], "id": "7570300049", "name": "USPS COLLECTION BOX - BLUE BOX", "address": {"city": "TYLER", "state": "TX", "street": "16822 STATE HIGHWAY 155 S", "postcode": "75703"}}},
{"geometry": {"type": "Point", "coordinates": [-95.2788435296, 32.3070189045]}, "type": "Feature", "properties": {"collection_times": [{"days": "Mon-Fri", "time": "4:00pm"}, {"days": "Sat-Sun", "time": "Closed"}], "id": "7570300051", "name": "USPS COLLECTION BOX - BLUE BOX", "address": {"city": "TYLER", "state": "TX", "street": "3800 PALUXY DR", "postcode": "75703"}}},
{"geometry": {"type": "Point", "coordinates": [-95.3043433931, 32.3010047412]}, "type": "Feature", "properties": {"collection_times": [{"days": "Mon-Fri", "time": "2:00pm"}, {"days": "Sat", "time": "1:00pm"}, {"days": "Sun", "time": "Closed"}], "id": "7570300052", "name": "USPS COLLECTION BOX - BLUE BOX", "address": {"city": "TYLER", "state": "TX", "street": "4411 OLD BULLARD RD", "postcode": "75703"}}},
{"geometry": {"type": "Point", "coordinates": [-95.2788435296, 32.3070189045]}, "type": "Feature", "properties": {"collection_times": [{"days": "Mon-Fri", "time": "4:00pm"}, {"days": "Sat-Sun", "time": "Closed"}], "id": "7570300053", "name": "USPS COLLECTION BOX - BLUE BOX", "address": {"city": "TYLER", "state": "TX", "street": "3800 PALUXY DR", "postcode": "75703"}}},
{"geometry": {"type": "Point", "coordinates": [-95.3568863193, 32.3723949646]}, "type": "Feature", "properties": {"collection_times": [{"days": "Mon-Fri", "time": "4:00pm"}, {"days": "Sat", "time": "11:00am"}, {"days": "Sun", "time": "Closed"}], "id": "7570400002", "name": "USPS COLLECTION BOX - BLUE BOX", "address": {"city": "TYLER", "state": "TX", "street": "2979 HIGHWAY 110 N", "postcode": "75704"}}},
{"geometry": {"type": "Point", "coordinates": [-95.2069480156, 32.4245801835]}, "type": "Feature", "properties": {"collection_times": [{"days": "Mon-Fri", "time": "12:30pm"}, {"days": "Sat-Sun", "time": "Closed"}], "id": "7570807359", "name": "USPS COLLECTION BOX - BLUE BOX", "address": {"city": "TYLER", "state": "TX", "street": "12010 US HIGHWAY 271", "postcode": "75708"}}},
{"geometry": {"type": "Point", "coordinates": [-95.0599538971, 32.22556141]}, "type": "Feature", "properties": {"collection_times": [{"days": "Mon-Fri", "time": "4:15pm"}, {"days": "Sat", "time": "8:30am"}, {"days": "Sun", "time": "Closed"}], "id": "7575000000", "name": "USPS COLLECTION BOX - BLUE BOX", "address": {"city": "ARP", "state": "TX", "street": "202 W FRONT ST", "postcode": "75750"}}},
{"geometry": {"type": "Point", "coordinates": [-95.0599538971, 32.22556141]}, "type": "Feature", "properties": {"collection_times": [{"days": "Mon-Fri", "time": "4:15pm"}, {"days": "Sat", "time": "8:30am"}, {"days": "Sun", "time": "Closed"}], "id": "7575000002", "name": "USPS COLLECTION BOX - PO LOBBY", "address": {"city": "ARP", "state": "TX", "street": "202 W FRONT ST", "postcode": "75750"}}},
{"geometry": {"type": "Point", "coordinates": [-95.8395736077, 32.2035980406]}, "type": "Feature", "properties": {"collection_times": [{"days": "Mon-Sat", "time": "12:00pm"}, {"days": "Sun", "time": "Closed"}], "id": "7575106334", "name": "USPS COLLECTION BOX - BLUE BOX", "address": {"city": "ATHENS", "state": "TX", "street": "900 E CORSICANA ST", "postcode": "75751"}}},
{"geometry": {"type": "Point", "coordinates": [-95.855103714, 32.2046286841]}, "type": "Feature", "properties": {"collection_times": [{"days": "Mon-Sat", "time": "2:30pm"}, {"days": "Sun", "time": "Closed"}], "id": "7575106338", "name": "USPS COLLECTION BOX - BLUE BOX", "address": {"city": "ATHENS", "state": "TX", "street": "125 N PRAIRIEVILLE ST", "postcode": "75751"}}},
{"geometry": {"type": "Point", "coordinates": [-95.8546284497, 32.2043124001]}, "type": "Feature", "properties": {"collection_times": [{"days": "Mon-Sat", "time": "2:30pm"}, {"days": "Sun", "time": "Closed"}], "id": "7575106339", "name": "USPS COLLECTION BOX - BLUE BOX", "address": {"city": "ATHENS", "state": "TX", "street": "130 E CORSICANA ST", "postcode": "75751"}}},
{"geometry": {"type": "Point", "coordinates": [-95.8522473931, 32.2055172807]}, "type": "Feature", "properties": {"collection_times": [{"days": "Mon-Fri", "time": "5:00pm"}, {"days": "Sat", "time": "3:30pm"}, {"days": "Sun", "time": "Closed"}], "id": "7575106342", "name": "USPS COLLECTION BOX - BLUE BOX", "address": {"city": "ATHENS", "state": "TX", "street": "409 E TYLER ST", "postcode": "75751"}}},
{"geometry": {"type": "Point", "coordinates": [-95.8522473931, 32.2055172807]}, "type": "Feature", "properties": {"collection_times": [{"days": "Mon-Fri", "time": "5:00pm"}, {"days": "Sat", "time": "3:30pm"}, {"days": "Sun", "time": "Closed"}], "id": "7575106559", "name": "USPS COLLECTION BOX - PO LOBBY", "address": {"city": "ATHENS", "state": "TX", "street": "409 E TYLER ST", "postcode": "75751"}}},
{"geometry": {"type": "Point", "coordinates": [-95.8522473931, 32.2055172807]}, "type": "Feature", "properties": {"collection_times": [{"days": "Mon-Fri", "time": "5:00pm"}, {"days": "Sat", "time": "3:30pm"}, {"days": "Sun", "time": "Closed"}], "id": "7575106560", "name": "USPS COLLECTION BOX - PO LOBBY", "address": {"city": "ATHENS", "state": "TX", "street": "409 E TYLER ST", "postcode": "75751"}}},
{"geometry": {"type": "Point", "coordinates": [-95.8466384365, 32.2059449066]}, "type": "Feature", "properties": {"collection_times": [{"days": "Mon-Sat", "time": "10:30am"}, {"days": "Sun", "time": "Closed"}], "id": "7575106562", "name": "USPS COLLECTION BOX - BLUE BOX", "address": {"city": "ATHENS", "state": "TX", "street": "206A N MURCHISON ST", "postcode": "75751"}}},
{"geometry": {"type": "Point", "coordinates": [-95.8344059136, 32.2060570557]}, "type": "Feature", "properties": {"collection_times": [{"days": "Mon-Sat", "time": "2:30pm"}, {"days": "Sun", "time": "Closed"}], "id": "7575106563", "name": "USPS COLLECTION BOX - BLUE BOX", "address": {"city": "ATHENS", "state": "TX", "street": "1405 E TYLER ST", "postcode": "75751"}}},
{"geometry": {"type": "Point", "coordinates": [-95.8894191048, 32.1247724354]}, "type": "Feature", "properties": {"collection_times": [{"days": "Mon-Sat", "time": "9:30am"}, {"days": "Sun", "time": "Closed"}], "id": "7575106564", "name": "USPS COLLECTION BOX - BLUE BOX", "address": {"city": "ATHENS", "state": "TX", "street": "115 MEDICAL CIR", "postcode": "75751"}}},
{"geometry": {"type": "Point", "coordinates": [-95.7045722495, 32.4504423214]}, "type": "Feature", "properties": {"collection_times": [{"days": "Mon-Fri", "time": "4:00pm"}, {"days": "Sat", "time": "9:00am"}, {"days": "Sun", "time": "Closed"}], "id": "7575400001", "name": "USPS COLLECTION BOX - BLUE BOX", "address": {"city": "BEN WHEELER", "state": "TX", "street": "13838 STATE HIGHWAY 64", "postcode": "75754"}}},
{"geometry": {"type": "Point", "coordinates": [-95.4795227394, 32.3574079538]}, "type": "Feature", "properties": {"collection_times": [{"days": "Mon-Fri", "time": "10:30am"}, {"days": "Sat-Sun", "time": "Closed"}], "id": "7575400002", "name": "USPS COLLECTION BOX - BLUE BOX", "address": {"city": "BEN WHEELER", "state": "TX", "street": "8159 FM 279", "postcode": "75754"}}},
{"geometry": {"type": "Point", "coordinates": [-95.6513580512, 32.4256577607]}, "type": "Feature", "properties": {"collection_times": [{"days": "Mon-Fri", "time": "4:00pm"}, {"days": "Sat", "time": "9:00am"}, {"days": "Sun", "time": "Closed"}], "id": "7575400004", "name": "USPS COLLECTION BOX - PO LOBBY", "address": {"city": "BEN WHEELER", "state": "TX", "street": "13838 STATE HIGHWAY 64", "postcode": "75754"}}},
{"geometry": {"type": "Point", "coordinates": [-95.1110141423, 32.5837200046]}, "type": "Feature", "properties": {"collection_times": [{"days": "Mon-Fri", "time": "4:00pm"}, {"days": "Sat", "time": "1:00pm"}, {"days": "Sun", "time": "Closed"}], "id": "7575506418", "name": "USPS COLLECTION BOX - BLUE BOX", "address": {"city": "BIG SANDY", "state": "TX", "street": "210 E BROADWAY ST", "postcode": "75755"}}},
{"geometry": {"type": "Point", "coordinates": [-95.1110141423, 32.5837200046]}, "type": "Feature", "properties": {"collection_times": [{"days": "Mon-Fri", "time": "4:00pm"}, {"days": "Sat", "time": "1:00pm"}, {"days": "Sun", "time": "Closed"}], "id": "7575506423", "name": "USPS COLLECTION BOX - PO LOBBY", "address": {"city": "BIG SANDY", "state": "TX", "street": "210 E BROADWAY ST", "postcode": "75755"}}},
{"geometry": {"type": "Point", "coordinates": [-95.5809780448, 32.3161464935]}, "type": "Feature", "properties": {"collection_times": [{"days": "Mon-Fri", "time": "4:00pm"}, {"days": "Sat", "time": "8:30am"}, {"days": "Sun", "time": "Closed"}], "id": "7575600000", "name": "USPS COLLECTION BOX - BLUE BOX", "address": {"city": "BROWNSBORO", "state": "TX", "street": "14201 STATE HIGHWAY 31 E", "postcode": "75756"}}},
{"geometry": {"type": "Point", "coordinates": [-95.5809780448, 32.3161464935]}, "type": "Feature", "properties": {"collection_times": [{"days": "Mon-Fri", "time": "4:00pm"}, {"days": "Sat-Sun", "time": "Closed"}], "id": "7575600002", "name": "USPS COLLECTION BOX - PO LOBBY", "address": {"city": "BROWNSBORO", "state": "TX", "street": "14201 STATE HIGHWAY 31 E", "postcode": "75756"}}},
{"geometry": {"type": "Point", "coordinates": [-95.3176729747, 32.1422753072]}, "type": "Feature", "properties": {"collection_times": [{"days": "Mon-Fri", "time": "4:30pm"}, {"days": "Sat", "time": "2:00pm"}, {"days": "Sun", "time": "Closed"}], "id": "7575706529", "name": "USPS COLLECTION BOX - BLUE BOX", "address": {"city": "BULLARD", "state": "TX", "street": "409 E MAIN ST", "postcode": "75757"}}},
{"geometry": {"type": "Point", "coordinates": [-95.3176729747, 32.1422753072]}, "type": "Feature", "properties": {"collection_times": [{"days": "Mon-Fri", "time": "4:30pm"}, {"days": "Sat", "time": "2:00pm"}, {"days": "Sun", "time": "Closed"}], "id": "7575706532", "name": "USPS COLLECTION BOX - PO LOBBY", "address": {"city": "BULLARD", "state": "TX", "street": "409 E MAIN ST", "postcode": "75757"}}},
{"geometry": {"type": "Point", "coordinates": [-95.5000259772, 32.2585578146]}, "type": "Feature", "properties": {"collection_times": [{"days": "Mon-Fri", "time": "4:30pm"}, {"days": "Sat", "time": "9:30am"}, {"days": "Sun", "time": "Closed"}], "id": "7575806522", "name": "USPS COLLECTION BOX - BLUE BOX", "address": {"city": "CHANDLER", "state": "TX", "street": "326 STATE HIGHWAY 31 E", "postcode": "75758"}}},
{"geometry": {"type": "Point", "coordinates": [-95.5000259772, 32.2585578146]}, "type": "Feature", "properties": {"collection_times": [{"days": "Mon-Fri", "time": "4:30pm"}, {"days": "Sat", "time": "9:30am"}, {"days": "Sun", "time": "Closed"}], "id": "7575806525", "name": "USPS COLLECTION BOX - PO LOBBY", "address": {"city": "CHANDLER", "state": "TX", "street": "326 STATE HIGHWAY 31 E", "postcode": "75758"}}},
{"geometry": {"type": "Point", "coordinates": [-95.417999796, 32.0313330883]}, "type": "Feature", "properties": {"collection_times": [{"days": "Mon-Fri", "time": "3:30pm"}, {"days": "Sat", "time": "9:30am"}, {"days": "Sun", "time": "Closed"}], "id": "7575900000", "name": "USPS COLLECTION BOX - BLUE BOX", "address": {"city": "CUNEY", "state": "TX", "street": "9455 US HIGHWAY 175 W", "postcode": "75759"}}},
{"geometry": {"type": "Point", "coordinates": [-95.417999796, 32.0313330883]}, "type": "Feature", "properties": {"collection_times": [{"days": "Mon-Fri", "time": "11:30am"}, {"days": "Sat", "time": "9:30am"}, {"days": "Sun", "time": "Closed"}], "id": "7575900002", "name": "USPS COLLECTION BOX - PO LOBBY", "address": {"city": "CUNEY", "state": "TX", "street": "9455 US HIGHWAY 175 W", "postcode": "75759"}}},
{"geometry": {"type": "Point", "coordinates": [-94.8408569333, 31.8116024107]}, "type": "Feature", "properties": {"collection_times": [{"days": "Mon-Fri", "time": "4:00pm"}, {"days": "Sat", "time": "10:00am"}, {"days": "Sun", "time": "Closed"}], "id": "7576000000", "name": "USPS COLLECTION BOX - BLUE BOX", "address": {"city": "CUSHING", "state": "TX", "street": "602 7TH ST", "postcode": "75760"}}},
{"geometry": {"type": "Point", "coordinates": [-94.8408569333, 31.8116024107]}, "type": "Feature", "properties": {"collection_times": [{"days": "Mon-Fri", "time": "4:00pm"}, {"days": "Sat", "time": "10:00am"}, {"days": "Sun", "time": "Closed"}], "id": "7576000001", "name": "USPS COLLECTION BOX - PO LOBBY", "address": {"city": "CUSHING", "state": "TX", "street": "602 7TH ST", "postcode": "75760"}}},
{"geometry": {"type": "Point", "coordinates": [-94.8408569333, 31.8116024107]}, "type": "Feature", "properties": {"collection_times": [{"days": "Mon-Fri", "time": "4:00pm"}, {"days": "Sat", "time": "10:00am"}, {"days": "Sun", "time": "Closed"}], "id": "7576000002", "name": "USPS COLLECTION BOX - PO LOBBY", "address": {"city": "CUSHING", "state": "TX", "street": "602 7TH ST", "postcode": "75760"}}},
{"geometry": {"type": "Point", "coordinates": [-95.3458309469, 32.2040151186]}, "type": "Feature", "properties": {"collection_times": [{"days": "Mon-Fri", "time": "4:00pm"}, {"days": "Sat", "time": "9:30am"}, {"days": "Sun", "time": "Closed"}], "id": "7576200001", "name": "USPS COLLECTION BOX - BLUE BOX", "address": {"city": "FLINT", "state": "TX", "street": "10668 FM 346 W", "postcode": "75762"}}},
{"geometry": {"type": "Point", "coordinates": [-95.4357041815, 32.1893785053]}, "type": "Feature", "properties": {"collection_times": [{"days": "Mon-Fri", "time": "10:00am"}, {"days": "Sat", "time": "9:30am"}, {"days": "Sun", "time": "Closed"}], "id": "7576200002", "name": "USPS COLLECTION BOX - BLUE BOX", "address": {"city": "FLINT", "state": "TX", "street": "20100 STATE HIGHWAY 155 S", "postcode": "75762"}}},
{"geometry": {"type": "Point", "coordinates": [-95.3492177584, 32.2345295451]}, "type": "Feature", "properties": {"collection_times": [{"days": "Mon-Fri", "time": "11:00am"}, {"days": "Sat", "time": "9:30am"}, {"days": "Sun", "time": "Closed"}], "id": "7576200003", "name": "USPS COLLECTION BOX - BLUE BOX", "address": {"city": "FLINT", "state": "TX", "street": "16921 FM 2493", "postcode": "75762"}}},
{"geometry": {"type": "Point", "coordinates": [-95.3458309469, 32.2040151186]}, "type": "Feature", "properties": {"collection_times": [{"days": "Mon-Fri", "time": "4:00pm"}, {"days": "Sat", "time": "9:30am"}, {"days": "Sun", "time": "Closed"}], "id": "7576200004", "name": "USPS COLLECTION BOX - PO LOBBY", "address": {"city": "FLINT", "state": "TX", "street": "10668 FM 346 W", "postcode": "75762"}}},
{"geometry": {"type": "Point", "coordinates": [-95.3458309469, 32.2040151186]}, "type": "Feature", "properties": {"collection_times": [{"days": "Mon-Fri", "time": "4:00pm"}, {"days": "Sat", "time": "9:30am"}, {"days": "Sun", "time": "Closed"}], "id": "7576200006", "name": "USPS COLLECTION BOX - PO LOBBY", "address": {"city": "FLINT", "state": "TX", "street": "10668 FM 346 W", "postcode": "75762"}}},
{"geometry": {"type": "Point", "coordinates": [-95.5087980123, 32.050579878]}, "type": "Feature", "properties": {"collection_times": [{"days": "Mon-Fri", "time": "3:45pm"}, {"days": "Sat", "time": "8:00am"}, {"days": "Sun", "time": "Closed"}], "id": "7576306520", "name": "USPS COLLECTION BOX - BLUE BOX", "address": {"city": "FRANKSTON", "state": "TX", "street": "400 E MAIN ST", "postcode": "75763"}}},
{"geometry": {"type": "Point", "coordinates": [-95.5087980123, 32.050579878]}, "type": "Feature", "properties": {"collection_times": [{"days": "Mon-Fri", "time": "3:45pm"}, {"days": "Sat", "time": "8:00am"}, {"days": "Sun", "time": "Closed"}], "id": "7576306521", "name": "USPS COLLECTION BOX - PO LOBBY", "address": {"city": "FRANKSTON", "state": "TX", "street": "400 E MAIN ST", "postcode": "75763"}}},
{"geometry": {"type": "Point", "coordinates": [-95.5087980123, 32.050579878]}, "type": "Feature", "properties": {"collection_times": [{"days": "Mon-Fri", "time": "3:45pm"}, {"days": "Sat", "time": "8:00am"}, {"days": "Sun", "time": "Closed"}], "id": "7576306522", "name": "USPS COLLECTION BOX - PO LOBBY", "address": {"city": "FRANKSTON", "state": "TX", "street": "400 E MAIN ST", "postcode": "75763"}}},
{"geometry": {"type": "Point", "coordinates": [-95.14570919, 31.893015405]}, "type": "Feature", "properties": {"collection_times": [{"days": "Mon-Sat", "time": "4:00pm"}, {"days": "Sun", "time": "Closed"}], "id": "7576400000", "name": "USPS COLLECTION BOX - BLUE BOX", "address": {"city": "GALLATIN", "state": "TX", "street": "139 E FIRST AVE", "postcode": "75764"}}},
{"geometry": {"type": "Point", "coordinates": [-95.14570919, 31.893015405]}, "type": "Feature", "properties": {"collection_times": [{"days": "Mon-Fri", "time": "11:30am"}, {"days": "Sat", "time": "9:00am"}, {"days": "Sun", "time": "Closed"}], "id": "7576400001", "name": "USPS COLLECTION BOX - PO LOBBY", "address": {"city": "GALLATIN", "state": "TX", "street": "139 E FIRST AVE", "postcode": "75764"}}},
{"geometry": {"type": "Point", "coordinates": [-95.2067872377, 32.5990125045]}, "type": "Feature", "properties": {"collection_times": [{"days": "Mon-Fri", "time": "4:00pm"}, {"days": "Sat", "time": "11:30am"}, {"days": "Sun", "time": "Closed"}], "id": "7576500001", "name": "USPS COLLECTION BOX - BLUE BOX", "address": {"city": "HAWKINS", "state": "TX", "street": "969 N BEAULAH ST", "postcode": "75765"}}},
{"geometry": {"type": "Point", "coordinates": [-95.2066010562, 32.5971056141]}, "type": "Feature", "properties": {"collection_times": [{"days": "Mon-Fri", "time": "4:00pm"}, {"days": "Sat", "time": "11:30am"}, {"days": "Sun", "time": "Closed"}], "id": "7576500003", "name": "USPS COLLECTION BOX - PO LOBBY", "address": {"city": "HAWKINS", "state": "TX", "street": "969 N BEAULAH ST", "postcode": "75765"}}},
{"geometry": {"type": "Point", "coordinates": [-95.2432034575, 32.6644107365]}, "type": "Feature", "properties": {"collection_times": [{"days": "Mon-Fri", "time": "11:00am"}, {"days": "Sat-Sun", "time": "Closed"}], "id": "7576500004", "name": "USPS COLLECTION BOX - BLUE BOX", "address": {"city": "HAWKINS", "state": "TX", "street": "FM 2869", "postcode": "75765"}}},
{"geometry": {"type": "Point", "coordinates": [-95.2432034575, 32.6644107365]}, "type": "Feature", "properties": {"collection_times": [{"days": "Mon-Sat", "time": "11:00am"}, {"days": "Sun", "time": "Closed"}], "id": "7576500005", "name": "USPS COLLECTION BOX - BLUE BOX", "address": {"city": "HAWKINS", "state": "TX", "street": "FM 2869", "postcode": "75765"}}},
{"geometry": {"type": "Point", "coordinates": [-95.2763672035, 31.9612053384]}, "type": "Feature", "properties": {"collection_times": [{"days": "Mon-Fri", "time": "5:00pm"}, {"days": "Sat", "time": "3:00pm"}, {"days": "Sun", "time": "Closed"}], "id": "7576606357", "name": "USPS COLLECTION BOX - BLUE BOX", "address": {"city": "JACKSONVILLE", "state": "TX", "street": "400 W RUSK ST", "postcode": "75766"}}},
{"geometry": {"type": "Point", "coordinates": [-95.2763672035, 31.9612053384]}, "type": "Feature", "properties": {"collection_times": [{"days": "Mon-Fri", "time": "5:00pm"}, {"days": "Sat", "time": "3:00pm"}, {"days": "Sun", "time": "Closed"}], "id": "7576606359", "name": "USPS COLLECTION BOX - BLUE BOX", "address": {"city": "JACKSONVILLE", "state": "TX", "street": "400 W RUSK ST", "postcode": "75766"}}},
{"geometry": {"type": "Point", "coordinates": [-95.2603564804, 31.9474416999]}, "type": "Feature", "properties": {"collection_times": [{"days": "Mon-Fri", "time": "9:00am"}, {"days": "Sat-Sun", "time": "Closed"}], "id": "7576606369", "name": "USPS COLLECTION BOX - BLUE BOX", "address": {"city": "JACKSONVILLE", "state": "TX", "street": "1800 S JACKSON ST", "postcode": "75766"}}},
{"geometry": {"type": "Point", "coordinates": [-95.2729903733, 31.9636075712]}, "type": "Feature", "properties": {"collection_times": [{"days": "Mon-Fri", "time": "9:30am"}, {"days": "Sat-Sun", "time": "Closed"}], "id": "7576606374", "name": "USPS COLLECTION BOX - BLUE BOX", "address": {"city": "JACKSONVILLE", "state": "TX", "street": "201 S MAIN ST", "postcode": "75766"}}},
{"geometry": {"type": "Point", "coordinates": [-95.2637069024, 31.9518498636]}, "type": "Feature", "properties": {"collection_times": [{"days": "Mon-Sat", "time": "10:00am"}, {"days": "Sun", "time": "Closed"}], "id": "7576606375", "name": "USPS COLLECTION BOX - BLUE BOX", "address": {"city": "JACKSONVILLE", "state": "TX", "street": "1311 S JACKSON ST", "postcode": "75766"}}},
{"geometry": {"type": "Point", "coordinates": [-95.2763672035, 31.9612053384]}, "type": "Feature", "properties": {"collection_times": [{"days": "Mon-Fri", "time": "5:00pm"}, {"days": "Sat", "time": "3:00pm"}, {"days": "Sun", "time": "Closed"}], "id": "7576606376", "name": "USPS COLLECTION BOX - PO LOBBY", "address": {"city": "JACKSONVILLE", "state": "TX", "street": "400 W RUSK ST", "postcode": "75766"}}},
{"geometry": {"type": "Point", "coordinates": [-95.2763672035, 31.9612053384]}, "type": "Feature", "properties": {"collection_times": [{"days": "Mon-Fri", "time": "5:00pm"}, {"days": "Sat", "time": "3:00pm"}, {"days": "Sun", "time": "Closed"}], "id": "7576606377", "name": "USPS COLLECTION BOX - PO LOBBY", "address": {"city": "JACKSONVILLE", "state": "TX", "street": "400 W RUSK ST", "postcode": "75766"}}},
{"geometry": {"type": "Point", "coordinates": [-95.2763672035, 31.9612053384]}, "type": "Feature", "properties": {"collection_times": [{"days": "Mon-Fri", "time": "5:00pm"}, {"days": "Sat", "time": "3:00pm"}, {"days": "Sun", "time": "Closed"}], "id": "7576606378", "name": "USPS COLLECTION BOX - PO LOBBY", "address": {"city": "JACKSONVILLE", "state": "TX", "street": "400 W RUSK ST", "postcode": "75766"}}},
{"geometry": {"type": "Point", "coordinates": [-95.6758724607, 32.1165066103]}, "type": "Feature", "properties": {"collection_times": [{"days": "Mon-Fri", "time": "3:30pm"}, {"days": "Sat", "time": "7:30am"}, {"days": "Sun", "time": "Closed"}], "id": "7577000000", "name": "USPS COLLECTION BOX - BLUE BOX", "address": {"city": "LARUE", "state": "TX", "street": "11085 LOOP 60", "postcode": "75770"}}},
{"geometry": {"type": "Point", "coordinates": [-95.6758724607, 32.1165066103]}, "type": "Feature", "properties": {"collection_times": [{"days": "Mon-Fri", "time": "1:00pm"}, {"days": "Sat", "time": "7:30am"}, {"days": "Sun", "time": "Closed"}], "id": "7577000002", "name": "USPS COLLECTION BOX - PO LOBBY", "address": {"city": "LARUE", "state": "TX", "street": "11085 LOOP 60", "postcode": "75770"}}},
{"geometry": {"type": "Point", "coordinates": [-95.4182077196, 32.5190024665]}, "type": "Feature", "properties": {"collection_times": [{"days": "Mon-Fri", "time": "12:00pm"}, {"days": "Sat", "time": "11:00am"}, {"days": "Sun", "time": "Closed"}], "id": "7577106375", "name": "USPS COLLECTION BOX - BLUE BOX", "address": {"city": "LINDALE", "state": "TX", "street": "100B HIDE A WAY LN C", "postcode": "75771"}}},
{"geometry": {"type": "Point", "coordinates": [-95.40886578, 32.5109195625]}, "type": "Feature", "properties": {"collection_times": [{"days": "Mon-Fri", "time": "5:00pm"}, {"days": "Sat", "time": "3:30pm"}, {"days": "Sun", "time": "Closed"}], "id": "7577106376", "name": "USPS COLLECTION BOX - BLUE BOX", "address": {"city": "LINDALE", "state": "TX", "street": "507 S MAIN ST", "postcode": "75771"}}},
{"geometry": {"type": "Point", "coordinates": [-95.40886578, 32.5109195625]}, "type": "Feature", "properties": {"collection_times": [{"days": "Mon-Fri", "time": "5:00pm"}, {"days": "Sat", "time": "3:30pm"}, {"days": "Sun", "time": "Closed"}], "id": "7577106377", "name": "USPS COLLECTION BOX - BLUE BOX", "address": {"city": "LINDALE", "state": "TX", "street": "507 S MAIN ST", "postcode": "75771"}}},
{"geometry": {"type": "Point", "coordinates": [-95.40886578, 32.5109195625]}, "type": "Feature", "properties": {"collection_times": [{"days": "Mon-Fri", "time": "4:00pm"}, {"days": "Sat", "time": "3:30pm"}, {"days": "Sun", "time": "Closed"}], "id": "7577106379", "name": "USPS COLLECTION BOX - PO LOBBY", "address": {"city": "LINDALE", "state": "TX", "street": "507 S MAIN ST", "postcode": "75771"}}},
{"geometry": {"type": "Point", "coordinates": [-95.40886578, 32.5109195625]}, "type": "Feature", "properties": {"collection_times": [{"days": "Mon-Fri", "time": "4:00pm"}, {"days": "Sat", "time": "3:30pm"}, {"days": "Sun", "time": "Closed"}], "id": "7577106380", "name": "USPS COLLECTION BOX - PO LOBBY", "address": {"city": "LINDALE", "state": "TX", "street": "507 S MAIN ST", "postcode": "75771"}}},
{"geometry": {"type": "Point", "coordinates": [-95.3011231793, 31.8021334709]}, "type": "Feature", "properties": {"collection_times": [{"days": "Mon-Fri", "time": "3:45pm"}, {"days": "Sat", "time": "9:30am"}, {"days": "Sun", "time": "Closed"}], "id": "7577200000", "name": "USPS COLLECTION BOX - BLUE BOX", "address": {"city": "MAYDELLE", "state": "TX", "street": "156 COUNTY ROAD 1801", "postcode": "75772"}}},
{"geometry": {"type": "Point", "coordinates": [-95.3011231793, 31.8021334709]}, "type": "Feature", "properties": {"collection_times": [{"days": "Mon-Fri", "time": "3:45pm"}, {"days": "Sat", "time": "9:30am"}, {"days": "Sun", "time": "Closed"}], "id": "7577200002", "name": "USPS COLLECTION BOX - PO LOBBY", "address": {"city": "MAYDELLE", "state": "TX", "street": "156 COUNTY ROAD 1801", "postcode": "75772"}}},
{"geometry": {"type": "Point", "coordinates": [-95.4838930002, 32.6840246306]}, "type": "Feature", "properties": {"collection_times": [{"days": "Mon-Sat", "time": "10:30am"}, {"days": "Sun", "time": "Closed"}], "id": "7577306451", "name": "USPS COLLECTION BOX - BLUE BOX", "address": {"city": "MINEOLA", "state": "TX", "street": "1224 N PACIFIC ST", "postcode": "75773"}}},
{"geometry": {"type": "Point", "coordinates": [-95.4784407703, 32.6609649864]}, "type": "Feature", "properties": {"collection_times": [{"days": "Mon-Fri", "time": "4:00pm"}, {"days": "Sat", "time": "2:30pm"}, {"days": "Sun", "time": "Closed"}], "id": "7577306454", "name": "USPS COLLECTION BOX - BLUE BOX", "address": {"city": "MINEOLA", "state": "TX", "street": "630 E BROAD ST", "postcode": "75773"}}},
{"geometry": {"type": "Point", "coordinates": [-95.4784407703, 32.6609649864]}, "type": "Feature", "properties": {"collection_times": [{"days": "Mon-Fri", "time": "4:00pm"}, {"days": "Sat", "time": "2:30pm"}, {"days": "Sun", "time": "Closed"}], "id": "7577306455", "name": "USPS COLLECTION BOX - BLUE BOX", "address": {"city": "MINEOLA", "state": "TX", "street": "630 E BROAD ST", "postcode": "75773"}}},
{"geometry": {"type": "Point", "coordinates": [-95.4815029825, 32.6879667924]}, "type": "Feature", "properties": {"collection_times": [{"days": "Mon-Sat", "time": "2:00pm"}, {"days": "Sun", "time": "Closed"}], "id": "7577306873", "name": "USPS COLLECTION BOX - BLUE BOX", "address": {"city": "MINEOLA", "state": "TX", "street": "135 NE LOOP 564", "postcode": "75773"}}},
{"geometry": {"type": "Point", "coordinates": [-95.4784407703, 32.6609649864]}, "type": "Feature", "properties": {"collection_times": [{"days": "Mon-Fri", "time": "4:00pm"}, {"days": "Sat", "time": "2:30pm"}, {"days": "Sun", "time": "Closed"}], "id": "7577306875", "name": "USPS COLLECTION BOX - PO LOBBY", "address": {"city": "MINEOLA", "state": "TX", "street": "630 E BROAD ST", "postcode": "75773"}}},
{"geometry": {"type": "Point", "coordinates": [-95.4784407703, 32.6609649864]}, "type": "Feature", "properties": {"collection_times": [{"days": "Mon-Fri", "time": "4:00pm"}, {"days": "Sat", "time": "2:30pm"}, {"days": "Sun", "time": "Closed"}], "id": "7577306876", "name": "USPS COLLECTION BOX - PO LOBBY", "address": {"city": "MINEOLA", "state": "TX", "street": "630 E BROAD ST", "postcode": "75773"}}},
{"geometry": {"type": "Point", "coordinates": [-95.7325583885, 32.2822323811]}, "type": "Feature", "properties": {"collection_times": [{"days": "Mon-Fri", "time": "3:45pm"}, {"days": "Sat", "time": "8:15am"}, {"days": "Sun", "time": "Closed"}], "id": "7577800000", "name": "USPS COLLECTION BOX - BLUE BOX", "address": {"city": "MURCHISON", "state": "TX", "street": "6684 STATE HIGHWAY 31", "postcode": "75778"}}},
{"geometry": {"type": "Point", "coordinates": [-95.7325583885, 32.2822323811]}, "type": "Feature", "properties": {"collection_times": [{"days": "Mon-Fri", "time": "4:00pm"}, {"days": "Sat", "time": "8:15am"}, {"days": "Sun", "time": "Closed"}], "id": "7577800003", "name": "USPS COLLECTION BOX - PO LOBBY", "address": {"city": "MURCHISON", "state": "TX", "street": "6684 STATE HIGHWAY 31", "postcode": "75778"}}},
{"geometry": {"type": "Point", "coordinates": [-95.4961131352, 31.8658983027]}, "type": "Feature", "properties": {"collection_times": [{"days": "Mon-Sat", "time": "4:00pm"}, {"days": "Sun", "time": "Closed"}], "id": "7577900000", "name": "USPS COLLECTION BOX - BLUE BOX", "address": {"city": "NECHES", "state": "TX", "street": "100 FM 2574", "postcode": "75779"}}},
{"geometry": {"type": "Point", "coordinates": [-95.4961131352, 31.8658983027]}, "type": "Feature", "properties": {"collection_times": [{"days": "Mon-Fri", "time": "11:30am"}, {"days": "Sat", "time": "9:00am"}, {"days": "Sun", "time": "Closed"}], "id": "7577900002", "name": "USPS COLLECTION BOX - PO LOBBY", "address": {"city": "NECHES", "state": "TX", "street": "100 FM 2574", "postcode": "75779"}}},
{"geometry": {"type": "Point", "coordinates": [-95.0942725101, 31.9819892248]}, "type": "Feature", "properties": {"collection_times": [{"days": "Mon-Fri", "time": "4:00pm"}, {"days": "Sat", "time": "10:00am"}, {"days": "Sun", "time": "Closed"}], "id": "7578000000", "name": "USPS COLLECTION BOX - BLUE BOX", "address": {"city": "NEW SUMMERFIELD", "state": "TX", "street": "13460 STATE HIGHWAY 110 N", "postcode": "75780"}}},
{"geometry": {"type": "Point", "coordinates": [-95.0955780263, 31.9842322245]}, "type": "Feature", "properties": {"collection_times": [{"days": "Mon-Fri", "time": "3:45pm"}, {"days": "Sat", "time": "9:30am"}, {"days": "Sun", "time": "Closed"}], "id": "7578000002", "name": "USPS COLLECTION BOX - PO LOBBY", "address": {"city": "NEW SUMMERFIELD", "state": "TX", "street": "13460 STATE HIGHWAY 110 N", "postcode": "75780"}}},
{"geometry": {"type": "Point", "coordinates": [-95.5977021613, 32.0742498848]}, "type": "Feature", "properties": {"collection_times": [{"days": "Mon-Fri", "time": "4:00pm"}, {"days": "Sat", "time": "9:30am"}, {"days": "Sun", "time": "Closed"}], "id": "7578200000", "name": "USPS COLLECTION BOX - BLUE BOX", "address": {"city": "POYNOR", "state": "TX", "street": "15662 US HIGHWAY 175 E", "postcode": "75782"}}},
{"geometry": {"type": "Point", "coordinates": [-95.5977021613, 32.0742498848]}, "type": "Feature", "properties": {"collection_times": [{"days": "Mon-Fri", "time": "3:30pm"}, {"days": "Sat", "time": "9:00am"}, {"days": "Sun", "time": "Closed"}], "id": "7578200001", "name": "USPS COLLECTION BOX - PO LOBBY", "address": {"city": "POYNOR", "state": "TX", "street": "15662 US HIGHWAY 175 E", "postcode": "75782"}}},
{"geometry": {"type": "Point", "coordinates": [-95.5977021613, 32.0742498848]}, "type": "Feature", "properties": {"collection_times": [{"days": "Mon-Fri", "time": "3:30pm"}, {"days": "Sat", "time": "9:00am"}, {"days": "Sun", "time": "Closed"}], "id": "7578200002", "name": "USPS COLLECTION BOX - PO LOBBY", "address": {"city": "POYNOR", "state": "TX", "street": "15662 US HIGHWAY 175 E", "postcode": "75782"}}},
{"geometry": {"type": "Point", "coordinates": [-95.4496904112, 32.7963218537]}, "type": "Feature", "properties": {"collection_times": [{"days": "Mon-Fri", "time": "4:30pm"}, {"days": "Sat", "time": "10:30am"}, {"days": "Sun", "time": "Closed"}], "id": "7578306877", "name": "USPS COLLECTION BOX - BLUE BOX", "address": {"city": "QUITMAN", "state": "TX", "street": "202 N SISSY SPACEK DR", "postcode": "75783"}}},
{"geometry": {"type": "Point", "coordinates": [-95.4496904112, 32.7963218537]}, "type": "Feature", "properties": {"collection_times": [{"days": "Mon-Fri", "time": "4:30pm"}, {"days": "Sat", "time": "10:30am"}, {"days": "Sun", "time": "Closed"}], "id": "7578306878", "name": "USPS COLLECTION BOX - BLUE BOX", "address": {"city": "QUITMAN", "state": "TX", "street": "202 N SISSY SPACEK DR", "postcode": "75783"}}},
{"geometry": {"type": "Point", "coordinates": [-95.4496904112, 32.7963218537]}, "type": "Feature", "properties": {"collection_times": [{"days": "Mon-Fri", "time": "4:30pm"}, {"days": "Sat", "time": "9:00am"}, {"days": "Sun", "time": "Closed"}], "id": "7578306891", "name": "USPS COLLECTION BOX - PO LOBBY", "address": {"city": "QUITMAN", "state": "TX", "street": "202 N SISSY SPACEK DR", "postcode": "75783"}}},
{"geometry": {"type": "Point", "coordinates": [-95.0199100434, 31.8993450022]}, "type": "Feature", "properties": {"collection_times": [{"days": "Mon-Fri", "time": "3:30pm"}, {"days": "Sat", "time": "8:30am"}, {"days": "Sun", "time": "Closed"}], "id": "7578400000", "name": "USPS COLLECTION BOX - BLUE BOX", "address": {"city": "REKLAW", "state": "TX", "street": "320 N MAIN ST", "postcode": "75784"}}},
{"geometry": {"type": "Point", "coordinates": [-95.0199100434, 31.8993450022]}, "type": "Feature", "properties": {"collection_times": [{"days": "Mon-Fri", "time": "11:30am"}, {"days": "Sat", "time": "8:30am"}, {"days": "Sun", "time": "Closed"}], "id": "7578400001", "name": "USPS COLLECTION BOX - PO LOBBY", "address": {"city": "REKLAW", "state": "TX", "street": "320 N MAIN ST", "postcode": "75784"}}},
{"geometry": {"type": "Point", "coordinates": [-95.0199100434, 31.8993450022]}, "type": "Feature", "properties": {"collection_times": [{"days": "Mon-Fri", "time": "11:30am"}, {"days": "Sat", "time": "8:30am"}, {"days": "Sun", "time": "Closed"}], "id": "7578400002", "name": "USPS COLLECTION BOX - PO LOBBY", "address": {"city": "REKLAW", "state": "TX", "street": "320 N MAIN ST", "postcode": "75784"}}},
{"geometry": {"type": "Point", "coordinates": [-95.1506410792, 31.7950898727]}, "type": "Feature", "properties": {"collection_times": [{"days": "Mon-Fri", "time": "4:30pm"}, {"days": "Sat", "time": "3:00pm"}, {"days": "Sun", "time": "Closed"}], "id": "7578506333", "name": "USPS COLLECTION BOX - BLUE BOX", "address": {"city": "RUSK", "state": "TX", "street": "112 W 5TH ST", "postcode": "75785"}}},
{"geometry": {"type": "Point", "coordinates": [-95.1505382737, 31.7942715934]}, "type": "Feature", "properties": {"collection_times": [{"days": "Mon-Fri", "time": "12:00pm"}, {"days": "Sat-Sun", "time": "Closed"}], "id": "7578506337", "name": "USPS COLLECTION BOX - BLUE BOX", "address": {"city": "RUSK", "state": "TX", "street": "425 N MAIN ST", "postcode": "75785"}}},
{"geometry": {"type": "Point", "coordinates": [-95.1506410792, 31.7950898727]}, "type": "Feature", "properties": {"collection_times": [{"days": "Mon-Fri", "time": "4:30pm"}, {"days": "Sat", "time": "3:00pm"}, {"days": "Sun", "time": "Closed"}], "id": "7578506338", "name": "USPS COLLECTION BOX - PO LOBBY", "address": {"city": "RUSK", "state": "TX", "street": "112 W 5TH ST", "postcode": "75785"}}},
{"geometry": {"type": "Point", "coordinates": [-94.9196608737, 31.8227362743]}, "type": "Feature", "properties": {"collection_times": [{"days": "Mon-Sat", "time": "4:00pm"}, {"days": "Sun", "time": "Closed"}], "id": "7578800000", "name": "USPS COLLECTION BOX - BLUE BOX", "address": {"city": "SACUL", "state": "TX", "street": "100 US HIGHWAY 204", "postcode": "75788"}}},
{"geometry": {"type": "Point", "coordinates": [-94.9196608737, 31.8227362743]}, "type": "Feature", "properties": {"collection_times": [{"days": "Mon-Fri", "time": "11:30am"}, {"days": "Sat", "time": "9:00am"}, {"days": "Sun", "time": "Closed"}], "id": "7578800001", "name": "USPS COLLECTION BOX - PO LOBBY", "address": {"city": "SACUL", "state": "TX", "street": "100 US HIGHWAY 204", "postcode": "75788"}}},
{"geometry": {"type": "Point", "coordinates": [-94.9196608737, 31.8227362743]}, "type": "Feature", "properties": {"collection_times": [{"days": "Mon-Fri", "time": "11:30am"}, {"days": "Sat", "time": "9:00am"}, {"days": "Sun", "time": "Closed"}], "id": "7578800002", "name": "USPS COLLECTION BOX - PO LOBBY", "address": {"city": "SACUL", "state": "TX", "street": "100 US HIGHWAY 204", "postcode": "75788"}}},
{"geometry": {"type": "Point", "coordinates": [-95.1197651228, 32.1445548692]}, "type": "Feature", "properties": {"collection_times": [{"days": "Mon-Fri", "time": "3:30pm"}, {"days": "Sat", "time": "12:00pm"}, {"days": "Sun", "time": "Closed"}], "id": "7578900000", "name": "USPS COLLECTION BOX - BLUE BOX", "address": {"city": "TROUP", "state": "TX", "street": "104 E DUVAL ST", "postcode": "75789"}}},
{"geometry": {"type": "Point", "coordinates": [-95.1197651228, 32.1445548692]}, "type": "Feature", "properties": {"collection_times": [{"days": "Mon-Fri", "time": "3:30pm"}, {"days": "Sat", "time": "12:00pm"}, {"days": "Sun", "time": "Closed"}], "id": "7578900001", "name": "USPS COLLECTION BOX - BLUE BOX", "address": {"city": "TROUP", "state": "TX", "street": "104 E DUVAL ST", "postcode": "75789"}}},
{"geometry": {"type": "Point", "coordinates": [-95.1200147271, 32.1445513203]}, "type": "Feature", "properties": {"collection_times": [{"days": "Mon-Fri", "time": "3:30pm"}, {"days": "Sat", "time": "12:00pm"}, {"days": "Sun", "time": "Closed"}], "id": "7578900003", "name": "USPS COLLECTION BOX - PO LOBBY", "address": {"city": "TROUP", "state": "TX", "street": "104 E DUVAL ST", "postcode": "75789"}}},
{"geometry": {"type": "Point", "coordinates": [-95.6473974045, 32.5243902778]}, "type": "Feature", "properties": {"collection_times": [{"days": "Mon-Fri", "time": "4:00pm"}, {"days": "Sat", "time": "9:30am"}, {"days": "Sun", "time": "Closed"}], "id": "7579000000", "name": "USPS COLLECTION BOX - BLUE BOX", "address": {"city": "VAN", "state": "TX", "street": "770 W MAIN ST", "postcode": "75790"}}},
{"geometry": {"type": "Point", "coordinates": [-95.6473974045, 32.5243902778]}, "type": "Feature", "properties": {"collection_times": [{"days": "Mon-Fri", "time": "4:00pm"}, {"days": "Sat", "time": "9:30am"}, {"days": "Sun", "time": "Closed"}], "id": "7579000001", "name": "USPS COLLECTION BOX - PO LOBBY", "address": {"city": "VAN", "state": "TX", "street": "770 W MAIN ST", "postcode": "75790"}}},
{"geometry": {"type": "Point", "coordinates": [-95.6473974045, 32.5243902778]}, "type": "Feature", "properties": {"collection_times": [{"days": "Mon-Fri", "time": "4:00pm"}, {"days": "Sat", "time": "9:30am"}, {"days": "Sun", "time": "Closed"}], "id": "7579000002", "name": "USPS COLLECTION BOX - PO LOBBY", "address": {"city": "VAN", "state": "TX", "street": "770 W MAIN ST", "postcode": "75790"}}},
{"geometry": {"type": "Point", "coordinates": [-95.6431661482, 32.5088885046]}, "type": "Feature", "properties": {"collection_times": [{"days": "Mon-Sat", "time": "8:30am"}, {"days": "Sun", "time": "Closed"}], "id": "7579000004", "name": "USPS COLLECTION BOX - BLUE BOX", "address": {"city": "VAN", "state": "TX", "street": "1221 S OAK ST", "postcode": "75790"}}},
{"geometry": {"type": "Point", "coordinates": [-95.2266779798, 32.2287769302]}, "type": "Feature", "properties": {"collection_times": [{"days": "Mon-Fri", "time": "11:00am"}, {"days": "Sat-Sun", "time": "Closed"}], "id": "7579106378", "name": "USPS COLLECTION BOX - BLUE BOX", "address": {"city": "WHITEHOUSE", "state": "TX", "street": "101 HORTON ST", "postcode": "75791"}}},
{"geometry": {"type": "Point", "coordinates": [-95.2278591812, 32.2350405834]}, "type": "Feature", "properties": {"collection_times": [{"days": "Mon-Sat", "time": "11:00am"}, {"days": "Sun", "time": "Closed"}], "id": "7579106379", "name": "USPS COLLECTION BOX - BLUE BOX", "address": {"city": "WHITEHOUSE", "state": "TX", "street": "601 HIGHWAY 110 N", "postcode": "75791"}}},
{"geometry": {"type": "Point", "coordinates": [-95.2320700902, 32.2437795477]}, "type": "Feature", "properties": {"collection_times": [{"days": "Mon-Fri", "time": "4:30pm"}, {"days": "Sat", "time": "10:00am"}, {"days": "Sun", "time": "Closed"}], "id": "7579106381", "name": "USPS COLLECTION BOX - BLUE BOX", "address": {"city": "WHITEHOUSE", "state": "TX", "street": "1114 HIGHWAY 110 N", "postcode": "75791"}}},
{"geometry": {"type": "Point", "coordinates": [-95.2320700902, 32.2437795477]}, "type": "Feature", "properties": {"collection_times": [{"days": "Mon-Fri", "time": "4:30pm"}, {"days": "Sat", "time": "10:00am"}, {"days": "Sun", "time": "Closed"}], "id": "7579106386", "name": "USPS COLLECTION BOX - PO LOBBY", "address": {"city": "WHITEHOUSE", "state": "TX", "street": "1114 HIGHWAY 110 N", "postcode": "75791"}}},
{"geometry": {"type": "Point", "coordinates": [-95.176349599, 32.4966271163]}, "type": "Feature", "properties": {"collection_times": [{"days": "Mon-Fri", "time": "4:00pm"}, {"days": "Sat", "time": "6:30am"}, {"days": "Sun", "time": "Closed"}], "id": "7579200000", "name": "USPS COLLECTION BOX - PO LOBBY", "address": {"city": "WINONA", "state": "TX", "street": "908 DALLAS ST", "postcode": "75792"}}},
{"geometry": {"type": "Point", "coordinates": [-95.167670229, 32.4882825238]}, "type": "Feature", "properties": {"collection_times": [{"days": "Mon-Sat", "time": "11:30am"}, {"days": "Sun", "time": "Closed"}], "id": "7579200002", "name": "USPS COLLECTION BOX - BLUE BOX", "address": {"city": "WINONA", "state": "TX", "street": "303 S MAIN ST", "postcode": "75792"}}},
{"geometry": {"type": "Point", "coordinates": [-95.176349599, 32.4966271163]}, "type": "Feature", "properties": {"collection_times": [{"days": "Mon-Fri", "time": "4:00pm"}, {"days": "Sat", "time": "2:00pm"}, {"days": "Sun", "time": "Closed"}], "id": "7579200003", "name": "USPS COLLECTION BOX - BLUE BOX", "address": {"city": "WINONA", "state": "TX", "street": "908 DALLAS ST", "postcode": "75792"}}}
]}
