{"type": "FeatureCollection", "features": [
{"geometry": {"type": "Point", "coordinates": [-95.6297548016, 31.7716738821]}, "type": "Feature", "properties": {"collection_times": [{"days": "Mon-Fri", "time": "5:00pm"}, {"days": "Sat", "time": "1:00pm"}, {"days": "Sun", "time": "Closed"}], "id": "7580106705", "name": "USPS COLLECTION BOX - BLUE BOX", "address": {"city": "PALESTINE", "state": "TX", "street": "1213 N LINK ST", "postcode": "75801"}}},
{"geometry": {"type": "Point", "coordinates": [-95.6297548016, 31.7716738821]}, "type": "Feature", "properties": {"collection_times": [{"days": "Mon-Fri", "time": "5:00pm"}, {"days": "Sat", "time": "1:00pm"}, {"days": "Sun", "time": "Closed"}], "id": "7580106706", "name": "USPS COLLECTION BOX - BLUE BOX", "address": {"city": "PALESTINE", "state": "TX", "street": "1213 N LINK ST", "postcode": "75801"}}},
{"geometry": {"type": "Point", "coordinates": [-95.6272551274, 31.7664736799]}, "type": "Feature", "properties": {"collection_times": [{"days": "Mon-Fri", "time": "5:00pm"}, {"days": "Sat", "time": "1:00pm"}, {"days": "Sun", "time": "Closed"}], "id": "7580106710", "name": "USPS COLLECTION BOX - BLUE BOX", "address": {"city": "PALESTINE", "state": "TX", "street": "703 N MALLARD ST", "postcode": "75801"}}},
{"geometry": {"type": "Point", "coordinates": [-95.6272551274, 31.7664736799]}, "type": "Feature", "properties": {"collection_times": [{"days": "Mon-Fri", "time": "5:00pm"}, {"days": "Sat", "time": "1:00pm"}, {"days": "Sun", "time": "Closed"}], "id": "7580106711", "name": "USPS COLLECTION BOX - BLUE BOX", "address": {"city": "PALESTINE", "state": "TX", "street": "703 N MALLARD ST", "postcode": "75801"}}},
{"geometry": {"type": "Point", "coordinates": [-95.629072831, 31.7616485319]}, "type": "Feature", "properties": {"collection_times": [{"days": "Mon-Fri", "time": "3:00pm"}, {"days": "Sat", "time": "1:00pm"}, {"days": "Sun", "time": "Closed"}], "id": "7580106712", "name": "USPS COLLECTION BOX - BLUE BOX", "address": {"city": "PALESTINE", "state": "TX", "street": "321 E SPRING ST", "postcode": "75801"}}},
{"geometry": {"type": "Point", "coordinates": [-95.6317168586, 31.7640827496]}, "type": "Feature", "properties": {"collection_times": [{"days": "Mon-Fri", "time": "5:00pm"}, {"days": "Sat-Sun", "time": "Closed"}], "id": "7580106715", "name": "USPS COLLECTION BOX - BLUE BOX", "address": {"city": "PALESTINE", "state": "TX", "street": "500 N SYCAMORE ST", "postcode": "75801"}}},
{"geometry": {"type": "Point", "coordinates": [-95.6335205592, 31.7625723206]}, "type": "Feature", "properties": {"collection_times": [{"days": "Mon-Sat", "time": "1:00pm"}, {"days": "Sun", "time": "Closed"}], "id": "7580106717", "name": "USPS COLLECTION BOX - BLUE BOX", "address": {"city": "PALESTINE", "state": "TX", "street": "300 W OAK ST", "postcode": "75801"}}},
{"geometry": {"type": "Point", "coordinates": [-95.6335205592, 31.7625723206]}, "type": "Feature", "properties": {"collection_times": [{"days": "Mon-Sat", "time": "1:00pm"}, {"days": "Sun", "time": "Closed"}], "id": "7580106718", "name": "USPS COLLECTION BOX - BLUE BOX", "address": {"city": "PALESTINE", "state": "TX", "street": "300 W OAK ST", "postcode": "75801"}}},
{"geometry": {"type": "Point", "coordinates": [-95.6294202409, 31.760264683]}, "type": "Feature", "properties": {"collection_times": [{"days": "Mon-Fri", "time": "9:00am"}, {"days": "Sat-Sun", "time": "Closed"}], "id": "7580106721", "name": "USPS COLLECTION BOX - BLUE BOX", "address": {"city": "PALESTINE", "state": "TX", "street": "118 S ROYALL ST", "postcode": "75801"}}},
{"geometry": {"type": "Point", "coordinates": [-95.6279677444, 31.7522926972]}, "type": "Feature", "properties": {"collection_times": [{"days": "Mon-Fri", "time": "3:00pm"}, {"days": "Sat-Sun", "time": "Closed"}], "id": "7580106724", "name": "USPS COLLECTION BOX - BLUE BOX", "address": {"city": "PALESTINE", "state": "TX", "street": "813 S ROYALL ST", "postcode": "75801"}}},
{"geometry": {"type": "Point", "coordinates": [-95.6073729945, 31.7371361678]}, "type": "Feature", "properties": {"collection_times": [{"days": "Mon-Fri", "time": "3:00pm"}, {"days": "Sat", "time": "1:00pm"}, {"days": "Sun", "time": "Closed"}], "id": "7580106733", "name": "USPS COLLECTION BOX - BLUE BOX", "address": {"city": "PALESTINE", "state": "TX", "street": "2100 S LOOP 256", "postcode": "75801"}}},
{"geometry": {"type": "Point", "coordinates": [-95.609209558, 31.7354749661]}, "type": "Feature", "properties": {"collection_times": [{"days": "Mon-Fri", "time": "3:00pm"}, {"days": "Sat", "time": "1:00pm"}, {"days": "Sun", "time": "Closed"}], "id": "7580106739", "name": "USPS COLLECTION BOX - BLUE BOX", "address": {"city": "PALESTINE", "state": "TX", "street": "2209 S LOOP 256", "postcode": "75801"}}},
{"geometry": {"type": "Point", "coordinates": [-95.609209558, 31.7354749661]}, "type": "Feature", "properties": {"collection_times": [{"days": "Mon-Fri", "time": "3:00pm"}, {"days": "Sat", "time": "1:00pm"}, {"days": "Sun", "time": "Closed"}], "id": "7580106740", "name": "USPS COLLECTION BOX - BLUE BOX", "address": {"city": "PALESTINE", "state": "TX", "street": "2209 S LOOP 256", "postcode": "75801"}}},
{"geometry": {"type": "Point", "coordinates": [-95.6325211826, 31.7621527201]}, "type": "Feature", "properties": {"collection_times": [{"days": "Mon-Sat", "time": "9:15am"}, {"days": "Sun", "time": "Closed"}], "id": "7580106741", "name": "USPS COLLECTION BOX - BLUE BOX", "address": {"city": "PALESTINE", "state": "TX", "street": "111 S MAGNOLIA ST", "postcode": "75801"}}},
{"geometry": {"type": "Point", "coordinates": [-95.6810027551, 31.7278758756]}, "type": "Feature", "properties": {"collection_times": [{"days": "Mon-Fri", "time": "3:00pm"}, {"days": "Sat", "time": "1:00pm"}, {"days": "Sun", "time": "Closed"}], "id": "7580106743", "name": "USPS COLLECTION BOX - BLUE BOX", "address": {"city": "PALESTINE", "state": "TX", "street": "3913 W OAK ST", "postcode": "75801"}}},
{"geometry": {"type": "Point", "coordinates": [-95.6810027551, 31.7278758756]}, "type": "Feature", "properties": {"collection_times": [{"days": "Mon-Fri", "time": "3:00pm"}, {"days": "Sat", "time": "1:00pm"}, {"days": "Sun", "time": "Closed"}], "id": "7580106744", "name": "USPS COLLECTION BOX - BLUE BOX", "address": {"city": "PALESTINE", "state": "TX", "street": "3913 W OAK ST", "postcode": "75801"}}},
{"geometry": {"type": "Point", "coordinates": [-95.6259482775, 31.7311601213]}, "type": "Feature", "properties": {"collection_times": [{"days": "Mon-Fri", "time": "3:00pm"}, {"days": "Sat", "time": "1:00pm"}, {"days": "Sun", "time": "Closed"}], "id": "7580106756", "name": "USPS COLLECTION BOX - BLUE BOX", "address": {"city": "PALESTINE", "state": "TX", "street": "111 MEDICAL DR", "postcode": "75801"}}},
{"geometry": {"type": "Point", "coordinates": [-95.6094436613, 31.735335827]}, "type": "Feature", "properties": {"collection_times": [{"days": "Mon-Fri", "time": "3:00pm"}, {"days": "Sat", "time": "1:00pm"}, {"days": "Sun", "time": "Closed"}], "id": "7580106768", "name": "USPS COLLECTION BOX - BLUE BOX", "address": {"city": "PALESTINE", "state": "TX", "street": "2223 S LOOP 256", "postcode": "75801"}}},
{"geometry": {"type": "Point", "coordinates": [-95.6094436613, 31.735335827]}, "type": "Feature", "properties": {"collection_times": [{"days": "Mon-Fri", "time": "3:00pm"}, {"days": "Sat", "time": "1:00pm"}, {"days": "Sun", "time": "Closed"}], "id": "7580106769", "name": "USPS COLLECTION BOX - BLUE BOX", "address": {"city": "PALESTINE", "state": "TX", "street": "2223 S LOOP 256", "postcode": "75801"}}},
{"geometry": {"type": "Point", "coordinates": [-95.6297548016, 31.7716738821]}, "type": "Feature", "properties": {"collection_times": [{"days": "Mon-Fri", "time": "5:00pm"}, {"days": "Sat", "time": "1:00pm"}, {"days": "Sun", "time": "Closed"}], "id": "7580106770", "name": "USPS COLLECTION BOX - PO LOBBY", "address": {"city": "PALESTINE", "state": "TX", "street": "1213 N LINK ST", "postcode": "75801"}}},
{"geometry": {"type": "Point", "coordinates": [-95.6297548016, 31.7716738821]}, "type": "Feature", "properties": {"collection_times": [{"days": "Mon-Fri", "time": "5:00pm"}, {"days": "Sat", "time": "1:00pm"}, {"days": "Sun", "time": "Closed"}], "id": "7580106771", "name": "USPS COLLECTION BOX - PO LOBBY", "address": {"city": "PALESTINE", "state": "TX", "street": "1213 N LINK ST", "postcode": "75801"}}},
{"geometry": {"type": "Point", "coordinates": [-95.6297548016, 31.7716738821]}, "type": "Feature", "properties": {"collection_times": [{"days": "Mon-Fri", "time": "5:00pm"}, {"days": "Sat", "time": "1:00pm"}, {"days": "Sun", "time": "Closed"}], "id": "7580106772", "name": "USPS COLLECTION BOX - PO LOBBY", "address": {"city": "PALESTINE", "state": "TX", "street": "1213 N LINK ST", "postcode": "75801"}}},
{"geometry": {"type": "Point", "coordinates": [-95.6084166005, 31.7367317627]}, "type": "Feature", "properties": {"collection_times": [{"days": "Mon-Sat", "time": "1:00pm"}, {"days": "Sun", "time": "Closed"}], "id": "7580106776", "name": "USPS COLLECTION BOX - BLUE BOX", "address": {"city": "PALESTINE", "state": "TX", "street": "2012 CROCKETT RD", "postcode": "75801"}}},
{"geometry": {"type": "Point", "coordinates": [-95.6073729945, 31.7371361678]}, "type": "Feature", "properties": {"collection_times": [{"days": "Mon-Fri", "time": "3:00pm"}, {"days": "Sat", "time": "1:00pm"}, {"days": "Sun", "time": "Closed"}], "id": "7580106777", "name": "USPS COLLECTION BOX - BLUE BOX", "address": {"city": "PALESTINE", "state": "TX", "street": "2100 S LOOP 256", "postcode": "75801"}}},
{"geometry": {"type": "Point", "coordinates": [-95.6202349071, 31.7332216346]}, "type": "Feature", "properties": {"collection_times": [{"days": "Mon-Fri", "time": "3:00pm"}, {"days": "Sat", "time": "1:00pm"}, {"days": "Sun", "time": "Closed"}], "id": "7580106778", "name": "USPS COLLECTION BOX - BLUE BOX", "address": {"city": "PALESTINE", "state": "TX", "street": "2900 S LOOP 256", "postcode": "75801"}}},
{"geometry": {"type": "Point", "coordinates": [-95.6296378069, 31.7348402626]}, "type": "Feature", "properties": {"collection_times": [{"days": "Mon-Sat", "time": "12:00pm"}, {"days": "Sun", "time": "Closed"}], "id": "7580106779", "name": "USPS COLLECTION BOX - BLUE BOX", "address": {"city": "PALESTINE", "state": "TX", "street": "4000 S LOOP 256", "postcode": "75801"}}},
{"geometry": {"type": "Point", "coordinates": [-96.118884409, 31.5038780187]}, "type": "Feature", "properties": {"collection_times": [{"days": "Mon-Fri", "time": "3:30pm"}, {"days": "Sat", "time": "9:00am"}, {"days": "Sun", "time": "Closed"}], "id": "7583100000", "name": "USPS COLLECTION BOX - BLUE BOX", "address": {"city": "BUFFALO", "state": "TX", "street": "208 CENTER ST", "postcode": "75831"}}},
{"geometry": {"type": "Point", "coordinates": [-96.118884409, 31.5038780187]}, "type": "Feature", "properties": {"collection_times": [{"days": "Mon-Fri", "time": "3:30pm"}, {"days": "Sat", "time": "9:00am"}, {"days": "Sun", "time": "Closed"}], "id": "7583100003", "name": "USPS COLLECTION BOX - PO LOBBY", "address": {"city": "BUFFALO", "state": "TX", "street": "208 CENTER ST", "postcode": "75831"}}},
{"geometry": {"type": "Point", "coordinates": [-95.974279752, 31.9561991353]}, "type": "Feature", "properties": {"collection_times": [{"days": "Mon-Sat", "time": "3:30pm"}, {"days": "Sun", "time": "Closed"}], "id": "7583200000", "name": "USPS COLLECTION BOX - BLUE BOX", "address": {"city": "CAYUGA", "state": "TX", "street": "21649 N US HIGHWAY 287", "postcode": "75832"}}},
{"geometry": {"type": "Point", "coordinates": [-95.974279752, 31.9561991353]}, "type": "Feature", "properties": {"collection_times": [{"days": "Mon-Fri", "time": "12:30pm"}, {"days": "Sat", "time": "9:00am"}, {"days": "Sun", "time": "Closed"}], "id": "7583200002", "name": "USPS COLLECTION BOX - PO LOBBY", "address": {"city": "CAYUGA", "state": "TX", "street": "21649 N US HIGHWAY 287", "postcode": "75832"}}},
{"geometry": {"type": "Point", "coordinates": [-95.9801976144, 31.2579188419]}, "type": "Feature", "properties": {"collection_times": [{"days": "Mon-Fri", "time": "4:00pm"}, {"days": "Sat", "time": "10:00am"}, {"days": "Sun", "time": "Closed"}], "id": "7583300001", "name": "USPS COLLECTION BOX - PO LOBBY", "address": {"city": "CENTERVILLE", "state": "TX", "street": "322 E SAINT MARYS", "postcode": "75833"}}},
{"geometry": {"type": "Point", "coordinates": [-95.9801976144, 31.2579188419]}, "type": "Feature", "properties": {"collection_times": [{"days": "Mon-Fri", "time": "4:00pm"}, {"days": "Sat", "time": "10:00am"}, {"days": "Sun", "time": "Closed"}], "id": "7583300002", "name": "USPS COLLECTION BOX - BLUE BOX", "address": {"city": "CENTERVILLE", "state": "TX", "street": "322 E SAINT MARYS", "postcode": "75833"}}},
{"geometry": {"type": "Point", "coordinates": [-95.4370910296, 31.3111074567]}, "type": "Feature", "properties": {"collection_times": [{"days": "Mon-Sat", "time": "12:00pm"}, {"days": "Sun", "time": "Closed"}], "id": "7583506420", "name": "USPS COLLECTION BOX - BLUE BOX", "address": {"city": "CROCKETT", "state": "TX", "street": "1225 E LOOP 304", "postcode": "75835"}}},
{"geometry": {"type": "Point", "coordinates": [-95.4561503471, 31.317736503]}, "type": "Feature", "properties": {"collection_times": [{"days": "Mon-Fri", "time": "3:30pm"}, {"days": "Sat", "time": "12:00pm"}, {"days": "Sun", "time": "Closed"}], "id": "7583506423", "name": "USPS COLLECTION BOX - BLUE BOX", "address": {"city": "CROCKETT", "state": "TX", "street": "600 E GOLIAD AVE", "postcode": "75835"}}},
{"geometry": {"type": "Point", "coordinates": [-95.4561503471, 31.317736503]}, "type": "Feature", "properties": {"collection_times": [{"days": "Mon-Fri", "time": "3:30pm"}, {"days": "Sat", "time": "12:00pm"}, {"days": "Sun", "time": "Closed"}], "id": "7583506424", "name": "USPS COLLECTION BOX - BLUE BOX", "address": {"city": "CROCKETT", "state": "TX", "street": "600 E GOLIAD AVE", "postcode": "75835"}}},
{"geometry": {"type": "Point", "coordinates": [-95.4561503471, 31.317736503]}, "type": "Feature", "properties": {"collection_times": [{"days": "Mon-Fri", "time": "4:30pm"}, {"days": "Sat", "time": "12:00pm"}, {"days": "Sun", "time": "Closed"}], "id": "7583506426", "name": "USPS COLLECTION BOX - PO LOBBY", "address": {"city": "CROCKETT", "state": "TX", "street": "600 E GOLIAD AVE", "postcode": "75835"}}},
{"geometry": {"type": "Point", "coordinates": [-95.4561503471, 31.317736503]}, "type": "Feature", "properties": {"collection_times": [{"days": "Mon-Fri", "time": "3:30pm"}, {"days": "Sat", "time": "12:00pm"}, {"days": "Sun", "time": "Closed"}], "id": "7583506427", "name": "USPS COLLECTION BOX - BLUE BOX", "address": {"city": "CROCKETT", "state": "TX", "street": "600 E GOLIAD AVE", "postcode": "75835"}}},
{"geometry": {"type": "Point", "coordinates": [-96.2213361908, 31.4775620135]}, "type": "Feature", "properties": {"collection_times": [{"days": "Mon-Sat", "time": "3:30pm"}, {"days": "Sun", "time": "Closed"}], "id": "7583800000", "name": "USPS COLLECTION BOX - BLUE BOX", "address": {"city": "DONIE", "state": "TX", "street": "236 MAIN ST", "postcode": "75838"}}},
{"geometry": {"type": "Point", "coordinates": [-96.2213361908, 31.4775620135]}, "type": "Feature", "properties": {"collection_times": [{"days": "Mon-Fri", "time": "1:30pm"}, {"days": "Sat", "time": "9:00am"}, {"days": "Sun", "time": "Closed"}], "id": "7583800002", "name": "USPS COLLECTION BOX - PO LOBBY", "address": {"city": "DONIE", "state": "TX", "street": "236 MAIN ST", "postcode": "75838"}}},
{"geometry": {"type": "Point", "coordinates": [-95.5804336108, 31.626059389]}, "type": "Feature", "properties": {"collection_times": [{"days": "Mon-Fri", "time": "3:30pm"}, {"days": "Sat", "time": "8:00am"}, {"days": "Sun", "time": "Closed"}], "id": "7583900000", "name": "USPS COLLECTION BOX - BLUE BOX", "address": {"city": "ELKHART", "state": "TX", "street": "100 SHERIDAN ST", "postcode": "75839"}}},
{"geometry": {"type": "Point", "coordinates": [-95.5804336108, 31.626059389]}, "type": "Feature", "properties": {"collection_times": [{"days": "Mon-Fri", "time": "3:30pm"}, {"days": "Sat", "time": "8:00am"}, {"days": "Sun", "time": "Closed"}], "id": "7583900003", "name": "USPS COLLECTION BOX - PO LOBBY", "address": {"city": "ELKHART", "state": "TX", "street": "100 SHERIDAN ST", "postcode": "75839"}}},
{"geometry": {"type": "Point", "coordinates": [-96.1580124752, 31.7252100575]}, "type": "Feature", "properties": {"collection_times": [{"days": "Mon-Fri", "time": "3:00pm"}, {"days": "Sat", "time": "8:30am"}, {"days": "Sun", "time": "Closed"}], "id": "7584006875", "name": "USPS COLLECTION BOX - BLUE BOX", "address": {"city": "FAIRFIELD", "state": "TX", "street": "320 E COMMERCE ST", "postcode": "75840"}}},
{"geometry": {"type": "Point", "coordinates": [-96.1580124752, 31.7252100575]}, "type": "Feature", "properties": {"collection_times": [{"days": "Mon-Fri", "time": "4:15pm"}, {"days": "Sat", "time": "8:30am"}, {"days": "Sun", "time": "Closed"}], "id": "7584006890", "name": "USPS COLLECTION BOX - PO LOBBY", "address": {"city": "FAIRFIELD", "state": "TX", "street": "320 E COMMERCE ST", "postcode": "75840"}}},
{"geometry": {"type": "Point", "coordinates": [-96.1580124752, 31.7252100575]}, "type": "Feature", "properties": {"collection_times": [{"days": "Mon-Fri", "time": "3:00pm"}, {"days": "Sat", "time": "8:30am"}, {"days": "Sun", "time": "Closed"}], "id": "7584006891", "name": "USPS COLLECTION BOX - BLUE BOX", "address": {"city": "FAIRFIELD", "state": "TX", "street": "320 E COMMERCE ST", "postcode": "75840"}}},
{"geometry": {"type": "Point", "coordinates": [-96.1580124752, 31.7252100575]}, "type": "Feature", "properties": {"collection_times": [{"days": "Mon-Fri", "time": "4:15pm"}, {"days": "Sat", "time": "8:30am"}, {"days": "Sun", "time": "Closed"}], "id": "7584006892", "name": "USPS COLLECTION BOX - PO LOBBY", "address": {"city": "FAIRFIELD", "state": "TX", "street": "320 E COMMERCE ST", "postcode": "75840"}}},
{"geometry": {"type": "Point", "coordinates": [-95.4805751491, 31.4905454819]}, "type": "Feature", "properties": {"collection_times": [{"days": "Mon-Fri", "time": "4:00pm"}, {"days": "Sat", "time": "8:00am"}, {"days": "Sun", "time": "Closed"}], "id": "7584400001", "name": "USPS COLLECTION BOX - BLUE BOX", "address": {"city": "GRAPELAND", "state": "TX", "street": "309 W CHESTNUT ST", "postcode": "75844"}}},
{"geometry": {"type": "Point", "coordinates": [-95.4805751491, 31.4905454819]}, "type": "Feature", "properties": {"collection_times": [{"days": "Mon-Fri", "time": "4:00pm"}, {"days": "Sat", "time": "8:00am"}, {"days": "Sun", "time": "Closed"}], "id": "7584400003", "name": "USPS COLLECTION BOX - PO LOBBY", "address": {"city": "GRAPELAND", "state": "TX", "street": "309 W CHESTNUT ST", "postcode": "75844"}}},
{"geometry": {"type": "Point", "coordinates": [-95.1258931677, 31.0559303778]}, "type": "Feature", "properties": {"collection_times": [{"days": "Mon-Fri", "time": "4:00pm"}, {"days": "Sat", "time": "9:00am"}, {"days": "Sun", "time": "Closed"}], "id": "7584500003", "name": "USPS COLLECTION BOX - PO LOBBY", "address": {"city": "GROVETON", "state": "TX", "street": "147 E 2ND ST", "postcode": "75845"}}},
{"geometry": {"type": "Point", "coordinates": [-95.1258931677, 31.0559303778]}, "type": "Feature", "properties": {"collection_times": [{"days": "Mon-Fri", "time": "3:30pm"}, {"days": "Sat", "time": "9:00am"}, {"days": "Sun", "time": "Closed"}], "id": "7584500004", "name": "USPS COLLECTION BOX - BLUE BOX", "address": {"city": "GROVETON", "state": "TX", "street": "147 E 2ND ST", "postcode": "75845"}}},
{"geometry": {"type": "Point", "coordinates": [-96.1416361784, 31.3660678381]}, "type": "Feature", "properties": {"collection_times": [{"days": "Mon-Fri", "time": "4:00pm"}, {"days": "Sat", "time": "8:30am"}, {"days": "Sun", "time": "Closed"}], "id": "7584600000", "name": "USPS COLLECTION BOX - BLUE BOX", "address": {"city": "JEWETT", "state": "TX", "street": "1001 N MAIN ST", "postcode": "75846"}}},
{"geometry": {"type": "Point", "coordinates": [-96.1416361784, 31.3660678381]}, "type": "Feature", "properties": {"collection_times": [{"days": "Mon-Fri", "time": "4:00pm"}, {"days": "Sat", "time": "8:30am"}, {"days": "Sun", "time": "Closed"}], "id": "7584600002", "name": "USPS COLLECTION BOX - PO LOBBY", "address": {"city": "JEWETT", "state": "TX", "street": "1001 N MAIN ST", "postcode": "75846"}}},
{"geometry": {"type": "Point", "coordinates": [-95.0999428631, 31.2367491246]}, "type": "Feature", "properties": {"collection_times": [{"days": "Mon-Sat", "time": "2:30pm"}, {"days": "Sun", "time": "Closed"}], "id": "7584700000", "name": "USPS COLLECTION BOX - BLUE BOX", "address": {"city": "KENNARD", "state": "TX", "street": "312 W MAIN ST", "postcode": "75847"}}},
{"geometry": {"type": "Point", "coordinates": [-95.0999428631, 31.2367491246]}, "type": "Feature", "properties": {"collection_times": [{"days": "Mon-Fri", "time": "2:30pm"}, {"days": "Sat", "time": "9:15am"}, {"days": "Sun", "time": "Closed"}], "id": "7584700002", "name": "USPS COLLECTION BOX - PO LOBBY", "address": {"city": "KENNARD", "state": "TX", "street": "312 W MAIN ST", "postcode": "75847"}}},
{"geometry": {"type": "Point", "coordinates": [-96.3247727673, 31.8772691212]}, "type": "Feature", "properties": {"collection_times": [{"days": "Mon-Sat", "time": "10:00am"}, {"days": "Sun", "time": "Closed"}], "id": "7584800000", "name": "USPS COLLECTION BOX - BLUE BOX", "address": {"city": "KIRVIN", "state": "TX", "street": "230 MAIN ST", "postcode": "75848"}}},
{"geometry": {"type": "Point", "coordinates": [-95.4758911022, 31.3946182305]}, "type": "Feature", "properties": {"collection_times": [{"days": "Mon-Fri", "time": "2:00pm"}, {"days": "Sat", "time": "8:30am"}, {"days": "Sun", "time": "Closed"}], "id": "7584900000", "name": "USPS COLLECTION BOX - BLUE BOX", "address": {"city": "LATEXO", "state": "TX", "street": "3529 US HIGHWAY 287 N", "postcode": "75849"}}},
{"geometry": {"type": "Point", "coordinates": [-95.4758911022, 31.3946182305]}, "type": "Feature", "properties": {"collection_times": [{"days": "Mon-Fri", "time": "11:30am"}, {"days": "Sat", "time": "8:30am"}, {"days": "Sun", "time": "Closed"}], "id": "7584900002", "name": "USPS COLLECTION BOX - PO LOBBY", "address": {"city": "LATEXO", "state": "TX", "street": "3529 US HIGHWAY 287 N", "postcode": "75849"}}},
{"geometry": {"type": "Point", "coordinates": [-95.90962693, 31.1332491988]}, "type": "Feature", "properties": {"collection_times": [{"days": "Mon-Fri", "time": "3:30pm"}, {"days": "Sat", "time": "3:00pm"}, {"days": "Sun", "time": "Closed"}], "id": "7585000000", "name": "USPS COLLECTION BOX - BLUE BOX", "address": {"city": "LEONA", "state": "TX", "street": "143 N LEONA BLVD", "postcode": "75850"}}},
{"geometry": {"type": "Point", "coordinates": [-95.90962693, 31.1332491988]}, "type": "Feature", "properties": {"collection_times": [{"days": "Mon-Fri", "time": "12:00pm"}, {"days": "Sat", "time": "8:00am"}, {"days": "Sun", "time": "Closed"}], "id": "7585000001", "name": "USPS COLLECTION BOX - PO LOBBY", "address": {"city": "LEONA", "state": "TX", "street": "143 N LEONA BLVD", "postcode": "75850"}}},
{"geometry": {"type": "Point", "coordinates": [-95.5215565532, 31.1026511727]}, "type": "Feature", "properties": {"collection_times": [{"days": "Mon-Fri", "time": "3:30pm"}, {"days": "Sat", "time": "8:30am"}, {"days": "Sun", "time": "Closed"}], "id": "7585100000", "name": "USPS COLLECTION BOX - BLUE BOX", "address": {"city": "LOVELADY", "state": "TX", "street": "290 S COMMERCE ST", "postcode": "75851"}}},
{"geometry": {"type": "Point", "coordinates": [-95.5215565532, 31.1026511727]}, "type": "Feature", "properties": {"collection_times": [{"days": "Mon-Fri", "time": "4:00pm"}, {"days": "Sat", "time": "8:30am"}, {"days": "Sun", "time": "Closed"}], "id": "7585100002", "name": "USPS COLLECTION BOX - PO LOBBY", "address": {"city": "LOVELADY", "state": "TX", "street": "290 S COMMERCE ST", "postcode": "75851"}}},
{"geometry": {"type": "Point", "coordinates": [-95.7577248388, 31.0205019685]}, "type": "Feature", "properties": {"collection_times": [{"days": "Mon-Fri", "time": "3:30pm"}, {"days": "Sat", "time": "7:30am"}, {"days": "Sun", "time": "Closed"}], "id": "7585200000", "name": "USPS COLLECTION BOX - BLUE BOX", "address": {"city": "MIDWAY", "state": "TX", "street": "11528 STATE HIGHWAY 21 E", "postcode": "75852"}}},
{"geometry": {"type": "Point", "coordinates": [-95.7577248388, 31.0205019685]}, "type": "Feature", "properties": {"collection_times": [{"days": "Mon-Fri", "time": "3:30pm"}, {"days": "Sat", "time": "7:30am"}, {"days": "Sun", "time": "Closed"}], "id": "7585200001", "name": "USPS COLLECTION BOX - PO LOBBY", "address": {"city": "MIDWAY", "state": "TX", "street": "11528 STATE HIGHWAY 21 E", "postcode": "75852"}}},
{"geometry": {"type": "Point", "coordinates": [-95.7577248388, 31.0205019685]}, "type": "Feature", "properties": {"collection_times": [{"days": "Mon-Fri", "time": "3:30pm"}, {"days": "Sat", "time": "7:30am"}, {"days": "Sun", "time": "Closed"}], "id": "7585200002", "name": "USPS COLLECTION BOX - PO LOBBY", "address": {"city": "MIDWAY", "state": "TX", "street": "11528 STATE HIGHWAY 21 E", "postcode": "75852"}}},
{"geometry": {"type": "Point", "coordinates": [-95.826714179, 31.8952645077]}, "type": "Feature", "properties": {"collection_times": [{"days": "Mon-Fri", "time": "3:30pm"}, {"days": "Sat", "time": "9:30am"}, {"days": "Sun", "time": "Closed"}], "id": "7585300000", "name": "USPS COLLECTION BOX - BLUE BOX", "address": {"city": "MONTALBA", "state": "TX", "street": "200 W FM 321", "postcode": "75853"}}},
{"geometry": {"type": "Point", "coordinates": [-95.826714179, 31.8952645077]}, "type": "Feature", "properties": {"collection_times": [{"days": "Mon-Fri", "time": "10:30am"}, {"days": "Sat", "time": "9:30am"}, {"days": "Sun", "time": "Closed"}], "id": "7585300001", "name": "USPS COLLECTION BOX - PO LOBBY", "address": {"city": "MONTALBA", "state": "TX", "street": "200 W FM 321", "postcode": "75853"}}},
{"geometry": {"type": "Point", "coordinates": [-95.8490738173, 31.5848811979]}, "type": "Feature", "properties": {"collection_times": [{"days": "Mon-Fri", "time": "2:00pm"}, {"days": "Sat", "time": "8:00am"}, {"days": "Sun", "time": "Closed"}], "id": "7585500001", "name": "USPS COLLECTION BOX - BLUE BOX", "address": {"city": "OAKWOOD", "state": "TX", "street": "315 W BROAD ST", "postcode": "75855"}}},
{"geometry": {"type": "Point", "coordinates": [-95.8490738173, 31.5848811979]}, "type": "Feature", "properties": {"collection_times": [{"days": "Mon-Fri", "time": "2:00pm"}, {"days": "Sat", "time": "8:00am"}, {"days": "Sun", "time": "Closed"}], "id": "7585500003", "name": "USPS COLLECTION BOX - PO LOBBY", "address": {"city": "OAKWOOD", "state": "TX", "street": "315 W BROAD ST", "postcode": "75855"}}},
{"geometry": {"type": "Point", "coordinates": [-95.2027622329, 31.1746025673]}, "type": "Feature", "properties": {"collection_times": [{"days": "Mon-Sat", "time": "3:00pm"}, {"days": "Sun", "time": "Closed"}], "id": "7585600000", "name": "USPS COLLECTION BOX - BLUE BOX", "address": {"city": "PENNINGTON", "state": "TX", "street": "6552 FM 2781", "postcode": "75856"}}},
{"geometry": {"type": "Point", "coordinates": [-95.2027622329, 31.1746025673]}, "type": "Feature", "properties": {"collection_times": [{"days": "Mon-Fri", "time": "10:30am"}, {"days": "Sat", "time": "8:00am"}, {"days": "Sun", "time": "Closed"}], "id": "7585600002", "name": "USPS COLLECTION BOX - PO LOBBY", "address": {"city": "PENNINGTON", "state": "TX", "street": "6552 FM 2781", "postcode": "75856"}}},
{"geometry": {"type": "Point", "coordinates": [-95.1396822199, 31.3916644184]}, "type": "Feature", "properties": {"collection_times": [{"days": "Mon-Fri", "time": "2:30pm"}, {"days": "Sat", "time": "9:30am"}, {"days": "Sun", "time": "Closed"}], "id": "7585800000", "name": "USPS COLLECTION BOX - BLUE BOX", "address": {"city": "RATCLIFF", "state": "TX", "street": "STATE HIGHWAY 7", "postcode": "75858"}}},
{"geometry": {"type": "Point", "coordinates": [-95.1396822199, 31.3916644184]}, "type": "Feature", "properties": {"collection_times": [{"days": "Mon-Fri", "time": "1:00pm"}, {"days": "Sat-Sun", "time": "Closed"}], "id": "7585800001", "name": "USPS COLLECTION BOX - PO LOBBY", "address": {"city": "RATCLIFF", "state": "TX", "street": "STATE HIGHWAY 7", "postcode": "75858"}}},
{"geometry": {"type": "Point", "coordinates": [-96.3248937486, 31.8773546928]}, "type": "Feature", "properties": {"collection_times": [{"days": "Mon-Sat", "time": "3:30pm"}, {"days": "Sun", "time": "Closed"}], "id": "7585900000", "name": "USPS COLLECTION BOX - BLUE BOX", "address": {"city": "STREETMAN", "state": "TX", "street": "223 E MAIN ST", "postcode": "75859"}}},
{"geometry": {"type": "Point", "coordinates": [-96.3248937486, 31.8773546928]}, "type": "Feature", "properties": {"collection_times": [{"days": "Mon-Fri", "time": "3:00pm"}, {"days": "Sat", "time": "9:00am"}, {"days": "Sun", "time": "Closed"}], "id": "7585900002", "name": "USPS COLLECTION BOX - PO LOBBY", "address": {"city": "STREETMAN", "state": "TX", "street": "223 E MAIN ST", "postcode": "75859"}}},
{"geometry": {"type": "Point", "coordinates": [-96.169705327, 31.9414010964]}, "type": "Feature", "properties": {"collection_times": [{"days": "Mon-Fri", "time": "12:00pm"}, {"days": "Sat-Sun", "time": "Closed"}], "id": "7585900003", "name": "USPS COLLECTION BOX - BLUE BOX", "address": {"city": "STREETMAN", "state": "TX", "street": "488 FM 416", "postcode": "75859"}}},
{"geometry": {"type": "Point", "coordinates": [-96.2755635944, 31.626968659]}, "type": "Feature", "properties": {"collection_times": [{"days": "Mon-Sat", "time": "12:00pm"}, {"days": "Sun", "time": "Closed"}], "id": "7586000001", "name": "USPS COLLECTION BOX - BLUE BOX", "address": {"city": "TEAGUE", "state": "TX", "street": "230 E LOOP 255", "postcode": "75860"}}},
{"geometry": {"type": "Point", "coordinates": [-96.2850177646, 31.6272279672]}, "type": "Feature", "properties": {"collection_times": [{"days": "Mon-Fri", "time": "3:30pm"}, {"days": "Sat", "time": "10:00am"}, {"days": "Sun", "time": "Closed"}], "id": "7586000002", "name": "USPS COLLECTION BOX - BLUE BOX", "address": {"city": "TEAGUE", "state": "TX", "street": "320 MAIN ST", "postcode": "75860"}}},
{"geometry": {"type": "Point", "coordinates": [-96.2850177646, 31.6272279672]}, "type": "Feature", "properties": {"collection_times": [{"days": "Mon-Fri", "time": "3:30pm"}, {"days": "Sat", "time": "10:00am"}, {"days": "Sun", "time": "Closed"}], "id": "7586000003", "name": "USPS COLLECTION BOX - BLUE BOX", "address": {"city": "TEAGUE", "state": "TX", "street": "320 MAIN ST", "postcode": "75860"}}},
{"geometry": {"type": "Point", "coordinates": [-96.2850177646, 31.6272279672]}, "type": "Feature", "properties": {"collection_times": [{"days": "Mon-Fri", "time": "3:30pm"}, {"days": "Sat", "time": "10:00am"}, {"days": "Sun", "time": "Closed"}], "id": "7586000005", "name": "USPS COLLECTION BOX - PO LOBBY", "address": {"city": "TEAGUE", "state": "TX", "street": "320 MAIN ST", "postcode": "75860"}}},
{"geometry": {"type": "Point", "coordinates": [-95.8404439395, 31.8329711347]}, "type": "Feature", "properties": {"collection_times": [{"days": "Mon-Fri", "time": "4:00pm"}, {"days": "Sat", "time": "8:30am"}, {"days": "Sun", "time": "Closed"}], "id": "7586100000", "name": "USPS COLLECTION BOX - PO LOBBY", "address": {"city": "TENN COLONY", "state": "TX", "street": "1816 FM 645", "postcode": "75861"}}},
{"geometry": {"type": "Point", "coordinates": [-95.8404439395, 31.8329711347]}, "type": "Feature", "properties": {"collection_times": [{"days": "Mon-Fri", "time": "3:30pm"}, {"days": "Sat", "time": "8:30am"}, {"days": "Sun", "time": "Closed"}], "id": "7586100002", "name": "USPS COLLECTION BOX - BLUE BOX", "address": {"city": "TENN COLONY", "state": "TX", "street": "1816 FM 645", "postcode": "75861"}}},
{"geometry": {"type": "Point", "coordinates": [-95.3397457991, 30.9779147734]}, "type": "Feature", "properties": {"collection_times": [{"days": "Mon-Fri", "time": "11:00am"}, {"days": "Sat", "time": "9:00am"}, {"days": "Sun", "time": "Closed"}], "id": "7586206477", "name": "USPS COLLECTION BOX - BLUE BOX", "address": {"city": "TRINITY", "state": "TX", "street": "740 GRAND ROCK PT", "postcode": "75862"}}},
{"geometry": {"type": "Point", "coordinates": [-95.3755498294, 30.9451267341]}, "type": "Feature", "properties": {"collection_times": [{"days": "Mon-Fri", "time": "4:00pm"}, {"days": "Sat", "time": "9:00am"}, {"days": "Sun", "time": "Closed"}], "id": "7586206480", "name": "USPS COLLECTION BOX - BLUE BOX", "address": {"city": "TRINITY", "state": "TX", "street": "116 W MAIN ST", "postcode": "75862"}}},
{"geometry": {"type": "Point", "coordinates": [-95.3755498294, 30.9451267341]}, "type": "Feature", "properties": {"collection_times": [{"days": "Mon-Fri", "time": "4:00pm"}, {"days": "Sat", "time": "9:00am"}, {"days": "Sun", "time": "Closed"}], "id": "7586206481", "name": "USPS COLLECTION BOX - BLUE BOX", "address": {"city": "TRINITY", "state": "TX", "street": "116 W MAIN ST", "postcode": "75862"}}},
{"geometry": {"type": "Point", "coordinates": [-95.3397457991, 30.9779147734]}, "type": "Feature", "properties": {"collection_times": [{"days": "Mon-Fri", "time": "12:00pm"}, {"days": "Sat", "time": "9:00am"}, {"days": "Sun", "time": "Closed"}], "id": "7586206482", "name": "USPS COLLECTION BOX - BLUE BOX", "address": {"city": "TRINITY", "state": "TX", "street": "159 WILDFLOWER DR", "postcode": "75862"}}},
{"geometry": {"type": "Point", "coordinates": [-95.3397457991, 30.9779147734]}, "type": "Feature", "properties": {"collection_times": [{"days": "Mon-Fri", "time": "10:00am"}, {"days": "Sat", "time": "9:00am"}, {"days": "Sun", "time": "Closed"}], "id": "7586206484", "name": "USPS COLLECTION BOX - BLUE BOX", "address": {"city": "TRINITY", "state": "TX", "street": "100 WESTWOOD DR E", "postcode": "75862"}}},
{"geometry": {"type": "Point", "coordinates": [-95.3397457991, 30.9779147734]}, "type": "Feature", "properties": {"collection_times": [{"days": "Mon-Fri", "time": "12:00pm"}, {"days": "Sat", "time": "10:00am"}, {"days": "Sun", "time": "Closed"}], "id": "7586206485", "name": "USPS COLLECTION BOX - BLUE BOX", "address": {"city": "TRINITY", "state": "TX", "street": "9 CORAL GABLES", "postcode": "75862"}}},
{"geometry": {"type": "Point", "coordinates": [-95.3755498294, 30.9451267341]}, "type": "Feature", "properties": {"collection_times": [{"days": "Mon-Fri", "time": "4:00pm"}, {"days": "Sat", "time": "9:00am"}, {"days": "Sun", "time": "Closed"}], "id": "7586206488", "name": "USPS COLLECTION BOX - PO LOBBY", "address": {"city": "TRINITY", "state": "TX", "street": "116 W MAIN ST", "postcode": "75862"}}},
{"geometry": {"type": "Point", "coordinates": [-95.3397457991, 30.9779147734]}, "type": "Feature", "properties": {"collection_times": [{"days": "Mon-Fri", "time": "12:00pm"}, {"days": "Sat-Sun", "time": "Closed"}], "id": "7586206489", "name": "USPS COLLECTION BOX - BLUE BOX", "address": {"city": "TRINITY", "state": "TX", "street": "RR 4", "postcode": "75862"}}},
{"geometry": {"type": "Point", "coordinates": [-95.0386573016, 31.0241655879]}, "type": "Feature", "properties": {"collection_times": [{"days": "Mon-Fri", "time": "3:00pm"}, {"days": "Sat", "time": "8:30am"}, {"days": "Sun", "time": "Closed"}], "id": "7586500000", "name": "USPS COLLECTION BOX - BLUE BOX", "address": {"city": "WOODLAKE", "state": "TX", "street": "5923 E US HIGHWAY 287", "postcode": "75865"}}},
{"geometry": {"type": "Point", "coordinates": [-95.0386573016, 31.0241655879]}, "type": "Feature", "properties": {"collection_times": [{"days": "Mon-Fri", "time": "1:00pm"}, {"days": "Sat-Sun", "time": "Closed"}], "id": "7586500001", "name": "USPS COLLECTION BOX - PO LOBBY", "address": {"city": "WOODLAKE", "state": "TX", "street": "5923 E US HIGHWAY 287", "postcode": "75865"}}}
]}
