{"type": "FeatureCollection", "features": [
{"geometry": {"type": "Point", "coordinates": [-94.7224511262, 31.3371145475]}, "type": "Feature", "properties": {"collection_times": [{"days": "Mon-Sat", "time": "5:00pm"}, {"days": "Sun", "time": "Closed"}], "id": "7590106608", "name": "USPS COLLECTION BOX - BLUE BOX", "address": {"city": "LUFKIN", "state": "TX", "street": "608 E LUFKIN AVE", "postcode": "75901"}}},
{"geometry": {"type": "Point", "coordinates": [-94.7224511262, 31.3371145475]}, "type": "Feature", "properties": {"collection_times": [{"days": "Mon-Sat", "time": "5:00pm"}, {"days": "Sun", "time": "Closed"}], "id": "7590106609", "name": "USPS COLLECTION BOX - BLUE BOX", "address": {"city": "LUFKIN", "state": "TX", "street": "608 E LUFKIN AVE", "postcode": "75901"}}},
{"geometry": {"type": "Point", "coordinates": [-94.7224511262, 31.3371145475]}, "type": "Feature", "properties": {"collection_times": [{"days": "Mon-Sat", "time": "5:00pm"}, {"days": "Sun", "time": "Closed"}], "id": "7590106615", "name": "USPS COLLECTION BOX - PO LOBBY", "address": {"city": "LUFKIN", "state": "TX", "street": "608 E LUFKIN AVE", "postcode": "75901"}}},
{"geometry": {"type": "Point", "coordinates": [-94.7224511262, 31.3371145475]}, "type": "Feature", "properties": {"collection_times": [{"days": "Mon-Sat", "time": "5:00pm"}, {"days": "Sun", "time": "Closed"}], "id": "7590106616", "name": "USPS COLLECTION BOX - PO LOBBY", "address": {"city": "LUFKIN", "state": "TX", "street": "608 E LUFKIN AVE", "postcode": "75901"}}},
{"geometry": {"type": "Point", "coordinates": [-94.7297526495, 31.2875541651]}, "type": "Feature", "properties": {"collection_times": [{"days": "Mon-Sat", "time": "3:00pm"}, {"days": "Sun", "time": "Closed"}], "id": "7590106637", "name": "USPS COLLECTION BOX - BLUE BOX", "address": {"city": "LUFKIN", "state": "TX", "street": "111 CHAMPIONS DR", "postcode": "75901"}}},
{"geometry": {"type": "Point", "coordinates": [-94.6625982414, 31.3020384583]}, "type": "Feature", "properties": {"collection_times": [{"days": "Mon-Fri", "time": "3:00pm"}, {"days": "Sat-Sun", "time": "Closed"}], "id": "7590106653", "name": "USPS COLLECTION BOX - BLUE BOX", "address": {"city": "LUFKIN", "state": "TX", "street": "HWY 59 S", "postcode": "75901"}}},
{"geometry": {"type": "Point", "coordinates": [-94.727925961, 31.3376459415]}, "type": "Feature", "properties": {"collection_times": [{"days": "Mon-Sat", "time": "3:00pm"}, {"days": "Sun", "time": "Closed"}], "id": "7590106660", "name": "USPS COLLECTION BOX - BLUE BOX", "address": {"city": "LUFKIN", "state": "TX", "street": "222 E SHEPHERD AVE", "postcode": "75901"}}},
{"geometry": {"type": "Point", "coordinates": [-94.715376513, 31.3266855699]}, "type": "Feature", "properties": {"collection_times": [{"days": "Mon-Sat", "time": "3:00pm"}, {"days": "Sun", "time": "Closed"}], "id": "7590106667", "name": "USPS COLLECTION BOX - BLUE BOX", "address": {"city": "LUFKIN", "state": "TX", "street": "1203 S CHESTNUT ST", "postcode": "75901"}}},
{"geometry": {"type": "Point", "coordinates": [-94.7280187723, 31.3412821638]}, "type": "Feature", "properties": {"collection_times": [{"days": "Mon-Fri", "time": "3:00pm"}, {"days": "Sat-Sun", "time": "Closed"}], "id": "7590106674", "name": "USPS COLLECTION BOX - BLUE BOX", "address": {"city": "LUFKIN", "state": "TX", "street": "321 N 1ST ST", "postcode": "75901"}}},
{"geometry": {"type": "Point", "coordinates": [-94.7298682136, 31.3337455018]}, "type": "Feature", "properties": {"collection_times": [{"days": "Mon-Sat", "time": "3:00pm"}, {"days": "Sun", "time": "Closed"}], "id": "7590106675", "name": "USPS COLLECTION BOX - BLUE BOX", "address": {"city": "LUFKIN", "state": "TX", "street": "600 S 1ST ST", "postcode": "75901"}}},
{"geometry": {"type": "Point", "coordinates": [-94.728791528, 31.3391232981]}, "type": "Feature", "properties": {"collection_times": [{"days": "Mon-Sat", "time": "3:00pm"}, {"days": "Sun", "time": "Closed"}], "id": "7590106681", "name": "USPS COLLECTION BOX - BLUE BOX", "address": {"city": "LUFKIN", "state": "TX", "street": "101 E LUFKIN AVE", "postcode": "75901"}}},
{"geometry": {"type": "Point", "coordinates": [-94.7275647335, 31.3387567551]}, "type": "Feature", "properties": {"collection_times": [{"days": "Mon-Fri", "time": "3:00pm"}, {"days": "Sat-Sun", "time": "Closed"}], "id": "7590106682", "name": "USPS COLLECTION BOX - BLUE BOX", "address": {"city": "LUFKIN", "state": "TX", "street": "215 E LUFKIN AVE", "postcode": "75901"}}},
{"geometry": {"type": "Point", "coordinates": [-94.7277661964, 31.3389233528]}, "type": "Feature", "properties": {"collection_times": [{"days": "Mon-Sat", "time": "3:00pm"}, {"days": "Sun", "time": "Closed"}], "id": "7590107262", "name": "USPS COLLECTION BOX - BLUE BOX", "address": {"city": "LUFKIN", "state": "TX", "street": "113 N 2ND ST", "postcode": "75901"}}},
{"geometry": {"type": "Point", "coordinates": [-94.7224511262, 31.3371145475]}, "type": "Feature", "properties": {"collection_times": [{"days": "Mon-Sat", "time": "5:00pm"}, {"days": "Sun", "time": "Closed"}], "id": "7590107263", "name": "USPS COLLECTION BOX - BLUE BOX", "address": {"city": "LUFKIN", "state": "TX", "street": "608 E LUFKIN AVE", "postcode": "75901"}}},
{"geometry": {"type": "Point", "coordinates": [-94.7557726565, 31.3250046983]}, "type": "Feature", "properties": {"collection_times": [{"days": "Mon-Sat", "time": "5:00pm"}, {"days": "Sun", "time": "Closed"}], "id": "7590400000", "name": "USPS COLLECTION BOX - BLUE BOX", "address": {"city": "LUFKIN", "state": "TX", "street": "800 S JOHN REDDITT DR", "postcode": "75904"}}},
{"geometry": {"type": "Point", "coordinates": [-94.7557726565, 31.3250046983]}, "type": "Feature", "properties": {"collection_times": [{"days": "Mon-Sat", "time": "5:00pm"}, {"days": "Sun", "time": "Closed"}], "id": "7590400003", "name": "USPS COLLECTION BOX - BLUE BOX", "address": {"city": "LUFKIN", "state": "TX", "street": "800 S JOHN REDDITT DR", "postcode": "75904"}}},
{"geometry": {"type": "Point", "coordinates": [-94.7557726565, 31.3250046983]}, "type": "Feature", "properties": {"collection_times": [{"days": "Mon-Sat", "time": "5:00pm"}, {"days": "Sun", "time": "Closed"}], "id": "7590400006", "name": "USPS COLLECTION BOX - BLUE BOX", "address": {"city": "LUFKIN", "state": "TX", "street": "800 S JOHN REDDITT DR", "postcode": "75904"}}},
{"geometry": {"type": "Point", "coordinates": [-94.7557726565, 31.3250046983]}, "type": "Feature", "properties": {"collection_times": [{"days": "Mon-Sat", "time": "5:00pm"}, {"days": "Sun", "time": "Closed"}], "id": "7590400009", "name": "USPS COLLECTION BOX - BLUE BOX", "address": {"city": "LUFKIN", "state": "TX", "street": "800 S JOHN REDDITT DR", "postcode": "75904"}}},
{"geometry": {"type": "Point", "coordinates": [-94.7463249281, 31.353101114]}, "type": "Feature", "properties": {"collection_times": [{"days": "Mon-Fri", "time": "5:00pm"}, {"days": "Sat", "time": "2:30pm"}, {"days": "Sun", "time": "Closed"}], "id": "7590400010", "name": "USPS COLLECTION BOX - BLUE BOX", "address": {"city": "LUFKIN", "state": "TX", "street": "1908 N RAGUET ST", "postcode": "75904"}}},
{"geometry": {"type": "Point", "coordinates": [-94.7463249281, 31.353101114]}, "type": "Feature", "properties": {"collection_times": [{"days": "Mon-Fri", "time": "5:00pm"}, {"days": "Sat", "time": "2:30pm"}, {"days": "Sun", "time": "Closed"}], "id": "7590400011", "name": "USPS COLLECTION BOX - BLUE BOX", "address": {"city": "LUFKIN", "state": "TX", "street": "1908 N RAGUET ST", "postcode": "75904"}}},
{"geometry": {"type": "Point", "coordinates": [-94.7463249281, 31.353101114]}, "type": "Feature", "properties": {"collection_times": [{"days": "Mon-Fri", "time": "4:00pm"}, {"days": "Sat-Sun", "time": "Closed"}], "id": "7590400012", "name": "USPS COLLECTION BOX - PO LOBBY", "address": {"city": "LUFKIN", "state": "TX", "street": "1908 N RAGUET ST", "postcode": "75904"}}},
{"geometry": {"type": "Point", "coordinates": [-94.7463249281, 31.353101114]}, "type": "Feature", "properties": {"collection_times": [{"days": "Mon-Fri", "time": "4:00pm"}, {"days": "Sat-Sun", "time": "Closed"}], "id": "7590400013", "name": "USPS COLLECTION BOX - PO LOBBY", "address": {"city": "LUFKIN", "state": "TX", "street": "1908 N RAGUET ST", "postcode": "75904"}}},
{"geometry": {"type": "Point", "coordinates": [-94.7403332172, 31.329156696]}, "type": "Feature", "properties": {"collection_times": [{"days": "Mon-Sat", "time": "3:00pm"}, {"days": "Sun", "time": "Closed"}], "id": "7590400027", "name": "USPS COLLECTION BOX - BLUE BOX", "address": {"city": "LUFKIN", "state": "TX", "street": "701 SOUTHWOOD DR", "postcode": "75904"}}},
{"geometry": {"type": "Point", "coordinates": [-94.7424303627, 31.3372854594]}, "type": "Feature", "properties": {"collection_times": [{"days": "Mon-Sat", "time": "11:00am"}, {"days": "Sun", "time": "Closed"}], "id": "7590400033", "name": "USPS COLLECTION BOX - BLUE BOX", "address": {"city": "LUFKIN", "state": "TX", "street": "1201 W FRANK AVE", "postcode": "75904"}}},
{"geometry": {"type": "Point", "coordinates": [-94.7557726565, 31.3250046983]}, "type": "Feature", "properties": {"collection_times": [{"days": "Mon-Sat", "time": "5:00pm"}, {"days": "Sun", "time": "Closed"}], "id": "7590400040", "name": "USPS COLLECTION BOX - BLUE BOX", "address": {"city": "LUFKIN", "state": "TX", "street": "800 S JOHN REDDITT DR", "postcode": "75904"}}},
{"geometry": {"type": "Point", "coordinates": [-94.7557726565, 31.3250046983]}, "type": "Feature", "properties": {"collection_times": [{"days": "Mon-Sat", "time": "5:00pm"}, {"days": "Sun", "time": "Closed"}], "id": "7590400041", "name": "USPS COLLECTION BOX - BLUE BOX", "address": {"city": "LUFKIN", "state": "TX", "street": "800 S JOHN REDDITT DR", "postcode": "75904"}}},
{"geometry": {"type": "Point", "coordinates": [-94.7557726565, 31.3250046983]}, "type": "Feature", "properties": {"collection_times": [{"days": "Mon-Sat", "time": "5:00pm"}, {"days": "Sun", "time": "Closed"}], "id": "7590400042", "name": "USPS COLLECTION BOX - PO LOBBY", "address": {"city": "LUFKIN", "state": "TX", "street": "800 S JOHN REDDITT DR", "postcode": "75904"}}},
{"geometry": {"type": "Point", "coordinates": [-94.7557726565, 31.3250046983]}, "type": "Feature", "properties": {"collection_times": [{"days": "Mon-Sat", "time": "5:00pm"}, {"days": "Sun", "time": "Closed"}], "id": "7590400043", "name": "USPS COLLECTION BOX - PO LOBBY", "address": {"city": "LUFKIN", "state": "TX", "street": "800 S JOHN REDDITT DR", "postcode": "75904"}}},
{"geometry": {"type": "Point", "coordinates": [-95.0732153345, 31.6494858286]}, "type": "Feature", "properties": {"collection_times": [{"days": "Mon-Fri", "time": "4:00pm"}, {"days": "Sat", "time": "9:00am"}, {"days": "Sun", "time": "Closed"}], "id": "7592500001", "name": "USPS COLLECTION BOX - PO LOBBY", "address": {"city": "ALTO", "state": "TX", "street": "201 COOPER ST", "postcode": "75925"}}},
{"geometry": {"type": "Point", "coordinates": [-95.0732153345, 31.6494858286]}, "type": "Feature", "properties": {"collection_times": [{"days": "Mon-Fri", "time": "4:00pm"}, {"days": "Sat", "time": "9:00am"}, {"days": "Sun", "time": "Closed"}], "id": "7592500003", "name": "USPS COLLECTION BOX - BLUE BOX", "address": {"city": "ALTO", "state": "TX", "street": "201 COOPER ST", "postcode": "75925"}}},
{"geometry": {"type": "Point", "coordinates": [-94.9715209474, 31.2618103514]}, "type": "Feature", "properties": {"collection_times": [{"days": "Mon-Fri", "time": "3:00pm"}, {"days": "Sat", "time": "9:00am"}, {"days": "Sun", "time": "Closed"}], "id": "7592600000", "name": "USPS COLLECTION BOX - BLUE BOX", "address": {"city": "APPLE SPRINGS", "state": "TX", "street": "15799 N STATE HIGHWAY 94", "postcode": "75926"}}},
{"geometry": {"type": "Point", "coordinates": [-94.9715209474, 31.2618103514]}, "type": "Feature", "properties": {"collection_times": [{"days": "Mon-Fri", "time": "2:30pm"}, {"days": "Sat", "time": "9:00am"}, {"days": "Sun", "time": "Closed"}], "id": "7592600001", "name": "USPS COLLECTION BOX - PO LOBBY", "address": {"city": "APPLE SPRINGS", "state": "TX", "street": "15799 N STATE HIGHWAY 94", "postcode": "75926"}}},
{"geometry": {"type": "Point", "coordinates": [-93.7579361172, 30.681914107]}, "type": "Feature", "properties": {"collection_times": [{"days": "Mon-Sat", "time": "2:45pm"}, {"days": "Sun", "time": "Closed"}], "id": "7592800000", "name": "USPS COLLECTION BOX - BLUE BOX", "address": {"city": "BON WIER", "state": "TX", "street": "10735 US HIGHWAY 190 E", "postcode": "75928"}}},
{"geometry": {"type": "Point", "coordinates": [-93.7579361172, 30.681914107]}, "type": "Feature", "properties": {"collection_times": [{"days": "Mon-Fri", "time": "11:30am"}, {"days": "Sat", "time": "8:15am"}, {"days": "Sun", "time": "Closed"}], "id": "7592800001", "name": "USPS COLLECTION BOX - PO LOBBY", "address": {"city": "BON WIER", "state": "TX", "street": "10735 US HIGHWAY 190 E", "postcode": "75928"}}},
{"geometry": {"type": "Point", "coordinates": [-94.1938940528, 31.2665032043]}, "type": "Feature", "properties": {"collection_times": [{"days": "Mon-Fri", "time": "3:30pm"}, {"days": "Sat", "time": "8:00am"}, {"days": "Sun", "time": "Closed"}], "id": "7592900000", "name": "USPS COLLECTION BOX - BLUE BOX", "address": {"city": "BROADDUS", "state": "TX", "street": "506 STATE HIGHWAY 147", "postcode": "75929"}}},
{"geometry": {"type": "Point", "coordinates": [-94.1938940528, 31.2665032043]}, "type": "Feature", "properties": {"collection_times": [{"days": "Mon-Fri", "time": "3:30pm"}, {"days": "Sat", "time": "8:00am"}, {"days": "Sun", "time": "Closed"}], "id": "7592900002", "name": "USPS COLLECTION BOX - PO LOBBY", "address": {"city": "BROADDUS", "state": "TX", "street": "506 STATE HIGHWAY 147", "postcode": "75929"}}},
{"geometry": {"type": "Point", "coordinates": [-93.9771831356, 31.3550536302]}, "type": "Feature", "properties": {"collection_times": [{"days": "Mon-Fri", "time": "3:00pm"}, {"days": "Sat", "time": "7:30am"}, {"days": "Sun", "time": "Closed"}], "id": "7593000000", "name": "USPS COLLECTION BOX - BLUE BOX", "address": {"city": "BRONSON", "state": "TX", "street": "10850 US HIGHWAY 96 N", "postcode": "75930"}}},
{"geometry": {"type": "Point", "coordinates": [-93.9965029702, 31.1016438362]}, "type": "Feature", "properties": {"collection_times": [{"days": "Mon-Fri", "time": "3:00pm"}, {"days": "Sat", "time": "9:30am"}, {"days": "Sun", "time": "Closed"}], "id": "7593100000", "name": "USPS COLLECTION BOX - BLUE BOX", "address": {"city": "BROOKELAND", "state": "TX", "street": "15674 US HIGHWAY 96 N", "postcode": "75931"}}},
{"geometry": {"type": "Point", "coordinates": [-93.9965029702, 31.1016438362]}, "type": "Feature", "properties": {"collection_times": [{"days": "Mon-Fri", "time": "3:00pm"}, {"days": "Sat", "time": "9:30am"}, {"days": "Sun", "time": "Closed"}], "id": "7593100002", "name": "USPS COLLECTION BOX - PO LOBBY", "address": {"city": "BROOKELAND", "state": "TX", "street": "15674 US HIGHWAY 96 N", "postcode": "75931"}}},
{"geometry": {"type": "Point", "coordinates": [-93.6357855466, 31.0043356914]}, "type": "Feature", "properties": {"collection_times": [{"days": "Mon-Fri", "time": "3:00pm"}, {"days": "Sat", "time": "9:00am"}, {"days": "Sun", "time": "Closed"}], "id": "7593200000", "name": "USPS COLLECTION BOX - BLUE BOX", "address": {"city": "BURKEVILLE", "state": "TX", "street": "147 STATE HIGHWAY 63 E", "postcode": "75932"}}},
{"geometry": {"type": "Point", "coordinates": [-93.6357855466, 31.0043356914]}, "type": "Feature", "properties": {"collection_times": [{"days": "Mon-Fri", "time": "2:30pm"}, {"days": "Sat", "time": "9:00am"}, {"days": "Sun", "time": "Closed"}], "id": "7593200002", "name": "USPS COLLECTION BOX - PO LOBBY", "address": {"city": "BURKEVILLE", "state": "TX", "street": "147 STATE HIGHWAY 63 E", "postcode": "75932"}}},
{"geometry": {"type": "Point", "coordinates": [-93.8771200426, 30.6146775827]}, "type": "Feature", "properties": {"collection_times": [{"days": "Mon-Fri", "time": "3:00pm"}, {"days": "Sat", "time": "9:00am"}, {"days": "Sun", "time": "Closed"}], "id": "7593300000", "name": "USPS COLLECTION BOX - BLUE BOX", "address": {"city": "CALL", "state": "TX", "street": "676 FM 1013 S", "postcode": "75933"}}},
{"geometry": {"type": "Point", "coordinates": [-93.8771200426, 30.6146775827]}, "type": "Feature", "properties": {"collection_times": [{"days": "Mon-Fri", "time": "2:00pm"}, {"days": "Sat", "time": "9:00am"}, {"days": "Sun", "time": "Closed"}], "id": "7593300002", "name": "USPS COLLECTION BOX - PO LOBBY", "address": {"city": "CALL", "state": "TX", "street": "676 FM 1013 S", "postcode": "75933"}}},
{"geometry": {"type": "Point", "coordinates": [-94.7343933496, 30.917242991]}, "type": "Feature", "properties": {"collection_times": [{"days": "Mon-Fri", "time": "4:00pm"}, {"days": "Sat", "time": "9:30am"}, {"days": "Sun", "time": "Closed"}], "id": "7593400000", "name": "USPS COLLECTION BOX - BLUE BOX", "address": {"city": "CAMDEN", "state": "TX", "street": "242 POST OFFICE RD", "postcode": "75934"}}},
{"geometry": {"type": "Point", "coordinates": [-94.7343933496, 30.917242991]}, "type": "Feature", "properties": {"collection_times": [{"days": "Mon-Fri", "time": "3:30pm"}, {"days": "Sat", "time": "9:30am"}, {"days": "Sun", "time": "Closed"}], "id": "7593400001", "name": "USPS COLLECTION BOX - PO LOBBY", "address": {"city": "CAMDEN", "state": "TX", "street": "242 POST OFFICE RD", "postcode": "75934"}}},
{"geometry": {"type": "Point", "coordinates": [-94.1749061157, 31.7936747484]}, "type": "Feature", "properties": {"collection_times": [{"days": "Mon-Fri", "time": "2:00pm"}, {"days": "Sat-Sun", "time": "Closed"}], "id": "7593506467", "name": "USPS COLLECTION BOX - BLUE BOX", "address": {"city": "CENTER", "state": "TX", "street": "700 SHELBYVILLE ST", "postcode": "75935"}}},
{"geometry": {"type": "Point", "coordinates": [-94.185601364, 31.7906942058]}, "type": "Feature", "properties": {"collection_times": [{"days": "Mon-Sat", "time": "1:00pm"}, {"days": "Sun", "time": "Closed"}], "id": "7593506468", "name": "USPS COLLECTION BOX - BLUE BOX", "address": {"city": "CENTER", "state": "TX", "street": "105 HURST ST", "postcode": "75935"}}},
{"geometry": {"type": "Point", "coordinates": [-94.1806690733, 31.7962351659]}, "type": "Feature", "properties": {"collection_times": [{"days": "Mon-Fri", "time": "4:00pm"}, {"days": "Sat", "time": "3:30pm"}, {"days": "Sun", "time": "Closed"}], "id": "7593506469", "name": "USPS COLLECTION BOX - BLUE BOX", "address": {"city": "CENTER", "state": "TX", "street": "101 WEAVER ST", "postcode": "75935"}}},
{"geometry": {"type": "Point", "coordinates": [-94.1857585874, 31.8012918807]}, "type": "Feature", "properties": {"collection_times": [{"days": "Mon-Fri", "time": "10:30am"}, {"days": "Sat-Sun", "time": "Closed"}], "id": "7593506475", "name": "USPS COLLECTION BOX - BLUE BOX", "address": {"city": "CENTER", "state": "TX", "street": "1233 TENAHA ST", "postcode": "75935"}}},
{"geometry": {"type": "Point", "coordinates": [-94.1806690733, 31.7962351659]}, "type": "Feature", "properties": {"collection_times": [{"days": "Mon-Fri", "time": "4:00pm"}, {"days": "Sat", "time": "3:30pm"}, {"days": "Sun", "time": "Closed"}], "id": "7593506562", "name": "USPS COLLECTION BOX - BLUE BOX", "address": {"city": "CENTER", "state": "TX", "street": "101 WEAVER ST", "postcode": "75935"}}},
{"geometry": {"type": "Point", "coordinates": [-94.1806690733, 31.7962351659]}, "type": "Feature", "properties": {"collection_times": [{"days": "Mon-Fri", "time": "4:00pm"}, {"days": "Sat", "time": "3:30pm"}, {"days": "Sun", "time": "Closed"}], "id": "7593506565", "name": "USPS COLLECTION BOX - PO LOBBY", "address": {"city": "CENTER", "state": "TX", "street": "101 WEAVER ST", "postcode": "75935"}}},
{"geometry": {"type": "Point", "coordinates": [-94.1806690733, 31.7962351659]}, "type": "Feature", "properties": {"collection_times": [{"days": "Mon-Fri", "time": "4:00pm"}, {"days": "Sat", "time": "3:30pm"}, {"days": "Sun", "time": "Closed"}], "id": "7593506566", "name": "USPS COLLECTION BOX - PO LOBBY", "address": {"city": "CENTER", "state": "TX", "street": "101 WEAVER ST", "postcode": "75935"}}},
{"geometry": {"type": "Point", "coordinates": [-94.5409818859, 30.9662501284]}, "type": "Feature", "properties": {"collection_times": [{"days": "Mon-Fri", "time": "3:30pm"}, {"days": "Sat", "time": "9:00am"}, {"days": "Sun", "time": "Closed"}], "id": "7593600000", "name": "USPS COLLECTION BOX - BLUE BOX", "address": {"city": "CHESTER", "state": "TX", "street": "13884 MAIN ST", "postcode": "75936"}}},
{"geometry": {"type": "Point", "coordinates": [-94.5409818859, 30.9662501284]}, "type": "Feature", "properties": {"collection_times": [{"days": "Mon-Fri", "time": "2:00pm"}, {"days": "Sat-Sun", "time": "Closed"}], "id": "7593600001", "name": "USPS COLLECTION BOX - PO LOBBY", "address": {"city": "CHESTER", "state": "TX", "street": "13884 MAIN ST", "postcode": "75936"}}},
{"geometry": {"type": "Point", "coordinates": [-94.3525259451, 31.5009193218]}, "type": "Feature", "properties": {"collection_times": [{"days": "Mon-Fri", "time": "3:30pm"}, {"days": "Sat", "time": "8:30am"}, {"days": "Sun", "time": "Closed"}], "id": "7593700000", "name": "USPS COLLECTION BOX - BLUE BOX", "address": {"city": "CHIRENO", "state": "TX", "street": "691 MAIN ST", "postcode": "75937"}}},
{"geometry": {"type": "Point", "coordinates": [-94.3525259451, 31.5009193218]}, "type": "Feature", "properties": {"collection_times": [{"days": "Mon-Fri", "time": "2:30pm"}, {"days": "Sat", "time": "8:30am"}, {"days": "Sun", "time": "Closed"}], "id": "7593700001", "name": "USPS COLLECTION BOX - PO LOBBY", "address": {"city": "CHIRENO", "state": "TX", "street": "691 MAIN ST", "postcode": "75937"}}},
{"geometry": {"type": "Point", "coordinates": [-94.3525259451, 31.5009193218]}, "type": "Feature", "properties": {"collection_times": [{"days": "Mon-Fri", "time": "2:30pm"}, {"days": "Sat", "time": "8:30am"}, {"days": "Sun", "time": "Closed"}], "id": "7593700002", "name": "USPS COLLECTION BOX - PO LOBBY", "address": {"city": "CHIRENO", "state": "TX", "street": "691 MAIN ST", "postcode": "75937"}}},
{"geometry": {"type": "Point", "coordinates": [-94.3525259451, 31.5009193218]}, "type": "Feature", "properties": {"collection_times": [{"days": "Mon-Fri", "time": "3:30pm"}, {"days": "Sat", "time": "8:30am"}, {"days": "Sun", "time": "Closed"}], "id": "7593700003", "name": "USPS COLLECTION BOX - BLUE BOX", "address": {"city": "CHIRENO", "state": "TX", "street": "691 MAIN ST", "postcode": "75937"}}},
{"geometry": {"type": "Point", "coordinates": [-94.4226240741, 30.9099023173]}, "type": "Feature", "properties": {"collection_times": [{"days": "Mon-Fri", "time": "4:00pm"}, {"days": "Sat", "time": "8:00am"}, {"days": "Sun", "time": "Closed"}], "id": "7593800002", "name": "USPS COLLECTION BOX - PO LOBBY", "address": {"city": "COLMESNEIL", "state": "TX", "street": "605 N WHEELER RD", "postcode": "75938"}}},
{"geometry": {"type": "Point", "coordinates": [-94.4226240741, 30.9099023173]}, "type": "Feature", "properties": {"collection_times": [{"days": "Mon-Fri", "time": "12:00pm"}, {"days": "Sat", "time": "11:00am"}, {"days": "Sun", "time": "Closed"}], "id": "7593800003", "name": "USPS COLLECTION BOX - BLUE BOX", "address": {"city": "COLMESNEIL", "state": "TX", "street": "605 N WHEELER RD", "postcode": "75938"}}},
{"geometry": {"type": "Point", "coordinates": [-94.8253923067, 31.0019189807]}, "type": "Feature", "properties": {"collection_times": [{"days": "Mon-Fri", "time": "4:00pm"}, {"days": "Sat", "time": "11:00am"}, {"days": "Sun", "time": "Closed"}], "id": "7593900001", "name": "USPS COLLECTION BOX - BLUE BOX", "address": {"city": "CORRIGAN", "state": "TX", "street": "502 N HOME ST", "postcode": "75939"}}},
{"geometry": {"type": "Point", "coordinates": [-94.8253923067, 31.0019189807]}, "type": "Feature", "properties": {"collection_times": [{"days": "Mon-Fri", "time": "4:00pm"}, {"days": "Sat", "time": "11:00am"}, {"days": "Sun", "time": "Closed"}], "id": "7593900002", "name": "USPS COLLECTION BOX - PO LOBBY", "address": {"city": "CORRIGAN", "state": "TX", "street": "502 N HOME ST", "postcode": "75939"}}},
{"geometry": {"type": "Point", "coordinates": [-94.8253923067, 31.0019189807]}, "type": "Feature", "properties": {"collection_times": [{"days": "Mon-Fri", "time": "4:00pm"}, {"days": "Sat", "time": "11:00am"}, {"days": "Sun", "time": "Closed"}], "id": "7593900003", "name": "USPS COLLECTION BOX - PO LOBBY", "address": {"city": "CORRIGAN", "state": "TX", "street": "502 N HOME ST", "postcode": "75939"}}},
{"geometry": {"type": "Point", "coordinates": [-94.7766653983, 31.2126625498]}, "type": "Feature", "properties": {"collection_times": [{"days": "Mon-Fri", "time": "3:00pm"}, {"days": "Sat", "time": "8:00am"}, {"days": "Sun", "time": "Closed"}], "id": "7594106462", "name": "USPS COLLECTION BOX - PO LOBBY", "address": {"city": "DIBOLL", "state": "TX", "street": "302 N HENDRIX AVE", "postcode": "75941"}}},
{"geometry": {"type": "Point", "coordinates": [-94.7766653983, 31.2126625498]}, "type": "Feature", "properties": {"collection_times": [{"days": "Mon-Fri", "time": "3:00pm"}, {"days": "Sat", "time": "8:00am"}, {"days": "Sun", "time": "Closed"}], "id": "7594106463", "name": "USPS COLLECTION BOX - BLUE BOX", "address": {"city": "DIBOLL", "state": "TX", "street": "302 N HENDRIX AVE", "postcode": "75941"}}},
{"geometry": {"type": "Point", "coordinates": [-94.7766653983, 31.2126625498]}, "type": "Feature", "properties": {"collection_times": [{"days": "Mon-Fri", "time": "3:00pm"}, {"days": "Sat", "time": "8:00am"}, {"days": "Sun", "time": "Closed"}], "id": "7594106467", "name": "USPS COLLECTION BOX - BLUE BOX", "address": {"city": "DIBOLL", "state": "TX", "street": "302 N HENDRIX AVE", "postcode": "75941"}}},
{"geometry": {"type": "Point", "coordinates": [-94.4288038052, 30.8218955296]}, "type": "Feature", "properties": {"collection_times": [{"days": "Mon-Fri", "time": "3:30pm"}, {"days": "Sat", "time": "8:30am"}, {"days": "Sun", "time": "Closed"}], "id": "7594200000", "name": "USPS COLLECTION BOX - BLUE BOX", "address": {"city": "DOUCETTE", "state": "TX", "street": "100 US HIGHWAY 69", "postcode": "75942"}}},
{"geometry": {"type": "Point", "coordinates": [-94.4288038052, 30.8218955296]}, "type": "Feature", "properties": {"collection_times": [{"days": "Mon-Fri", "time": "12:30pm"}, {"days": "Sat", "time": "8:30am"}, {"days": "Sun", "time": "Closed"}], "id": "7594200001", "name": "USPS COLLECTION BOX - PO LOBBY", "address": {"city": "DOUCETTE", "state": "TX", "street": "100 US HIGHWAY 69", "postcode": "75942"}}},
{"geometry": {"type": "Point", "coordinates": [-94.4288038052, 30.8218955296]}, "type": "Feature", "properties": {"collection_times": [{"days": "Mon-Fri", "time": "12:30pm"}, {"days": "Sat", "time": "8:30am"}, {"days": "Sun", "time": "Closed"}], "id": "7594200002", "name": "USPS COLLECTION BOX - PO LOBBY", "address": {"city": "DOUCETTE", "state": "TX", "street": "100 US HIGHWAY 69", "postcode": "75942"}}},
{"geometry": {"type": "Point", "coordinates": [-94.8866347261, 31.6650575537]}, "type": "Feature", "properties": {"collection_times": [{"days": "Mon-Fri", "time": "3:45pm"}, {"days": "Sat", "time": "9:00am"}, {"days": "Sun", "time": "Closed"}], "id": "7594300000", "name": "USPS COLLECTION BOX - BLUE BOX", "address": {"city": "DOUGLASS", "state": "TX", "street": "15614 W STATE HIGHWAY 21", "postcode": "75943"}}},
{"geometry": {"type": "Point", "coordinates": [-94.8866347261, 31.6650575537]}, "type": "Feature", "properties": {"collection_times": [{"days": "Mon-Fri", "time": "2:00pm"}, {"days": "Sat", "time": "9:00am"}, {"days": "Sun", "time": "Closed"}], "id": "7594300001", "name": "USPS COLLECTION BOX - PO LOBBY", "address": {"city": "DOUGLASS", "state": "TX", "street": "15614 W STAT HIGHWAY 21", "postcode": "75943"}}},
{"geometry": {"type": "Point", "coordinates": [-94.3780874634, 31.3266947614]}, "type": "Feature", "properties": {"collection_times": [{"days": "Mon-Fri", "time": "2:30pm"}, {"days": "Sat", "time": "7:30am"}, {"days": "Sun", "time": "Closed"}], "id": "7594400000", "name": "USPS COLLECTION BOX - BLUE BOX", "address": {"city": "ETOILE", "state": "TX", "street": "2506 STATE HIGHWAY 103 STE A", "postcode": "75944"}}},
{"geometry": {"type": "Point", "coordinates": [-94.3780874634, 31.3266947614]}, "type": "Feature", "properties": {"collection_times": [{"days": "Mon-Fri", "time": "2:00pm"}, {"days": "Sat", "time": "7:30am"}, {"days": "Sun", "time": "Closed"}], "id": "7594400001", "name": "USPS COLLECTION BOX - PO LOBBY", "address": {"city": "ETOILE", "state": "TX", "street": "2506 STATE HIGHWAY 103 STE A", "postcode": "75944"}}},
{"geometry": {"type": "Point", "coordinates": [-94.4916259594, 31.8248778863]}, "type": "Feature", "properties": {"collection_times": [{"days": "Mon-Fri", "time": "4:00pm"}, {"days": "Sat", "time": "9:00am"}, {"days": "Sun", "time": "Closed"}], "id": "7594600000", "name": "USPS COLLECTION BOX - BLUE BOX", "address": {"city": "GARRISON", "state": "TX", "street": "222 N B AVE", "postcode": "75946"}}},
{"geometry": {"type": "Point", "coordinates": [-94.4916259594, 31.8248778863]}, "type": "Feature", "properties": {"collection_times": [{"days": "Mon-Fri", "time": "4:00pm"}, {"days": "Sat", "time": "9:00am"}, {"days": "Sun", "time": "Closed"}], "id": "7594600002", "name": "USPS COLLECTION BOX - PO LOBBY", "address": {"city": "GARRISON", "state": "TX", "street": "222 N B AVE", "postcode": "75946"}}},
{"geometry": {"type": "Point", "coordinates": [-94.4916259594, 31.8248778863]}, "type": "Feature", "properties": {"collection_times": [{"days": "Mon-Fri", "time": "4:00pm"}, {"days": "Sat", "time": "9:00am"}, {"days": "Sun", "time": "Closed"}], "id": "7594600003", "name": "USPS COLLECTION BOX - PO LOBBY", "address": {"city": "GARRISON", "state": "TX", "street": "222 N B AVE", "postcode": "75946"}}},
{"geometry": {"type": "Point", "coordinates": [-93.7790106213, 31.2794238232]}, "type": "Feature", "properties": {"collection_times": [{"days": "Mon-Fri", "time": "3:15pm"}, {"days": "Sat", "time": "10:00am"}, {"days": "Sun", "time": "Closed"}], "id": "7594806524", "name": "USPS COLLECTION BOX - BLUE BOX", "address": {"city": "HEMPHILL", "state": "TX", "street": "255 N TEXAS ST", "postcode": "75948"}}},
{"geometry": {"type": "Point", "coordinates": [-93.7790106213, 31.2794238232]}, "type": "Feature", "properties": {"collection_times": [{"days": "Mon-Fri", "time": "3:15pm"}, {"days": "Sat-Sun", "time": "Closed"}], "id": "7594806526", "name": "USPS COLLECTION BOX - PO LOBBY", "address": {"city": "HEMPHILL", "state": "TX", "street": "255 N TEXAS ST", "postcode": "75948"}}},
{"geometry": {"type": "Point", "coordinates": [-94.5304680768, 31.2444156805]}, "type": "Feature", "properties": {"collection_times": [{"days": "Mon-Fri", "time": "3:30pm"}, {"days": "Sat", "time": "9:00am"}, {"days": "Sun", "time": "Closed"}], "id": "7594900000", "name": "USPS COLLECTION BOX - BLUE BOX", "address": {"city": "HUNTINGTON", "state": "TX", "street": "260 S US HIGHWAY 69", "postcode": "75949"}}},
{"geometry": {"type": "Point", "coordinates": [-94.5304680768, 31.2444156805]}, "type": "Feature", "properties": {"collection_times": [{"days": "Mon-Fri", "time": "3:30pm"}, {"days": "Sat", "time": "9:00am"}, {"days": "Sun", "time": "Closed"}], "id": "7594900002", "name": "USPS COLLECTION BOX - BLUE BOX", "address": {"city": "HUNTINGTON", "state": "TX", "street": "260 S US HIGHWAY 69", "postcode": "75949"}}},
{"geometry": {"type": "Point", "coordinates": [-94.5304680768, 31.2444156805]}, "type": "Feature", "properties": {"collection_times": [{"days": "Mon-Fri", "time": "4:00pm"}, {"days": "Sat", "time": "9:00am"}, {"days": "Sun", "time": "Closed"}], "id": "7594900003", "name": "USPS COLLECTION BOX - PO LOBBY", "address": {"city": "HUNTINGTON", "state": "TX", "street": "260 S US HIGHWAY 69", "postcode": "75949"}}},
{"geometry": {"type": "Point", "coordinates": [-94.5304680768, 31.2444156805]}, "type": "Feature", "properties": {"collection_times": [{"days": "Mon-Fri", "time": "4:00pm"}, {"days": "Sat", "time": "9:00am"}, {"days": "Sun", "time": "Closed"}], "id": "7594900004", "name": "USPS COLLECTION BOX - PO LOBBY", "address": {"city": "HUNTINGTON", "state": "TX", "street": "260 S US HIGHWAY 69", "postcode": "75949"}}},
{"geometry": {"type": "Point", "coordinates": [-93.9960017204, 30.9125977525]}, "type": "Feature", "properties": {"collection_times": [{"days": "Mon-Fri", "time": "1:00pm"}, {"days": "Sat-Sun", "time": "Closed"}], "id": "7595106699", "name": "USPS COLLECTION BOX - BLUE BOX", "address": {"city": "JASPER", "state": "TX", "street": "1000 S WHEELER ST", "postcode": "75951"}}},
{"geometry": {"type": "Point", "coordinates": [-94.0019434844, 30.9219713772]}, "type": "Feature", "properties": {"collection_times": [{"days": "Mon-Sat", "time": "3:30pm"}, {"days": "Sun", "time": "Closed"}], "id": "7595106701", "name": "USPS COLLECTION BOX - BLUE BOX", "address": {"city": "JASPER", "state": "TX", "street": "215 N BOWIE ST", "postcode": "75951"}}},
{"geometry": {"type": "Point", "coordinates": [-94.0019434844, 30.9219713772]}, "type": "Feature", "properties": {"collection_times": [{"days": "Mon-Sat", "time": "3:30pm"}, {"days": "Sun", "time": "Closed"}], "id": "7595106702", "name": "USPS COLLECTION BOX - BLUE BOX", "address": {"city": "JASPER", "state": "TX", "street": "215 N BOWIE ST", "postcode": "75951"}}},
{"geometry": {"type": "Point", "coordinates": [-94.0019434844, 30.9219713772]}, "type": "Feature", "properties": {"collection_times": [{"days": "Mon-Fri", "time": "4:00pm"}, {"days": "Sat", "time": "3:30pm"}, {"days": "Sun", "time": "Closed"}], "id": "7595106768", "name": "USPS COLLECTION BOX - PO LOBBY", "address": {"city": "JASPER", "state": "TX", "street": "215 N BOWIE ST", "postcode": "75951"}}},
{"geometry": {"type": "Point", "coordinates": [-94.0019434844, 30.9219713772]}, "type": "Feature", "properties": {"collection_times": [{"days": "Mon-Fri", "time": "4:00pm"}, {"days": "Sat", "time": "3:30pm"}, {"days": "Sun", "time": "Closed"}], "id": "7595106769", "name": "USPS COLLECTION BOX - PO LOBBY", "address": {"city": "JASPER", "state": "TX", "street": "215 N BOWIE ST", "postcode": "75951"}}},
{"geometry": {"type": "Point", "coordinates": [-94.0019434844, 30.9219713772]}, "type": "Feature", "properties": {"collection_times": [{"days": "Mon-Sat", "time": "3:30pm"}, {"days": "Sun", "time": "Closed"}], "id": "7595106771", "name": "USPS COLLECTION BOX - BLUE BOX", "address": {"city": "JASPER", "state": "TX", "street": "215 N BOWIE ST", "postcode": "75951"}}},
{"geometry": {"type": "Point", "coordinates": [-94.0129454379, 30.9065558068]}, "type": "Feature", "properties": {"collection_times": [{"days": "Mon-Fri", "time": "1:00pm"}, {"days": "Sat-Sun", "time": "Closed"}], "id": "7595106772", "name": "USPS COLLECTION BOX - BLUE BOX", "address": {"city": "JASPER", "state": "TX", "street": "800 W GIBSON ST", "postcode": "75951"}}},
{"geometry": {"type": "Point", "coordinates": [-94.0481371392, 31.9138981031]}, "type": "Feature", "properties": {"collection_times": [{"days": "Mon-Fri", "time": "3:30pm"}, {"days": "Sat", "time": "10:00am"}, {"days": "Sun", "time": "Closed"}], "id": "7595400000", "name": "USPS COLLECTION BOX - BLUE BOX", "address": {"city": "JOAQUIN", "state": "TX", "street": "209 84TH ST", "postcode": "75954"}}},
{"geometry": {"type": "Point", "coordinates": [-94.0481371392, 31.9138981031]}, "type": "Feature", "properties": {"collection_times": [{"days": "Mon-Fri", "time": "3:30pm"}, {"days": "Sat", "time": "10:00am"}, {"days": "Sun", "time": "Closed"}], "id": "7595400002", "name": "USPS COLLECTION BOX - PO LOBBY", "address": {"city": "JOAQUIN", "state": "TX", "street": "209 84TH ST", "postcode": "75954"}}},
{"geometry": {"type": "Point", "coordinates": [-93.891597215, 30.6595311691]}, "type": "Feature", "properties": {"collection_times": [{"days": "Mon-Fri", "time": "3:00pm"}, {"days": "Sat", "time": "9:00am"}, {"days": "Sun", "time": "Closed"}], "id": "7595606384", "name": "USPS COLLECTION BOX - BLUE BOX", "address": {"city": "KIRBYVILLE", "state": "TX", "street": "301 E LAVIELLE ST", "postcode": "75956"}}},
{"geometry": {"type": "Point", "coordinates": [-93.8960492085, 30.6518772689]}, "type": "Feature", "properties": {"collection_times": [{"days": "Mon-Fri", "time": "9:00am"}, {"days": "Sat-Sun", "time": "Closed"}], "id": "7595606387", "name": "USPS COLLECTION BOX - BLUE BOX", "address": {"city": "KIRBYVILLE", "state": "TX", "street": "1005 S MARGARET AVE", "postcode": "75956"}}},
{"geometry": {"type": "Point", "coordinates": [-93.891597215, 30.6595311691]}, "type": "Feature", "properties": {"collection_times": [{"days": "Mon-Fri", "time": "3:00pm"}, {"days": "Sat", "time": "9:00am"}, {"days": "Sun", "time": "Closed"}], "id": "7595606461", "name": "USPS COLLECTION BOX - PO LOBBY", "address": {"city": "KIRBYVILLE", "state": "TX", "street": "301 E LAVIELLE ST", "postcode": "75956"}}},
{"geometry": {"type": "Point", "coordinates": [-94.4131012892, 31.6428876243]}, "type": "Feature", "properties": {"collection_times": [{"days": "Mon-Fri", "time": "3:15pm"}, {"days": "Sat", "time": "8:45am"}, {"days": "Sun", "time": "Closed"}], "id": "7595800000", "name": "USPS COLLECTION BOX - BLUE BOX", "address": {"city": "MARTINSVILLE", "state": "TX", "street": "10990 FM 95", "postcode": "75958"}}},
{"geometry": {"type": "Point", "coordinates": [-94.4131012892, 31.6428876243]}, "type": "Feature", "properties": {"collection_times": [{"days": "Mon-Fri", "time": "12:30pm"}, {"days": "Sat", "time": "8:45am"}, {"days": "Sun", "time": "Closed"}], "id": "7595800001", "name": "USPS COLLECTION BOX - PO LOBBY", "address": {"city": "MARTINSVILLE", "state": "TX", "street": "10990 FM 95", "postcode": "75958"}}},
{"geometry": {"type": "Point", "coordinates": [-94.4131012892, 31.6428876243]}, "type": "Feature", "properties": {"collection_times": [{"days": "Mon-Fri", "time": "12:30pm"}, {"days": "Sat", "time": "8:45am"}, {"days": "Sun", "time": "Closed"}], "id": "7595800002", "name": "USPS COLLECTION BOX - PO LOBBY", "address": {"city": "MARTINSVILLE", "state": "TX", "street": "10990 FM 95", "postcode": "75958"}}},
{"geometry": {"type": "Point", "coordinates": [-93.847199292, 31.4327155053]}, "type": "Feature", "properties": {"collection_times": [{"days": "Mon-Sat", "time": "3:30pm"}, {"days": "Sun", "time": "Closed"}], "id": "7595900000", "name": "USPS COLLECTION BOX - BLUE BOX", "address": {"city": "MILAM", "state": "TX", "street": "150 STATE HIGHWAY 21", "postcode": "75959"}}},
{"geometry": {"type": "Point", "coordinates": [-93.847199292, 31.4327155053]}, "type": "Feature", "properties": {"collection_times": [{"days": "Mon-Fri", "time": "2:30pm"}, {"days": "Sat", "time": "7:00am"}, {"days": "Sun", "time": "Closed"}], "id": "7595900001", "name": "USPS COLLECTION BOX - PO LOBBY", "address": {"city": "MILAM", "state": "TX", "street": "150 STATE HIGHWAY 21", "postcode": "75959"}}},
{"geometry": {"type": "Point", "coordinates": [-94.8261352036, 30.9138424364]}, "type": "Feature", "properties": {"collection_times": [{"days": "Mon-Fri", "time": "4:30pm"}, {"days": "Sat", "time": "8:30am"}, {"days": "Sun", "time": "Closed"}], "id": "7596000000", "name": "USPS COLLECTION BOX - BLUE BOX", "address": {"city": "MOSCOW", "state": "TX", "street": "16281 US HIGHWAY 59 N", "postcode": "75960"}}},
{"geometry": {"type": "Point", "coordinates": [-94.9298010163, 30.9191837833]}, "type": "Feature", "properties": {"collection_times": [{"days": "Mon-Fri", "time": "11:30am"}, {"days": "Sat", "time": "8:30am"}, {"days": "Sun", "time": "Closed"}], "id": "7596000002", "name": "USPS COLLECTION BOX - PO LOBBY", "address": {"city": "MOSCOW", "state": "TX", "street": "16281 US HIGHWAY 59 N", "postcode": "75960"}}},
{"geometry": {"type": "Point", "coordinates": [-94.6412874276, 31.6320073506]}, "type": "Feature", "properties": {"collection_times": [{"days": "Mon-Fri", "time": "4:00pm"}, {"days": "Sat", "time": "1:30pm"}, {"days": "Sun", "time": "Closed"}], "id": "7596106950", "name": "USPS COLLECTION BOX - BLUE BOX", "address": {"city": "NACOGDOCHES", "state": "TX", "street": "917 E AUSTIN ST", "postcode": "75961"}}},
{"geometry": {"type": "Point", "coordinates": [-94.6412874276, 31.6320073506]}, "type": "Feature", "properties": {"collection_times": [{"days": "Mon-Fri", "time": "4:00pm"}, {"days": "Sat", "time": "1:30pm"}, {"days": "Sun", "time": "Closed"}], "id": "7596106951", "name": "USPS COLLECTION BOX - BLUE BOX", "address": {"city": "NACOGDOCHES", "state": "TX", "street": "917 E AUSTIN ST", "postcode": "75961"}}},
{"geometry": {"type": "Point", "coordinates": [-94.6495141239, 31.613770686]}, "type": "Feature", "properties": {"collection_times": [{"days": "Mon-Fri", "time": "3:00pm"}, {"days": "Sat", "time": "10:00am"}, {"days": "Sun", "time": "Closed"}], "id": "7596106956", "name": "USPS COLLECTION BOX - BLUE BOX", "address": {"city": "NACOGDOCHES", "state": "TX", "street": "1205 N MOUND ST", "postcode": "75961"}}},
{"geometry": {"type": "Point", "coordinates": [-94.6495141239, 31.613770686]}, "type": "Feature", "properties": {"collection_times": [{"days": "Mon-Fri", "time": "3:00pm"}, {"days": "Sat", "time": "10:00am"}, {"days": "Sun", "time": "Closed"}], "id": "7596106957", "name": "USPS COLLECTION BOX - BLUE BOX", "address": {"city": "NACOGDOCHES", "state": "TX", "street": "1205 N MOUND ST", "postcode": "75961"}}},
{"geometry": {"type": "Point", "coordinates": [-94.6629731309, 31.5953777144]}, "type": "Feature", "properties": {"collection_times": [{"days": "Mon-Fri", "time": "3:00pm"}, {"days": "Sat", "time": "1:30pm"}, {"days": "Sun", "time": "Closed"}], "id": "7596106965", "name": "USPS COLLECTION BOX - BLUE BOX", "address": {"city": "NACOGDOCHES", "state": "TX", "street": "1216 SOUTH ST", "postcode": "75961"}}},
{"geometry": {"type": "Point", "coordinates": [-94.669102972, 31.582840708]}, "type": "Feature", "properties": {"collection_times": [{"days": "Mon-Sat", "time": "2:00pm"}, {"days": "Sun", "time": "Closed"}], "id": "7596106967", "name": "USPS COLLECTION BOX - BLUE BOX", "address": {"city": "NACOGDOCHES", "state": "TX", "street": "2524 SOUTH ST", "postcode": "75961"}}},
{"geometry": {"type": "Point", "coordinates": [-94.6472685318, 31.5913241561]}, "type": "Feature", "properties": {"collection_times": [{"days": "Mon-Sat", "time": "10:00am"}, {"days": "Sun", "time": "Closed"}], "id": "7596106969", "name": "USPS COLLECTION BOX - BLUE BOX", "address": {"city": "NACOGDOCHES", "state": "TX", "street": "1115 S UNIVERSITY DR", "postcode": "75961"}}},
{"geometry": {"type": "Point", "coordinates": [-94.6399477923, 31.6114440885]}, "type": "Feature", "properties": {"collection_times": [{"days": "Mon-Fri", "time": "3:00pm"}, {"days": "Sat", "time": "1:00pm"}, {"days": "Sun", "time": "Closed"}], "id": "7596106973", "name": "USPS COLLECTION BOX - BLUE BOX", "address": {"city": "NACOGDOCHES", "state": "TX", "street": "1122 N UNIVERSITY DR", "postcode": "75961"}}},
{"geometry": {"type": "Point", "coordinates": [-94.6405470081, 31.629000996]}, "type": "Feature", "properties": {"collection_times": [{"days": "Mon-Fri", "time": "5:00pm"}, {"days": "Sat", "time": "4:30pm"}, {"days": "Sun", "time": "Closed"}], "id": "7596106975", "name": "USPS COLLECTION BOX - BLUE BOX", "address": {"city": "NACOGDOCHES", "state": "TX", "street": "3007 N UNIVERSITY DR", "postcode": "75961"}}},
{"geometry": {"type": "Point", "coordinates": [-94.6405470081, 31.629000996]}, "type": "Feature", "properties": {"collection_times": [{"days": "Mon-Fri", "time": "5:00pm"}, {"days": "Sat", "time": "4:30pm"}, {"days": "Sun", "time": "Closed"}], "id": "7596106976", "name": "USPS COLLECTION BOX - BLUE BOX", "address": {"city": "NACOGDOCHES", "state": "TX", "street": "3007 N UNIVERSITY DR", "postcode": "75961"}}},
{"geometry": {"type": "Point", "coordinates": [-94.6405470081, 31.629000996]}, "type": "Feature", "properties": {"collection_times": [{"days": "Mon-Fri", "time": "5:00pm"}, {"days": "Sat", "time": "4:30pm"}, {"days": "Sun", "time": "Closed"}], "id": "7596106977", "name": "USPS COLLECTION BOX - BLUE BOX", "address": {"city": "NACOGDOCHES", "state": "TX", "street": "3007 N UNIVERSITY DR", "postcode": "75961"}}},
{"geometry": {"type": "Point", "coordinates": [-94.6405470081, 31.629000996]}, "type": "Feature", "properties": {"collection_times": [{"days": "Mon-Fri", "time": "5:00pm"}, {"days": "Sat", "time": "4:30pm"}, {"days": "Sun", "time": "Closed"}], "id": "7596106979", "name": "USPS COLLECTION BOX - BLUE BOX", "address": {"city": "NACOGDOCHES", "state": "TX", "street": "3007 N UNIVERSITY DR", "postcode": "75961"}}},
{"geometry": {"type": "Point", "coordinates": [-94.653240597, 31.6117226618]}, "type": "Feature", "properties": {"collection_times": [{"days": "Mon-Sat", "time": "11:00am"}, {"days": "Sun", "time": "Closed"}], "id": "7596106980", "name": "USPS COLLECTION BOX - BLUE BOX", "address": {"city": "NACOGDOCHES", "state": "TX", "street": "1006 NORTH ST", "postcode": "75961"}}},
{"geometry": {"type": "Point", "coordinates": [-94.6512868185, 31.6048339314]}, "type": "Feature", "properties": {"collection_times": [{"days": "Mon-Sat", "time": "1:00pm"}, {"days": "Sun", "time": "Closed"}], "id": "7596106982", "name": "USPS COLLECTION BOX - BLUE BOX", "address": {"city": "NACOGDOCHES", "state": "TX", "street": "310 N MOUND ST", "postcode": "75961"}}},
{"geometry": {"type": "Point", "coordinates": [-94.6552284509, 31.6489294696]}, "type": "Feature", "properties": {"collection_times": [{"days": "Mon-Fri", "time": "3:00pm"}, {"days": "Sat", "time": "9:30am"}, {"days": "Sun", "time": "Closed"}], "id": "7596106985", "name": "USPS COLLECTION BOX - BLUE BOX", "address": {"city": "NACOGDOCHES", "state": "TX", "street": "4810 NORTH ST", "postcode": "75961"}}},
{"geometry": {"type": "Point", "coordinates": [-94.6664580728, 31.6058474623]}, "type": "Feature", "properties": {"collection_times": [{"days": "Mon-Sat", "time": "11:00am"}, {"days": "Sun", "time": "Closed"}], "id": "7596106987", "name": "USPS COLLECTION BOX - BLUE BOX", "address": {"city": "NACOGDOCHES", "state": "TX", "street": "1218 DOUGLASS RD", "postcode": "75961"}}},
{"geometry": {"type": "Point", "coordinates": [-94.6405470081, 31.629000996]}, "type": "Feature", "properties": {"collection_times": [{"days": "Mon-Fri", "time": "5:00pm"}, {"days": "Sat", "time": "4:30pm"}, {"days": "Sun", "time": "Closed"}], "id": "7596106988", "name": "USPS COLLECTION BOX - PO LOBBY", "address": {"city": "NACOGDOCHES", "state": "TX", "street": "3007 N UNIVERSITY DR", "postcode": "75961"}}},
{"geometry": {"type": "Point", "coordinates": [-94.6405470081, 31.629000996]}, "type": "Feature", "properties": {"collection_times": [{"days": "Mon-Fri", "time": "5:00pm"}, {"days": "Sat", "time": "4:30pm"}, {"days": "Sun", "time": "Closed"}], "id": "7596106989", "name": "USPS COLLECTION BOX - PO LOBBY", "address": {"city": "NACOGDOCHES", "state": "TX", "street": "3007 N UNIVERSITY DR", "postcode": "75961"}}},
{"geometry": {"type": "Point", "coordinates": [-94.6525262353, 31.6218950883]}, "type": "Feature", "properties": {"collection_times": [{"days": "Mon-Sat", "time": "9:00am"}, {"days": "Sun", "time": "Closed"}], "id": "7596106992", "name": "USPS COLLECTION BOX - BLUE BOX", "address": {"city": "NACOGDOCHES", "state": "TX", "street": "2013 NORTH ST", "postcode": "75961"}}},
{"geometry": {"type": "Point", "coordinates": [-94.6561044344, 31.603868916]}, "type": "Feature", "properties": {"collection_times": [{"days": "Mon-Sat", "time": "10:00am"}, {"days": "Sun", "time": "Closed"}], "id": "7596106999", "name": "USPS COLLECTION BOX - BLUE BOX", "address": {"city": "NACOGDOCHES", "state": "TX", "street": "101 W MAIN ST", "postcode": "75961"}}},
{"geometry": {"type": "Point", "coordinates": [-94.6405470081, 31.629000996]}, "type": "Feature", "properties": {"collection_times": [{"days": "Mon-Fri", "time": "5:00pm"}, {"days": "Sat", "time": "4:30pm"}, {"days": "Sun", "time": "Closed"}], "id": "7596107001", "name": "USPS COLLECTION BOX - APC", "address": {"city": "NACOGDOCHES", "state": "TX", "street": "3007 N UNIVERSITY DR", "postcode": "75961"}}},
{"geometry": {"type": "Point", "coordinates": [-93.759417996, 30.8422113345]}, "type": "Feature", "properties": {"collection_times": [{"days": "Mon-Fri", "time": "3:30pm"}, {"days": "Sat", "time": "9:00am"}, {"days": "Sun", "time": "Closed"}], "id": "7596606417", "name": "USPS COLLECTION BOX - BLUE BOX", "address": {"city": "NEWTON", "state": "TX", "street": "419 RUSK ST", "postcode": "75966"}}},
{"geometry": {"type": "Point", "coordinates": [-93.759417996, 30.8422113345]}, "type": "Feature", "properties": {"collection_times": [{"days": "Mon-Fri", "time": "3:30pm"}, {"days": "Sat", "time": "9:00am"}, {"days": "Sun", "time": "Closed"}], "id": "7596606418", "name": "USPS COLLECTION BOX - PO LOBBY", "address": {"city": "NEWTON", "state": "TX", "street": "419 RUSK ST", "postcode": "75966"}}},
{"geometry": {"type": "Point", "coordinates": [-93.7539940951, 30.8518584841]}, "type": "Feature", "properties": {"collection_times": [{"days": "Mon-Fri", "time": "12:30pm"}, {"days": "Sat", "time": "11:00am"}, {"days": "Sun", "time": "Closed"}], "id": "7596606420", "name": "USPS COLLECTION BOX - BLUE BOX", "address": {"city": "NEWTON", "state": "TX", "street": "701 W COURT ST", "postcode": "75966"}}},
{"geometry": {"type": "Point", "coordinates": [-93.9692864125, 31.2135320767]}, "type": "Feature", "properties": {"collection_times": [{"days": "Mon-Fri", "time": "3:30pm"}, {"days": "Sat", "time": "10:00am"}, {"days": "Sun", "time": "Closed"}], "id": "7596800001", "name": "USPS COLLECTION BOX - BLUE BOX", "address": {"city": "PINELAND", "state": "TX", "street": "201 CENTER ST", "postcode": "75968"}}},
{"geometry": {"type": "Point", "coordinates": [-93.9692864125, 31.2135320767]}, "type": "Feature", "properties": {"collection_times": [{"days": "Mon-Fri", "time": "3:30pm"}, {"days": "Sat", "time": "10:00am"}, {"days": "Sun", "time": "Closed"}], "id": "7596800002", "name": "USPS COLLECTION BOX - PO LOBBY", "address": {"city": "PINELAND", "state": "TX", "street": "201 CENTER ST", "postcode": "75968"}}},
{"geometry": {"type": "Point", "coordinates": [-94.8716516071, 31.4466724222]}, "type": "Feature", "properties": {"collection_times": [{"days": "Mon-Fri", "time": "3:00pm"}, {"days": "Sat", "time": "9:00am"}, {"days": "Sun", "time": "Closed"}], "id": "7596900000", "name": "USPS COLLECTION BOX - BLUE BOX", "address": {"city": "POLLOK", "state": "TX", "street": "533 W STATE HIGHWAY 7", "postcode": "75969"}}},
{"geometry": {"type": "Point", "coordinates": [-94.8716516071, 31.4466724222]}, "type": "Feature", "properties": {"collection_times": [{"days": "Mon-Fri", "time": "3:00pm"}, {"days": "Sat", "time": "9:00am"}, {"days": "Sun", "time": "Closed"}], "id": "7596900001", "name": "USPS COLLECTION BOX - PO LOBBY", "address": {"city": "POLLOK", "state": "TX", "street": "533 W STATE HIGHWAY 7", "postcode": "75969"}}},
{"geometry": {"type": "Point", "coordinates": [-94.80532, 31.421057]}, "type": "Feature", "properties": {"collection_times": [{"days": "Mon-Sat", "time": "12:15pm"}, {"days": "Sun", "time": "Closed"}], "id": "7596900002", "name": "USPS COLLECTION BOX - BLUE BOX", "address": {"city": "POLLOK", "state": "TX", "street": "6925 N US HIGHWAY 69", "postcode": "75969"}}},
{"geometry": {"type": "Point", "coordinates": [-94.1098226967, 31.5293127537]}, "type": "Feature", "properties": {"collection_times": [{"days": "Mon-Fri", "time": "3:45pm"}, {"days": "Sat", "time": "10:00am"}, {"days": "Sun", "time": "Closed"}], "id": "7597206486", "name": "USPS COLLECTION BOX - PO LOBBY", "address": {"city": "SAN AUGUSTINE", "state": "TX", "street": "117 W MAIN ST", "postcode": "75972"}}},
{"geometry": {"type": "Point", "coordinates": [-94.1098226967, 31.5293127537]}, "type": "Feature", "properties": {"collection_times": [{"days": "Mon-Fri", "time": "3:45pm"}, {"days": "Sat", "time": "10:00am"}, {"days": "Sun", "time": "Closed"}], "id": "7597206488", "name": "USPS COLLECTION BOX - BLUE BOX", "address": {"city": "SAN AUGUSTINE", "state": "TX", "street": "117 W MAIN ST", "postcode": "75972"}}},
{"geometry": {"type": "Point", "coordinates": [-94.1098226967, 31.5293127537]}, "type": "Feature", "properties": {"collection_times": [{"days": "Mon-Fri", "time": "3:45pm"}, {"days": "Sat", "time": "10:00am"}, {"days": "Sun", "time": "Closed"}], "id": "7597206489", "name": "USPS COLLECTION BOX - BLUE BOX", "address": {"city": "SAN AUGUSTINE", "state": "TX", "street": "117 W MAIN ST", "postcode": "75972"}}},
{"geometry": {"type": "Point", "coordinates": [-94.0784782836, 31.7593811716]}, "type": "Feature", "properties": {"collection_times": [{"days": "Mon-Fri", "time": "3:30pm"}, {"days": "Sat", "time": "9:00am"}, {"days": "Sun", "time": "Closed"}], "id": "7597300001", "name": "USPS COLLECTION BOX - BLUE BOX", "address": {"city": "SHELBYVILLE", "state": "TX", "street": "5182 STATE HIGHWAY 87 S", "postcode": "75973"}}},
{"geometry": {"type": "Point", "coordinates": [-94.0784782836, 31.7593811716]}, "type": "Feature", "properties": {"collection_times": [{"days": "Mon-Fri", "time": "3:30pm"}, {"days": "Sat", "time": "9:00am"}, {"days": "Sun", "time": "Closed"}], "id": "7597300002", "name": "USPS COLLECTION BOX - PO LOBBY", "address": {"city": "SHELBYVILLE", "state": "TX", "street": "5182 STATE HIGHWAY 87 S", "postcode": "75973"}}},
{"geometry": {"type": "Point", "coordinates": [-94.0784782836, 31.7593811716]}, "type": "Feature", "properties": {"collection_times": [{"days": "Mon-Fri", "time": "3:30pm"}, {"days": "Sat", "time": "9:00am"}, {"days": "Sun", "time": "Closed"}], "id": "7597300003", "name": "USPS COLLECTION BOX - PO LOBBY", "address": {"city": "SHELBYVILLE", "state": "TX", "street": "5182 STATE HIGHWAY 87 S", "postcode": "75973"}}},
{"geometry": {"type": "Point", "coordinates": [-94.2541680154, 31.9382460959]}, "type": "Feature", "properties": {"collection_times": [{"days": "Mon-Fri", "time": "3:00pm"}, {"days": "Sat", "time": "9:00am"}, {"days": "Sun", "time": "Closed"}], "id": "7597400000", "name": "USPS COLLECTION BOX - BLUE BOX", "address": {"city": "TENAHA", "state": "TX", "street": "152 S GEORGE BOWERS DR", "postcode": "75974"}}},
{"geometry": {"type": "Point", "coordinates": [-94.2541680154, 31.9382460959]}, "type": "Feature", "properties": {"collection_times": [{"days": "Mon-Fri", "time": "3:30pm"}, {"days": "Sat", "time": "9:00am"}, {"days": "Sun", "time": "Closed"}], "id": "7597400003", "name": "USPS COLLECTION BOX - PO LOBBY", "address": {"city": "TENAHA", "state": "TX", "street": "152 S GEORGE BOWERS DR", "postcode": "75974"}}},
{"geometry": {"type": "Point", "coordinates": [-94.3908304842, 31.863441765]}, "type": "Feature", "properties": {"collection_times": [{"days": "Mon-Fri", "time": "4:00pm"}, {"days": "Sat", "time": "8:30am"}, {"days": "Sun", "time": "Closed"}], "id": "7597500000", "name": "USPS COLLECTION BOX - BLUE BOX", "address": {"city": "TIMPSON", "state": "TX", "street": "437 BEAR DR", "postcode": "75975"}}},
{"geometry": {"type": "Point", "coordinates": [-94.3908304842, 31.863441765]}, "type": "Feature", "properties": {"collection_times": [{"days": "Mon-Fri", "time": "4:00pm"}, {"days": "Sat", "time": "8:30am"}, {"days": "Sun", "time": "Closed"}], "id": "7597500001", "name": "USPS COLLECTION BOX - PO LOBBY", "address": {"city": "TIMPSON", "state": "TX", "street": "437 BEAR DR", "postcode": "75975"}}},
{"geometry": {"type": "Point", "coordinates": [-95.0103424771, 31.5133603379]}, "type": "Feature", "properties": {"collection_times": [{"days": "Mon-Fri", "time": "3:00pm"}, {"days": "Sat", "time": "8:00am"}, {"days": "Sun", "time": "Closed"}], "id": "7597600000", "name": "USPS COLLECTION BOX - BLUE BOX", "address": {"city": "WELLS", "state": "TX", "street": "314 RUSK AVE", "postcode": "75976"}}},
{"geometry": {"type": "Point", "coordinates": [-95.0103424771, 31.5133603379]}, "type": "Feature", "properties": {"collection_times": [{"days": "Mon-Fri", "time": "3:00pm"}, {"days": "Sat", "time": "8:00am"}, {"days": "Sun", "time": "Closed"}], "id": "7597600001", "name": "USPS COLLECTION BOX - PO LOBBY", "address": {"city": "WELLS", "state": "TX", "street": "314 RUSK AVE", "postcode": "75976"}}},
{"geometry": {"type": "Point", "coordinates": [-93.8089224082, 31.0766607525]}, "type": "Feature", "properties": {"collection_times": [{"days": "Mon-Fri", "time": "3:00pm"}, {"days": "Sat", "time": "8:30am"}, {"days": "Sun", "time": "Closed"}], "id": "7597700000", "name": "USPS COLLECTION BOX - BLUE BOX", "address": {"city": "WIERGATE", "state": "TX", "street": "983 FM 1415", "postcode": "75977"}}},
{"geometry": {"type": "Point", "coordinates": [-93.8089224082, 31.0766607525]}, "type": "Feature", "properties": {"collection_times": [{"days": "Mon-Fri", "time": "11:30am"}, {"days": "Sat", "time": "8:30am"}, {"days": "Sun", "time": "Closed"}], "id": "7597700001", "name": "USPS COLLECTION BOX - PO LOBBY", "address": {"city": "WIERGATE", "state": "TX", "street": "983 FM 1415", "postcode": "75977"}}},
{"geometry": {"type": "Point", "coordinates": [-94.5290146137, 31.5022228042]}, "type": "Feature", "properties": {"collection_times": [{"days": "Mon-Sat", "time": "2:30pm"}, {"days": "Sun", "time": "Closed"}], "id": "7597800000", "name": "USPS COLLECTION BOX - BLUE BOX", "address": {"city": "WODEN", "state": "TX", "street": "5148 FM 226", "postcode": "75978"}}},
{"geometry": {"type": "Point", "coordinates": [-94.5290146137, 31.5022228042]}, "type": "Feature", "properties": {"collection_times": [{"days": "Mon-Fri", "time": "12:30pm"}, {"days": "Sat", "time": "9:00am"}, {"days": "Sun", "time": "Closed"}], "id": "7597800001", "name": "USPS COLLECTION BOX - PO LOBBY", "address": {"city": "WODEN", "state": "TX", "street": "5148 FM 226", "postcode": "75978"}}},
{"geometry": {"type": "Point", "coordinates": [-94.425610046, 30.7662964265]}, "type": "Feature", "properties": {"collection_times": [{"days": "Mon-Sat", "time": "9:00am"}, {"days": "Sun", "time": "Closed"}], "id": "7597906411", "name": "USPS COLLECTION BOX - BLUE BOX", "address": {"city": "WOODVILLE", "state": "TX", "street": "115 COBB MILL RD", "postcode": "75979"}}},
{"geometry": {"type": "Point", "coordinates": [-94.4161302378, 30.7750376755]}, "type": "Feature", "properties": {"collection_times": [{"days": "Mon-Sat", "time": "8:00am"}, {"days": "Sun", "time": "Closed"}], "id": "7597906413", "name": "USPS COLLECTION BOX - BLUE BOX", "address": {"city": "WOODVILLE", "state": "TX", "street": "130 S CHARLTON ST", "postcode": "75979"}}},
{"geometry": {"type": "Point", "coordinates": [-94.4172960303, 30.7743219343]}, "type": "Feature", "properties": {"collection_times": [{"days": "Mon-Fri", "time": "3:00pm"}, {"days": "Sat", "time": "9:00am"}, {"days": "Sun", "time": "Closed"}], "id": "7597906414", "name": "USPS COLLECTION BOX - BLUE BOX", "address": {"city": "WOODVILLE", "state": "TX", "street": "307 W WHEAT ST", "postcode": "75979"}}},
{"geometry": {"type": "Point", "coordinates": [-94.4172960303, 30.7743219343]}, "type": "Feature", "properties": {"collection_times": [{"days": "Mon-Fri", "time": "3:00pm"}, {"days": "Sat", "time": "9:00am"}, {"days": "Sun", "time": "Closed"}], "id": "7597906416", "name": "USPS COLLECTION BOX - BLUE BOX", "address": {"city": "WOODVILLE", "state": "TX", "street": "307 W WHEAT ST", "postcode": "75979"}}},
{"geometry": {"type": "Point", "coordinates": [-94.4172960303, 30.7743219343]}, "type": "Feature", "properties": {"collection_times": [{"days": "Mon-Fri", "time": "3:00pm"}, {"days": "Sat", "time": "9:00am"}, {"days": "Sun", "time": "Closed"}], "id": "7597906417", "name": "USPS COLLECTION BOX - PO LOBBY", "address": {"city": "WOODVILLE", "state": "TX", "street": "307 W WHEAT ST", "postcode": "75979"}}},
{"geometry": {"type": "Point", "coordinates": [-94.4172960303, 30.7743219343]}, "type": "Feature", "properties": {"collection_times": [{"days": "Mon-Fri", "time": "3:00pm"}, {"days": "Sat", "time": "9:00am"}, {"days": "Sun", "time": "Closed"}], "id": "7597906419", "name": "USPS COLLECTION BOX - PO LOBBY", "address": {"city": "WOODVILLE", "state": "TX", "street": "307 W WHEAT ST", "postcode": "75979"}}},
{"geometry": {"type": "Point", "coordinates": [-94.4262004357, 31.1585438308]}, "type": "Feature", "properties": {"collection_times": [{"days": "Mon-Fri", "time": "4:00pm"}, {"days": "Sat", "time": "9:30am"}, {"days": "Sun", "time": "Closed"}], "id": "7598000000", "name": "USPS COLLECTION BOX - BLUE BOX", "address": {"city": "ZAVALLA", "state": "TX", "street": "247 E MAIN ST", "postcode": "75980"}}},
{"geometry": {"type": "Point", "coordinates": [-94.4262004357, 31.1585438308]}, "type": "Feature", "properties": {"collection_times": [{"days": "Mon-Fri", "time": "4:00pm"}, {"days": "Sat", "time": "9:30am"}, {"days": "Sun", "time": "Closed"}], "id": "7598000001", "name": "USPS COLLECTION BOX - PO LOBBY", "address": {"city": "ZAVALLA", "state": "TX", "street": "247 E MAIN ST", "postcode": "75980"}}},
{"geometry": {"type": "Point", "coordinates": [-94.4262004357, 31.1585438308]}, "type": "Feature", "properties": {"collection_times": [{"days": "Mon-Fri", "time": "4:00pm"}, {"days": "Sat", "time": "9:30am"}, {"days": "Sun", "time": "Closed"}], "id": "7598000002", "name": "USPS COLLECTION BOX - PO LOBBY", "address": {"city": "ZAVALLA", "state": "TX", "street": "247 E MAIN ST", "postcode": "75980"}}}
]}
