{"type": "FeatureCollection", "features": [
{"geometry": {"type": "Point", "coordinates": [-97.115198468, 32.6442972186]}, "type": "Feature", "properties": {"collection_times": [{"days": "Mon-Sat", "time": "9:00am"}, {"days": "Sun", "time": "Closed"}], "id": "7600200000", "name": "USPS COLLECTION BOX - BLUE BOX", "address": {"city": "ARLINGTON", "state": "TX", "street": "6201 MATLOCK RD", "postcode": "76002"}}},
{"geometry": {"type": "Point", "coordinates": [-97.1735995505, 32.6582287746]}, "type": "Feature", "properties": {"collection_times": [{"days": "Mon-Fri", "time": "5:00pm"}, {"days": "Sat", "time": "1:30pm"}, {"days": "Sun", "time": "Closed"}], "id": "7600300000", "name": "USPS COLLECTION BOX - BLUE BOX", "address": {"city": "ARLINGTON", "state": "TX", "street": "4108 SW GREEN OAKS BLVD", "postcode": "76003"}}},
{"geometry": {"type": "Point", "coordinates": [-97.1732466862, 32.6581425776]}, "type": "Feature", "properties": {"collection_times": [{"days": "Mon-Fri", "time": "5:00pm"}, {"days": "Sat", "time": "1:30pm"}, {"days": "Sun", "time": "Closed"}], "id": "7600300002", "name": "USPS COLLECTION BOX - EXPRESS", "address": {"city": "ARLINGTON", "state": "TX", "street": "4108 SW GREEN OAKS BLVD", "postcode": "76003"}}},
{"geometry": {"type": "Point", "coordinates": [-97.1735995505, 32.6582287746]}, "type": "Feature", "properties": {"collection_times": [{"days": "Mon-Fri", "time": "5:00pm"}, {"days": "Sat", "time": "1:30pm"}, {"days": "Sun", "time": "Closed"}], "id": "7600300003", "name": "USPS COLLECTION BOX - BLUE BOX", "address": {"city": "ARLINGTON", "state": "TX", "street": "4108 SW GREEN OAKS BLVD", "postcode": "76003"}}},
{"geometry": {"type": "Point", "coordinates": [-97.1735995505, 32.6582287746]}, "type": "Feature", "properties": {"collection_times": [{"days": "Mon-Fri", "time": "5:00pm"}, {"days": "Sat", "time": "1:30pm"}, {"days": "Sun", "time": "Closed"}], "id": "7600300005", "name": "USPS COLLECTION BOX - PO LOBBY", "address": {"city": "ARLINGTON", "state": "TX", "street": "4108 SW GREEN OAKS BLVD", "postcode": "76003"}}},
{"geometry": {"type": "Point", "coordinates": [-97.1735995505, 32.6582287746]}, "type": "Feature", "properties": {"collection_times": [{"days": "Mon-Fri", "time": "5:00pm"}, {"days": "Sat", "time": "1:30pm"}, {"days": "Sun", "time": "Closed"}], "id": "7600300006", "name": "USPS COLLECTION BOX - PO LOBBY", "address": {"city": "ARLINGTON", "state": "TX", "street": "4108 SW GREEN OAKS BLVD", "postcode": "76003"}}},
{"geometry": {"type": "Point", "coordinates": [-97.1735995505, 32.6582287746]}, "type": "Feature", "properties": {"collection_times": [{"days": "Mon-Fri", "time": "5:00pm"}, {"days": "Sat", "time": "1:30pm"}, {"days": "Sun", "time": "Closed"}], "id": "7600300007", "name": "USPS COLLECTION BOX - PO LOBBY", "address": {"city": "ARLINGTON", "state": "TX", "street": "4108 SW GREEN OAKS BLVD", "postcode": "76003"}}},
{"geometry": {"type": "Point", "coordinates": [-97.1735995505, 32.6582287746]}, "type": "Feature", "properties": {"collection_times": [{"days": "Mon-Fri", "time": "5:00pm"}, {"days": "Sat", "time": "1:30pm"}, {"days": "Sun", "time": "Closed"}], "id": "7600300008", "name": "USPS COLLECTION BOX - BLUE BOX", "address": {"city": "ARLINGTON", "state": "TX", "street": "4108 SW GREEN OAKS BLVD", "postcode": "76003"}}},
{"geometry": {"type": "Point", "coordinates": [-97.1735995505, 32.6582287746]}, "type": "Feature", "properties": {"collection_times": [{"days": "Mon-Fri", "time": "5:00pm"}, {"days": "Sat", "time": "1:30pm"}, {"days": "Sun", "time": "Closed"}], "id": "7600300009", "name": "USPS COLLECTION BOX - APC", "address": {"city": "ARLINGTON", "state": "TX", "street": "4108 SW GREEN OAKS BLVD", "postcode": "76003"}}},
{"geometry": {"type": "Point", "coordinates": [-97.1735995505, 32.6582287746]}, "type": "Feature", "properties": {"collection_times": [{"days": "Mon-Fri", "time": "5:00pm"}, {"days": "Sat", "time": "1:30pm"}, {"days": "Sun", "time": "Closed"}], "id": "7600300011", "name": "USPS COLLECTION BOX - BLUE BOX", "address": {"city": "ARLINGTON", "state": "TX", "street": "4108 SW GREEN OAKS BLVD", "postcode": "76003"}}},
{"geometry": {"type": "Point", "coordinates": [-97.1046477394, 32.7348319247]}, "type": "Feature", "properties": {"collection_times": [{"days": "Mon-Fri", "time": "5:00pm"}, {"days": "Sat", "time": "4:00pm"}, {"days": "Sun", "time": "Closed"}], "id": "7600400000", "name": "USPS COLLECTION BOX - EXPRESS", "address": {"city": "ARLINGTON", "state": "TX", "street": "300 E SOUTH ST", "postcode": "76004"}}},
{"geometry": {"type": "Point", "coordinates": [-97.1041314682, 32.734813538]}, "type": "Feature", "properties": {"collection_times": [{"days": "Mon-Fri", "time": "5:00pm"}, {"days": "Sat", "time": "4:00pm"}, {"days": "Sun", "time": "Closed"}], "id": "7600400001", "name": "USPS COLLECTION BOX - BLUE BOX", "address": {"city": "ARLINGTON", "state": "TX", "street": "300 E SOUTH ST", "postcode": "76004"}}},
{"geometry": {"type": "Point", "coordinates": [-97.1041314682, 32.734813538]}, "type": "Feature", "properties": {"collection_times": [{"days": "Mon-Fri", "time": "5:00pm"}, {"days": "Sat", "time": "4:00pm"}, {"days": "Sun", "time": "Closed"}], "id": "7600400002", "name": "USPS COLLECTION BOX - BLUE BOX", "address": {"city": "ARLINGTON", "state": "TX", "street": "300 E SOUTH ST", "postcode": "76004"}}},
{"geometry": {"type": "Point", "coordinates": [-97.1041314682, 32.734813538]}, "type": "Feature", "properties": {"collection_times": [{"days": "Mon-Fri", "time": "5:00pm"}, {"days": "Sat", "time": "4:00pm"}, {"days": "Sun", "time": "Closed"}], "id": "7600400003", "name": "USPS COLLECTION BOX - BLUE BOX", "address": {"city": "ARLINGTON", "state": "TX", "street": "300 E SOUTH ST", "postcode": "76004"}}},
{"geometry": {"type": "Point", "coordinates": [-97.1041314682, 32.734813538]}, "type": "Feature", "properties": {"collection_times": [{"days": "Mon-Fri", "time": "5:00pm"}, {"days": "Sat", "time": "4:00pm"}, {"days": "Sun", "time": "Closed"}], "id": "7600400004", "name": "USPS COLLECTION BOX - BLUE BOX", "address": {"city": "ARLINGTON", "state": "TX", "street": "300 E SOUTH ST", "postcode": "76004"}}},
{"geometry": {"type": "Point", "coordinates": [-97.1041314682, 32.734813538]}, "type": "Feature", "properties": {"collection_times": [{"days": "Mon-Fri", "time": "5:00pm"}, {"days": "Sat", "time": "4:00pm"}, {"days": "Sun", "time": "Closed"}], "id": "7600400005", "name": "USPS COLLECTION BOX - PO LOBBY", "address": {"city": "ARLINGTON", "state": "TX", "street": "300 E SOUTH ST", "postcode": "76004"}}},
{"geometry": {"type": "Point", "coordinates": [-97.1041314682, 32.734813538]}, "type": "Feature", "properties": {"collection_times": [{"days": "Mon-Fri", "time": "5:00pm"}, {"days": "Sat", "time": "4:00pm"}, {"days": "Sun", "time": "Closed"}], "id": "7600400006", "name": "USPS COLLECTION BOX - PO LOBBY", "address": {"city": "ARLINGTON", "state": "TX", "street": "300 E SOUTH ST", "postcode": "76004"}}},
{"geometry": {"type": "Point", "coordinates": [-97.0774340443, 32.7629652953]}, "type": "Feature", "properties": {"collection_times": [{"days": "Mon-Sat", "time": "9:15am"}, {"days": "Sun", "time": "Closed"}], "id": "7600600013", "name": "USPS COLLECTION BOX - BLUE BOX", "address": {"city": "ARLINGTON", "state": "TX", "street": "2001 E LAMAR BLVD", "postcode": "76006"}}},
{"geometry": {"type": "Point", "coordinates": [-97.0736359691, 32.7666493297]}, "type": "Feature", "properties": {"collection_times": [{"days": "Mon-Fri", "time": "5:00pm"}, {"days": "Sat", "time": "4:00pm"}, {"days": "Sun", "time": "Closed"}], "id": "7600600016", "name": "USPS COLLECTION BOX - BLUE BOX", "address": {"city": "ARLINGTON", "state": "TX", "street": "1975 BALLPARK WAY", "postcode": "76006"}}},
{"geometry": {"type": "Point", "coordinates": [-97.0736359691, 32.7666493297]}, "type": "Feature", "properties": {"collection_times": [{"days": "Mon-Fri", "time": "5:00pm"}, {"days": "Sat", "time": "4:00pm"}, {"days": "Sun", "time": "Closed"}], "id": "7600600017", "name": "USPS COLLECTION BOX - PO LOBBY", "address": {"city": "ARLINGTON", "state": "TX", "street": "1975 BALLPARK WAY", "postcode": "76006"}}},
{"geometry": {"type": "Point", "coordinates": [-97.0815887952, 32.7766526026]}, "type": "Feature", "properties": {"collection_times": [{"days": "Mon-Fri", "time": "5:00pm"}, {"days": "Sat", "time": "4:00pm"}, {"days": "Sun", "time": "Closed"}], "id": "7600600023", "name": "USPS COLLECTION BOX - EXPRESS", "address": {"city": "ARLINGTON", "state": "TX", "street": "1975 BALLPARK WAY", "postcode": "76006"}}},
{"geometry": {"type": "Point", "coordinates": [-97.0736359691, 32.7666493297]}, "type": "Feature", "properties": {"collection_times": [{"days": "Mon-Fri", "time": "5:00pm"}, {"days": "Sat", "time": "4:00pm"}, {"days": "Sun", "time": "Closed"}], "id": "7600600024", "name": "USPS COLLECTION BOX - PO LOBBY", "address": {"city": "ARLINGTON", "state": "TX", "street": "1975 BALLPARK WAY", "postcode": "76006"}}},
{"geometry": {"type": "Point", "coordinates": [-97.0736359691, 32.7666493297]}, "type": "Feature", "properties": {"collection_times": [{"days": "Mon-Fri", "time": "5:00pm"}, {"days": "Sat", "time": "4:00pm"}, {"days": "Sun", "time": "Closed"}], "id": "7600600025", "name": "USPS COLLECTION BOX - PO LOBBY", "address": {"city": "ARLINGTON", "state": "TX", "street": "1975 BALLPARK WAY", "postcode": "76006"}}},
{"geometry": {"type": "Point", "coordinates": [-97.0736359691, 32.7666493297]}, "type": "Feature", "properties": {"collection_times": [{"days": "Mon-Fri", "time": "5:00pm"}, {"days": "Sat", "time": "4:00pm"}, {"days": "Sun", "time": "Closed"}], "id": "7600600026", "name": "USPS COLLECTION BOX - BLUE BOX", "address": {"city": "ARLINGTON", "state": "TX", "street": "1975 BALLPARK WAY", "postcode": "76006"}}},
{"geometry": {"type": "Point", "coordinates": [-97.0736359691, 32.7666493297]}, "type": "Feature", "properties": {"collection_times": [{"days": "Mon-Fri", "time": "5:00pm"}, {"days": "Sat", "time": "4:00pm"}, {"days": "Sun", "time": "Closed"}], "id": "7600600039", "name": "USPS COLLECTION BOX - APC", "address": {"city": "ARLINGTON", "state": "TX", "street": "1975 BALLPARK WAY", "postcode": "76006"}}},
{"geometry": {"type": "Point", "coordinates": [-97.6083081315, 32.696875597]}, "type": "Feature", "properties": {"collection_times": [{"days": "Mon-Fri", "time": "4:30pm"}, {"days": "Sat", "time": "10:00am"}, {"days": "Sun", "time": "Closed"}], "id": "7600800001", "name": "USPS COLLECTION BOX - BLUE BOX", "address": {"city": "ALEDO", "state": "TX", "street": "412 OLD ANNETTA RD", "postcode": "76008"}}},
{"geometry": {"type": "Point", "coordinates": [-97.6083081315, 32.696875597]}, "type": "Feature", "properties": {"collection_times": [{"days": "Mon-Fri", "time": "4:30pm"}, {"days": "Sat", "time": "10:00am"}, {"days": "Sun", "time": "Closed"}], "id": "7600800002", "name": "USPS COLLECTION BOX - BLUE BOX", "address": {"city": "ALEDO", "state": "TX", "street": "412 OLD ANNETTA RD", "postcode": "76008"}}},
{"geometry": {"type": "Point", "coordinates": [-97.6083081315, 32.696875597]}, "type": "Feature", "properties": {"collection_times": [{"days": "Mon-Fri", "time": "4:30pm"}, {"days": "Sat-Sun", "time": "Closed"}], "id": "7600800003", "name": "USPS COLLECTION BOX - PO LOBBY", "address": {"city": "ALEDO", "state": "TX", "street": "412 OLD ANNETTA RD", "postcode": "76008"}}},
{"geometry": {"type": "Point", "coordinates": [-97.6083081315, 32.696875597]}, "type": "Feature", "properties": {"collection_times": [{"days": "Mon-Fri", "time": "4:30pm"}, {"days": "Sat-Sun", "time": "Closed"}], "id": "7600800004", "name": "USPS COLLECTION BOX - PO LOBBY", "address": {"city": "ALEDO", "state": "TX", "street": "412 OLD ANNETTA RD", "postcode": "76008"}}},
{"geometry": {"type": "Point", "coordinates": [-97.5261195931, 32.7123417206]}, "type": "Feature", "properties": {"collection_times": [{"days": "Mon-Sat", "time": "12:30pm"}, {"days": "Sun", "time": "Closed"}], "id": "7600800005", "name": "USPS COLLECTION BOX - BLUE BOX", "address": {"city": "ALEDO", "state": "TX", "street": "4101 LOST CREEK BLVD", "postcode": "76008"}}},
{"geometry": {"type": "Point", "coordinates": [-97.219123425, 32.4107027496]}, "type": "Feature", "properties": {"collection_times": [{"days": "Mon-Fri", "time": "1:00pm"}, {"days": "Sat", "time": "1:30pm"}, {"days": "Sun", "time": "Closed"}], "id": "7600900001", "name": "USPS COLLECTION BOX - BLUE BOX", "address": {"city": "ALVARADO", "state": "TX", "street": "611 N PARKWAY DR", "postcode": "76009"}}},
{"geometry": {"type": "Point", "coordinates": [-97.2121717639, 32.4062682813]}, "type": "Feature", "properties": {"collection_times": [{"days": "Mon-Fri", "time": "1:15pm"}, {"days": "Sat", "time": "1:45pm"}, {"days": "Sun", "time": "Closed"}], "id": "7600900003", "name": "USPS COLLECTION BOX - BLUE BOX", "address": {"city": "ALVARADO", "state": "TX", "street": "111 E WEAVER AVE", "postcode": "76009"}}},
{"geometry": {"type": "Point", "coordinates": [-97.2031934317, 32.4179670514]}, "type": "Feature", "properties": {"collection_times": [{"days": "Mon-Fri", "time": "4:30pm"}, {"days": "Sat", "time": "12:00pm"}, {"days": "Sun", "time": "Closed"}], "id": "7600900004", "name": "USPS COLLECTION BOX - BLUE BOX", "address": {"city": "ALVARADO", "state": "TX", "street": "300 E HIGHWAY 67", "postcode": "76009"}}},
{"geometry": {"type": "Point", "coordinates": [-97.2031934317, 32.4179670514]}, "type": "Feature", "properties": {"collection_times": [{"days": "Mon-Fri", "time": "4:30pm"}, {"days": "Sat", "time": "12:00pm"}, {"days": "Sun", "time": "Closed"}], "id": "7600900005", "name": "USPS COLLECTION BOX - PO LOBBY", "address": {"city": "ALVARADO", "state": "TX", "street": "300 E HIGHWAY 67", "postcode": "76009"}}},
{"geometry": {"type": "Point", "coordinates": [-97.2031934317, 32.4179670514]}, "type": "Feature", "properties": {"collection_times": [{"days": "Mon-Fri", "time": "4:30pm"}, {"days": "Sat", "time": "12:00pm"}, {"days": "Sun", "time": "Closed"}], "id": "7600900006", "name": "USPS COLLECTION BOX - PO LOBBY", "address": {"city": "ALVARADO", "state": "TX", "street": "300 E HIGHWAY 67", "postcode": "76009"}}},
{"geometry": {"type": "Point", "coordinates": [-97.0868590844, 32.7084323701]}, "type": "Feature", "properties": {"collection_times": [{"days": "Mon-Sat", "time": "9:00am"}, {"days": "Sun", "time": "Closed"}], "id": "7601000014", "name": "USPS COLLECTION BOX - BLUE BOX", "address": {"city": "ARLINGTON", "state": "TX", "street": "1600 E PIONEER PKWY", "postcode": "76010"}}},
{"geometry": {"type": "Point", "coordinates": [-97.0803862625, 32.7207286788]}, "type": "Feature", "properties": {"collection_times": [{"days": "Mon-Fri", "time": "5:00pm"}, {"days": "Sat", "time": "3:00pm"}, {"days": "Sun", "time": "Closed"}], "id": "7601000015", "name": "USPS COLLECTION BOX - BLUE BOX", "address": {"city": "ARLINGTON", "state": "TX", "street": "1510 NEW YORK AVE", "postcode": "76010"}}},
{"geometry": {"type": "Point", "coordinates": [-97.0824802264, 32.7208561146]}, "type": "Feature", "properties": {"collection_times": [{"days": "Mon-Fri", "time": "5:00pm"}, {"days": "Sat", "time": "3:00pm"}, {"days": "Sun", "time": "Closed"}], "id": "7601000041", "name": "USPS COLLECTION BOX - BLUE BOX", "address": {"city": "ARLINGTON", "state": "TX", "street": "1828 E PARK ROW DR", "postcode": "76010"}}},
{"geometry": {"type": "Point", "coordinates": [-97.0593074614, 32.7350507848]}, "type": "Feature", "properties": {"collection_times": [{"days": "Mon-Sat", "time": "10:00am"}, {"days": "Sun", "time": "Closed"}], "id": "7601000043", "name": "USPS COLLECTION BOX - BLUE BOX", "address": {"city": "ARLINGTON", "state": "TX", "street": "2912 KRAFT ST", "postcode": "76010"}}},
{"geometry": {"type": "Point", "coordinates": [-97.09889096, 32.7656568271]}, "type": "Feature", "properties": {"collection_times": [{"days": "Mon-Fri", "time": "2:00pm"}, {"days": "Sat", "time": "1:00pm"}, {"days": "Sun", "time": "Closed"}], "id": "7601100007", "name": "USPS COLLECTION BOX - BLUE BOX", "address": {"city": "ARLINGTON", "state": "TX", "street": "801 E LAMAR BLVD", "postcode": "76011"}}},
{"geometry": {"type": "Point", "coordinates": [-97.069687252, 32.7479739565]}, "type": "Feature", "properties": {"collection_times": [{"days": "Mon-Fri", "time": "2:45pm"}, {"days": "Sat", "time": "2:15pm"}, {"days": "Sun", "time": "Closed"}], "id": "7601100029", "name": "USPS COLLECTION BOX - BLUE BOX", "address": {"city": "ARLINGTON", "state": "TX", "street": "2225 E RANDOL MILL RD", "postcode": "76011"}}},
{"geometry": {"type": "Point", "coordinates": [-97.0876552158, 32.7646110914]}, "type": "Feature", "properties": {"collection_times": [{"days": "Mon-Sat", "time": "9:30am"}, {"days": "Sun", "time": "Closed"}], "id": "7601100032", "name": "USPS COLLECTION BOX - BLUE BOX", "address": {"city": "ARLINGTON", "state": "TX", "street": "1601 E LAMAR BLVD", "postcode": "76011"}}},
{"geometry": {"type": "Point", "coordinates": [-97.1003672928, 32.7651020194]}, "type": "Feature", "properties": {"collection_times": [{"days": "Mon-Fri", "time": "1:45pm"}, {"days": "Sat", "time": "12:45pm"}, {"days": "Sun", "time": "Closed"}], "id": "7601200012", "name": "USPS COLLECTION BOX - BLUE BOX", "address": {"city": "ARLINGTON", "state": "TX", "street": "715 W LAMAR BLVD", "postcode": "76012"}}},
{"geometry": {"type": "Point", "coordinates": [-97.1403225345, 32.7493515481]}, "type": "Feature", "properties": {"collection_times": [{"days": "Mon-Fri", "time": "5:00pm"}, {"days": "Sat", "time": "4:00pm"}, {"days": "Sun", "time": "Closed"}], "id": "7601200017", "name": "USPS COLLECTION BOX - BLUE BOX", "address": {"city": "ARLINGTON", "state": "TX", "street": "1009 OAKWOOD LN", "postcode": "76012"}}},
{"geometry": {"type": "Point", "coordinates": [-97.1403225345, 32.7493515481]}, "type": "Feature", "properties": {"collection_times": [{"days": "Mon-Fri", "time": "5:00pm"}, {"days": "Sat", "time": "4:00pm"}, {"days": "Sun", "time": "Closed"}], "id": "7601200018", "name": "USPS COLLECTION BOX - BLUE BOX", "address": {"city": "ARLINGTON", "state": "TX", "street": "1009 OAKWOOD LN", "postcode": "76012"}}},
{"geometry": {"type": "Point", "coordinates": [-97.1403225345, 32.7493515481]}, "type": "Feature", "properties": {"collection_times": [{"days": "Mon-Fri", "time": "5:00pm"}, {"days": "Sat", "time": "4:00pm"}, {"days": "Sun", "time": "Closed"}], "id": "7601200019", "name": "USPS COLLECTION BOX - BLUE BOX", "address": {"city": "ARLINGTON", "state": "TX", "street": "1009 OAKWOOD LN", "postcode": "76012"}}},
{"geometry": {"type": "Point", "coordinates": [-97.1358796389, 32.7511430753]}, "type": "Feature", "properties": {"collection_times": [{"days": "Mon-Fri", "time": "5:00pm"}, {"days": "Sat", "time": "4:00pm"}, {"days": "Sun", "time": "Closed"}], "id": "7601200022", "name": "USPS COLLECTION BOX - EXPRESS", "address": {"city": "ARLINGTON", "state": "TX", "street": "1009 OAKWOOD LN", "postcode": "76012"}}},
{"geometry": {"type": "Point", "coordinates": [-97.1403225345, 32.7493515481]}, "type": "Feature", "properties": {"collection_times": [{"days": "Mon-Fri", "time": "5:00pm"}, {"days": "Sat", "time": "4:00pm"}, {"days": "Sun", "time": "Closed"}], "id": "7601200024", "name": "USPS COLLECTION BOX - PO LOBBY", "address": {"city": "ARLINGTON", "state": "TX", "street": "1009 OAKWOOD LN", "postcode": "76012"}}},
{"geometry": {"type": "Point", "coordinates": [-97.1403225345, 32.7493515481]}, "type": "Feature", "properties": {"collection_times": [{"days": "Mon-Fri", "time": "5:00pm"}, {"days": "Sat", "time": "4:00pm"}, {"days": "Sun", "time": "Closed"}], "id": "7601200025", "name": "USPS COLLECTION BOX - PO LOBBY", "address": {"city": "ARLINGTON", "state": "TX", "street": "1009 OAKWOOD LN", "postcode": "76012"}}},
{"geometry": {"type": "Point", "coordinates": [-97.1403225345, 32.7493515481]}, "type": "Feature", "properties": {"collection_times": [{"days": "Mon-Fri", "time": "5:00pm"}, {"days": "Sat", "time": "4:00pm"}, {"days": "Sun", "time": "Closed"}], "id": "7601200026", "name": "USPS COLLECTION BOX - PO LOBBY", "address": {"city": "ARLINGTON", "state": "TX", "street": "1009 OAKWOOD LN", "postcode": "76012"}}},
{"geometry": {"type": "Point", "coordinates": [-97.1403225345, 32.7493515481]}, "type": "Feature", "properties": {"collection_times": [{"days": "Mon-Fri", "time": "5:00pm"}, {"days": "Sat", "time": "4:00pm"}, {"days": "Sun", "time": "Closed"}], "id": "7601200027", "name": "USPS COLLECTION BOX - APC", "address": {"city": "ARLINGTON", "state": "TX", "street": "1009 OAKWOOD LN", "postcode": "76012"}}},
{"geometry": {"type": "Point", "coordinates": [-97.1306262002, 32.7358687374]}, "type": "Feature", "properties": {"collection_times": [{"days": "Mon-Fri", "time": "1:30pm"}, {"days": "Sat", "time": "11:45am"}, {"days": "Sun", "time": "Closed"}], "id": "7601300005", "name": "USPS COLLECTION BOX - BLUE BOX", "address": {"city": "PANTEGO", "state": "TX", "street": "1615 W ABRAM ST", "postcode": "76013"}}},
{"geometry": {"type": "Point", "coordinates": [-97.1224751882, 32.7088540753]}, "type": "Feature", "properties": {"collection_times": [{"days": "Mon-Fri", "time": "1:40pm"}, {"days": "Sat", "time": "11:45am"}, {"days": "Sun", "time": "Closed"}], "id": "7601300014", "name": "USPS COLLECTION BOX - BLUE BOX", "address": {"city": "PANTEGO", "state": "TX", "street": "1170 W PIONEER PKWY", "postcode": "76013"}}},
{"geometry": {"type": "Point", "coordinates": [-97.1706480679, 32.7139757158]}, "type": "Feature", "properties": {"collection_times": [{"days": "Mon-Fri", "time": "2:40pm"}, {"days": "Sat", "time": "12:45pm"}, {"days": "Sun", "time": "Closed"}], "id": "7601300023", "name": "USPS COLLECTION BOX - BLUE BOX", "address": {"city": "PANTEGO", "state": "TX", "street": "4025 WOODLAND PARK BLVD", "postcode": "76013"}}},
{"geometry": {"type": "Point", "coordinates": [-97.1319901518, 32.7078539032]}, "type": "Feature", "properties": {"collection_times": [{"days": "Mon-Fri", "time": "2:00pm"}, {"days": "Sat", "time": "12:15pm"}, {"days": "Sun", "time": "Closed"}], "id": "7601300026", "name": "USPS COLLECTION BOX - BLUE BOX", "address": {"city": "PANTEGO", "state": "TX", "street": "2210 S FIELDER RD", "postcode": "76013"}}},
{"geometry": {"type": "Point", "coordinates": [-97.1319901518, 32.7078539032]}, "type": "Feature", "properties": {"collection_times": [{"days": "Mon-Fri", "time": "2:00pm"}, {"days": "Sat", "time": "12:15pm"}, {"days": "Sun", "time": "Closed"}], "id": "7601300027", "name": "USPS COLLECTION BOX - BLUE BOX", "address": {"city": "PANTEGO", "state": "TX", "street": "2210 S FIELDER RD", "postcode": "76013"}}},
{"geometry": {"type": "Point", "coordinates": [-97.1224751882, 32.7088540753]}, "type": "Feature", "properties": {"collection_times": [{"days": "Mon-Fri", "time": "1:40pm"}, {"days": "Sat", "time": "11:45am"}, {"days": "Sun", "time": "Closed"}], "id": "7601300029", "name": "USPS COLLECTION BOX - BLUE BOX", "address": {"city": "PANTEGO", "state": "TX", "street": "1170 W PIONEER PKWY", "postcode": "76013"}}},
{"geometry": {"type": "Point", "coordinates": [-97.1224751882, 32.7088540753]}, "type": "Feature", "properties": {"collection_times": [{"days": "Mon-Fri", "time": "1:40pm"}, {"days": "Sat", "time": "11:45am"}, {"days": "Sun", "time": "Closed"}], "id": "7601300030", "name": "USPS COLLECTION BOX - BLUE BOX", "address": {"city": "PANTEGO", "state": "TX", "street": "1170 W PIONEER PKWY", "postcode": "76013"}}},
{"geometry": {"type": "Point", "coordinates": [-97.1491889808, 32.7245056679]}, "type": "Feature", "properties": {"collection_times": [{"days": "Mon-Fri", "time": "5:00pm"}, {"days": "Sat", "time": "12:00pm"}, {"days": "Sun", "time": "Closed"}], "id": "7601300033", "name": "USPS COLLECTION BOX - BLUE BOX", "address": {"city": "PANTEGO", "state": "TX", "street": "1114 S BOWEN RD", "postcode": "76013"}}},
{"geometry": {"type": "Point", "coordinates": [-97.1491889808, 32.7245056679]}, "type": "Feature", "properties": {"collection_times": [{"days": "Mon-Fri", "time": "5:00pm"}, {"days": "Sat", "time": "12:00pm"}, {"days": "Sun", "time": "Closed"}], "id": "7601300035", "name": "USPS COLLECTION BOX - BLUE BOX", "address": {"city": "PANTEGO", "state": "TX", "street": "1114 S BOWEN RD", "postcode": "76013"}}},
{"geometry": {"type": "Point", "coordinates": [-97.125910766, 32.7358383545]}, "type": "Feature", "properties": {"collection_times": [{"days": "Mon-Fri", "time": "1:15pm"}, {"days": "Sat", "time": "11:45am"}, {"days": "Sun", "time": "Closed"}], "id": "7601300043", "name": "USPS COLLECTION BOX - BLUE BOX", "address": {"city": "PANTEGO", "state": "TX", "street": "1309 W ABRAM ST", "postcode": "76013"}}},
{"geometry": {"type": "Point", "coordinates": [-97.1491889808, 32.7245056679]}, "type": "Feature", "properties": {"collection_times": [{"days": "Mon-Fri", "time": "5:00pm"}, {"days": "Sat", "time": "12:00pm"}, {"days": "Sun", "time": "Closed"}], "id": "7601300046", "name": "USPS COLLECTION BOX - PO LOBBY", "address": {"city": "PANTEGO", "state": "TX", "street": "1114 S BOWEN RD", "postcode": "76013"}}},
{"geometry": {"type": "Point", "coordinates": [-97.1655691226, 32.7214180465]}, "type": "Feature", "properties": {"collection_times": [{"days": "Mon-Fri", "time": "2:15pm"}, {"days": "Sat", "time": "12:30pm"}, {"days": "Sun", "time": "Closed"}], "id": "7601300047", "name": "USPS COLLECTION BOX - BLUE BOX", "address": {"city": "PANTEGO", "state": "TX", "street": "3607 W PARK ROW DR", "postcode": "76013"}}},
{"geometry": {"type": "Point", "coordinates": [-97.1636473167, 32.7115258078]}, "type": "Feature", "properties": {"collection_times": [{"days": "Mon-Fri", "time": "2:15pm"}, {"days": "Sat", "time": "1:30pm"}, {"days": "Sun", "time": "Closed"}], "id": "7601300048", "name": "USPS COLLECTION BOX - BLUE BOX", "address": {"city": "PANTEGO", "state": "TX", "street": "2200 SMITH BARRY RD", "postcode": "76013"}}},
{"geometry": {"type": "Point", "coordinates": [-97.1133502674, 32.6937400198]}, "type": "Feature", "properties": {"collection_times": [{"days": "Mon-Fri", "time": "1:00pm"}, {"days": "Sat", "time": "11:30am"}, {"days": "Sun", "time": "Closed"}], "id": "7601400005", "name": "USPS COLLECTION BOX - BLUE BOX", "address": {"city": "ARLINGTON", "state": "TX", "street": "601 OMEGA DR", "postcode": "76014"}}},
{"geometry": {"type": "Point", "coordinates": [-97.1375637857, 32.6834706816]}, "type": "Feature", "properties": {"collection_times": [{"days": "Mon-Fri", "time": "5:00pm"}, {"days": "Sat", "time": "4:00pm"}, {"days": "Sun", "time": "Closed"}], "id": "7601500002", "name": "USPS COLLECTION BOX - BLUE BOX", "address": {"city": "ARLINGTON", "state": "TX", "street": "3903 MELEAR DR", "postcode": "76015"}}},
{"geometry": {"type": "Point", "coordinates": [-97.1375637857, 32.6834706816]}, "type": "Feature", "properties": {"collection_times": [{"days": "Mon-Fri", "time": "5:00pm"}, {"days": "Sat", "time": "4:00pm"}, {"days": "Sun", "time": "Closed"}], "id": "7601500003", "name": "USPS COLLECTION BOX - PO LOBBY", "address": {"city": "ARLINGTON", "state": "TX", "street": "3903 MELEAR DR", "postcode": "76015"}}},
{"geometry": {"type": "Point", "coordinates": [-97.1146988407, 32.7010507062]}, "type": "Feature", "properties": {"collection_times": [{"days": "Mon-Sat", "time": "12:00pm"}, {"days": "Sun", "time": "Closed"}], "id": "7601500013", "name": "USPS COLLECTION BOX - BLUE BOX", "address": {"city": "ARLINGTON", "state": "TX", "street": "2623 MATLOCK RD", "postcode": "76015"}}},
{"geometry": {"type": "Point", "coordinates": [-97.1375637857, 32.6834706816]}, "type": "Feature", "properties": {"collection_times": [{"days": "Mon-Fri", "time": "5:00pm"}, {"days": "Sat", "time": "4:00pm"}, {"days": "Sun", "time": "Closed"}], "id": "7601500015", "name": "USPS COLLECTION BOX - BLUE BOX", "address": {"city": "ARLINGTON", "state": "TX", "street": "3903 MELEAR DR", "postcode": "76015"}}},
{"geometry": {"type": "Point", "coordinates": [-97.1375637857, 32.6834706816]}, "type": "Feature", "properties": {"collection_times": [{"days": "Mon-Fri", "time": "5:00pm"}, {"days": "Sat", "time": "4:00pm"}, {"days": "Sun", "time": "Closed"}], "id": "7601500024", "name": "USPS COLLECTION BOX - PO LOBBY", "address": {"city": "ARLINGTON", "state": "TX", "street": "3903 MELEAR DR", "postcode": "76015"}}},
{"geometry": {"type": "Point", "coordinates": [-97.1375637857, 32.6834706816]}, "type": "Feature", "properties": {"collection_times": [{"days": "Mon-Fri", "time": "5:00pm"}, {"days": "Sat", "time": "4:00pm"}, {"days": "Sun", "time": "Closed"}], "id": "7601500025", "name": "USPS COLLECTION BOX - BLUE BOX", "address": {"city": "ARLINGTON", "state": "TX", "street": "3903 MELEAR DR", "postcode": "76015"}}},
{"geometry": {"type": "Point", "coordinates": [-97.1887062158, 32.6895526224]}, "type": "Feature", "properties": {"collection_times": [{"days": "Mon-Fri", "time": "3:40pm"}, {"days": "Sat", "time": "1:15pm"}, {"days": "Sun", "time": "Closed"}], "id": "7601600001", "name": "USPS COLLECTION BOX - BLUE BOX", "address": {"city": "ARLINGTON", "state": "TX", "street": "4400 LITTLE RD", "postcode": "76016"}}},
{"geometry": {"type": "Point", "coordinates": [-97.1934886396, 32.6816643747]}, "type": "Feature", "properties": {"collection_times": [{"days": "Mon-Fri", "time": "3:00pm"}, {"days": "Sat", "time": "12:45pm"}, {"days": "Sun", "time": "Closed"}], "id": "7601600007", "name": "USPS COLLECTION BOX - BLUE BOX", "address": {"city": "ARLINGTON", "state": "TX", "street": "5701 W PLEASANT RIDGE RD", "postcode": "76016"}}},
{"geometry": {"type": "Point", "coordinates": [-97.1345496023, 32.6497681715]}, "type": "Feature", "properties": {"collection_times": [{"days": "Mon-Fri", "time": "4:00pm"}, {"days": "Sat", "time": "1:45pm"}, {"days": "Sun", "time": "Closed"}], "id": "7601700003", "name": "USPS COLLECTION BOX - BLUE BOX", "address": {"city": "ARLINGTON", "state": "TX", "street": "5975 S COOPER ST", "postcode": "76017"}}},
{"geometry": {"type": "Point", "coordinates": [-97.1060699239, 32.6755112893]}, "type": "Feature", "properties": {"collection_times": [{"days": "Mon-Fri", "time": "4:40pm"}, {"days": "Sat", "time": "2:15pm"}, {"days": "Sun", "time": "Closed"}], "id": "7601800001", "name": "USPS COLLECTION BOX - BLUE BOX", "address": {"city": "ARLINGTON", "state": "TX", "street": "4300 BELTWAY PL", "postcode": "76018"}}},
{"geometry": {"type": "Point", "coordinates": [-97.0885353372, 32.6732346091]}, "type": "Feature", "properties": {"collection_times": [{"days": "Mon-Fri", "time": "5:00pm"}, {"days": "Sat", "time": "2:30pm"}, {"days": "Sun", "time": "Closed"}], "id": "7601800003", "name": "USPS COLLECTION BOX - PO LOBBY", "address": {"city": "ARLINGTON", "state": "TX", "street": "1301 E BARDIN RD", "postcode": "76018"}}},
{"geometry": {"type": "Point", "coordinates": [-97.0885353372, 32.6732346091]}, "type": "Feature", "properties": {"collection_times": [{"days": "Mon-Fri", "time": "5:00pm"}, {"days": "Sat", "time": "2:30pm"}, {"days": "Sun", "time": "Closed"}], "id": "7601800006", "name": "USPS COLLECTION BOX - BLUE BOX", "address": {"city": "ARLINGTON", "state": "TX", "street": "1301 E BARDIN RD", "postcode": "76018"}}},
{"geometry": {"type": "Point", "coordinates": [-97.0885353372, 32.6732346091]}, "type": "Feature", "properties": {"collection_times": [{"days": "Mon-Fri", "time": "5:00pm"}, {"days": "Sat", "time": "2:30pm"}, {"days": "Sun", "time": "Closed"}], "id": "7601800007", "name": "USPS COLLECTION BOX - BLUE BOX", "address": {"city": "ARLINGTON", "state": "TX", "street": "1301 E BARDIN RD", "postcode": "76018"}}},
{"geometry": {"type": "Point", "coordinates": [-97.0885353372, 32.6732346091]}, "type": "Feature", "properties": {"collection_times": [{"days": "Mon-Fri", "time": "5:00pm"}, {"days": "Sat", "time": "2:30pm"}, {"days": "Sun", "time": "Closed"}], "id": "7601800008", "name": "USPS COLLECTION BOX - BLUE BOX", "address": {"city": "ARLINGTON", "state": "TX", "street": "1301 E BARDIN RD", "postcode": "76018"}}},
{"geometry": {"type": "Point", "coordinates": [-97.0885353372, 32.6732346091]}, "type": "Feature", "properties": {"collection_times": [{"days": "Mon-Fri", "time": "5:00pm"}, {"days": "Sat", "time": "2:30pm"}, {"days": "Sun", "time": "Closed"}], "id": "7601800009", "name": "USPS COLLECTION BOX - PO LOBBY", "address": {"city": "ARLINGTON", "state": "TX", "street": "1301 E BARDIN RD", "postcode": "76018"}}},
{"geometry": {"type": "Point", "coordinates": [-97.0652913765, 32.6609259211]}, "type": "Feature", "properties": {"collection_times": [{"days": "Mon-Fri", "time": "3:15pm"}, {"days": "Sat", "time": "2:45pm"}, {"days": "Sun", "time": "Closed"}], "id": "7601800013", "name": "USPS COLLECTION BOX - BLUE BOX", "address": {"city": "ARLINGTON", "state": "TX", "street": "2425 SE GREEN OAKS BLVD", "postcode": "76018"}}},
{"geometry": {"type": "Point", "coordinates": [-97.0885353372, 32.6732346091]}, "type": "Feature", "properties": {"collection_times": [{"days": "Mon-Fri", "time": "5:00pm"}, {"days": "Sat", "time": "2:30pm"}, {"days": "Sun", "time": "Closed"}], "id": "7601800014", "name": "USPS COLLECTION BOX - APC", "address": {"city": "ARLINGTON", "state": "TX", "street": "1301 E BARDIN RD", "postcode": "76018"}}},
{"geometry": {"type": "Point", "coordinates": [-97.5501815244, 32.9061450338]}, "type": "Feature", "properties": {"collection_times": [{"days": "Mon-Fri", "time": "4:30pm"}, {"days": "Sat", "time": "2:00pm"}, {"days": "Sun", "time": "Closed"}], "id": "7602000001", "name": "USPS COLLECTION BOX - PO LOBBY", "address": {"city": "AZLE", "state": "TX", "street": "409 COMMERCE ST", "postcode": "76020"}}},
{"geometry": {"type": "Point", "coordinates": [-97.5501815244, 32.9061450338]}, "type": "Feature", "properties": {"collection_times": [{"days": "Mon-Fri", "time": "4:30pm"}, {"days": "Sat", "time": "2:00pm"}, {"days": "Sun", "time": "Closed"}], "id": "7602000002", "name": "USPS COLLECTION BOX - PO LOBBY", "address": {"city": "AZLE", "state": "TX", "street": "409 COMMERCE ST", "postcode": "76020"}}},
{"geometry": {"type": "Point", "coordinates": [-97.5501815244, 32.9061450338]}, "type": "Feature", "properties": {"collection_times": [{"days": "Mon-Fri", "time": "4:30pm"}, {"days": "Sat", "time": "2:00pm"}, {"days": "Sun", "time": "Closed"}], "id": "7602000003", "name": "USPS COLLECTION BOX - PO LOBBY", "address": {"city": "AZLE", "state": "TX", "street": "409 COMMERCE ST", "postcode": "76020"}}},
{"geometry": {"type": "Point", "coordinates": [-97.5501815244, 32.9061450338]}, "type": "Feature", "properties": {"collection_times": [{"days": "Mon-Fri", "time": "4:30pm"}, {"days": "Sat", "time": "2:00pm"}, {"days": "Sun", "time": "Closed"}], "id": "7602000004", "name": "USPS COLLECTION BOX - BLUE BOX", "address": {"city": "AZLE", "state": "TX", "street": "409 COMMERCE ST", "postcode": "76020"}}},
{"geometry": {"type": "Point", "coordinates": [-97.5501815244, 32.9061450338]}, "type": "Feature", "properties": {"collection_times": [{"days": "Mon-Fri", "time": "4:30pm"}, {"days": "Sat", "time": "2:00pm"}, {"days": "Sun", "time": "Closed"}], "id": "7602000007", "name": "USPS COLLECTION BOX - BLUE BOX", "address": {"city": "AZLE", "state": "TX", "street": "409 COMMERCE ST", "postcode": "76020"}}},
{"geometry": {"type": "Point", "coordinates": [-97.5417600396, 32.8903194088]}, "type": "Feature", "properties": {"collection_times": [{"days": "Mon-Sat", "time": "2:30pm"}, {"days": "Sun", "time": "Closed"}], "id": "7602000018", "name": "USPS COLLECTION BOX - BLUE BOX", "address": {"city": "AZLE", "state": "TX", "street": "133 E MAIN ST", "postcode": "76020"}}},
{"geometry": {"type": "Point", "coordinates": [-97.1588894558, 32.8533069887]}, "type": "Feature", "properties": {"collection_times": [{"days": "Mon-Fri", "time": "2:30pm"}, {"days": "Sat", "time": "1:15pm"}, {"days": "Sun", "time": "Closed"}], "id": "7602100004", "name": "USPS COLLECTION BOX - BLUE BOX", "address": {"city": "BEDFORD", "state": "TX", "street": "601 HARWOOD RD", "postcode": "76021"}}},
{"geometry": {"type": "Point", "coordinates": [-97.1142493166, 32.851854809]}, "type": "Feature", "properties": {"collection_times": [{"days": "Mon-Fri", "time": "3:15pm"}, {"days": "Sat", "time": "2:15pm"}, {"days": "Sun", "time": "Closed"}], "id": "7602100006", "name": "USPS COLLECTION BOX - BLUE BOX", "address": {"city": "BEDFORD", "state": "TX", "street": "3300 HARWOOD RD", "postcode": "76021"}}},
{"geometry": {"type": "Point", "coordinates": [-97.1151992323, 32.838104783]}, "type": "Feature", "properties": {"collection_times": [{"days": "Mon-Sat", "time": "10:00am"}, {"days": "Sun", "time": "Closed"}], "id": "7602100007", "name": "USPS COLLECTION BOX - BLUE BOX", "address": {"city": "BEDFORD", "state": "TX", "street": "3301 AIRPORT FWY", "postcode": "76021"}}},
{"geometry": {"type": "Point", "coordinates": [-97.1342732732, 32.8521799773]}, "type": "Feature", "properties": {"collection_times": [{"days": "Mon-Fri", "time": "3:15pm"}, {"days": "Sat", "time": "2:15pm"}, {"days": "Sun", "time": "Closed"}], "id": "7602100008", "name": "USPS COLLECTION BOX - BLUE BOX", "address": {"city": "BEDFORD", "state": "TX", "street": "2109 HARWOOD RD", "postcode": "76021"}}},
{"geometry": {"type": "Point", "coordinates": [-97.108948453, 32.8517437297]}, "type": "Feature", "properties": {"collection_times": [{"days": "Mon-Sat", "time": "9:00am"}, {"days": "Sun", "time": "Closed"}], "id": "7602100011", "name": "USPS COLLECTION BOX - BLUE BOX", "address": {"city": "BEDFORD", "state": "TX", "street": "3500 HARWOOD RD", "postcode": "76021"}}},
{"geometry": {"type": "Point", "coordinates": [-97.1320753249, 32.8411580001]}, "type": "Feature", "properties": {"collection_times": [{"days": "Mon-Fri", "time": "4:30pm"}, {"days": "Sat", "time": "2:00pm"}, {"days": "Sun", "time": "Closed"}], "id": "7602100012", "name": "USPS COLLECTION BOX - BLUE BOX", "address": {"city": "BEDFORD", "state": "TX", "street": "2124 L DON DODSON DR", "postcode": "76021"}}},
{"geometry": {"type": "Point", "coordinates": [-97.1467842367, 32.8521524207]}, "type": "Feature", "properties": {"collection_times": [{"days": "Mon-Fri", "time": "5:00pm"}, {"days": "Sat", "time": "2:30pm"}, {"days": "Sun", "time": "Closed"}], "id": "7602100013", "name": "USPS COLLECTION BOX - BLUE BOX", "address": {"city": "BEDFORD", "state": "TX", "street": "1300 HARWOOD RD", "postcode": "76021"}}},
{"geometry": {"type": "Point", "coordinates": [-97.1320753249, 32.8411580001]}, "type": "Feature", "properties": {"collection_times": [{"days": "Mon-Fri", "time": "4:30pm"}, {"days": "Sat", "time": "2:00pm"}, {"days": "Sun", "time": "Closed"}], "id": "7602100041", "name": "USPS COLLECTION BOX - BLUE BOX", "address": {"city": "BEDFORD", "state": "TX", "street": "2124 L DON DODSON DR", "postcode": "76021"}}},
{"geometry": {"type": "Point", "coordinates": [-97.1320753249, 32.8411580001]}, "type": "Feature", "properties": {"collection_times": [{"days": "Mon-Fri", "time": "4:30pm"}, {"days": "Sat", "time": "2:00pm"}, {"days": "Sun", "time": "Closed"}], "id": "7602100042", "name": "USPS COLLECTION BOX - BLUE BOX", "address": {"city": "BEDFORD", "state": "TX", "street": "2124 L DON DODSON DR", "postcode": "76021"}}},
{"geometry": {"type": "Point", "coordinates": [-97.1320753249, 32.8411580001]}, "type": "Feature", "properties": {"collection_times": [{"days": "Mon-Fri", "time": "4:30pm"}, {"days": "Sat", "time": "2:00pm"}, {"days": "Sun", "time": "Closed"}], "id": "7602100043", "name": "USPS COLLECTION BOX - BLUE BOX", "address": {"city": "BEDFORD", "state": "TX", "street": "2124 L DON DODSON DR", "postcode": "76021"}}},
{"geometry": {"type": "Point", "coordinates": [-97.1321081741, 32.8499832604]}, "type": "Feature", "properties": {"collection_times": [{"days": "Mon-Fri", "time": "4:30pm"}, {"days": "Sat", "time": "2:00pm"}, {"days": "Sun", "time": "Closed"}], "id": "7602100044", "name": "USPS COLLECTION BOX - EXPRESS", "address": {"city": "BEDFORD", "state": "TX", "street": "2124 L DON DODSON DR", "postcode": "76021"}}},
{"geometry": {"type": "Point", "coordinates": [-97.1467842367, 32.8521524207]}, "type": "Feature", "properties": {"collection_times": [{"days": "Mon-Fri", "time": "5:00pm"}, {"days": "Sat", "time": "2:30pm"}, {"days": "Sun", "time": "Closed"}], "id": "7602100045", "name": "USPS COLLECTION BOX - BLUE BOX", "address": {"city": "BEDFORD", "state": "TX", "street": "1300 HARWOOD RD", "postcode": "76021"}}},
{"geometry": {"type": "Point", "coordinates": [-97.1321081741, 32.8499832604]}, "type": "Feature", "properties": {"collection_times": [{"days": "Mon-Fri", "time": "5:00pm"}, {"days": "Sat", "time": "2:30pm"}, {"days": "Sun", "time": "Closed"}], "id": "7602100046", "name": "USPS COLLECTION BOX - EXPRESS", "address": {"city": "BEDFORD", "state": "TX", "street": "1300 HARWOOD RD", "postcode": "76021"}}},
{"geometry": {"type": "Point", "coordinates": [-97.1335114371, 32.8383827784]}, "type": "Feature", "properties": {"collection_times": [{"days": "Mon-Fri", "time": "3:30pm"}, {"days": "Sat", "time": "1:45pm"}, {"days": "Sun", "time": "Closed"}], "id": "7602100047", "name": "USPS COLLECTION BOX - BLUE BOX", "address": {"city": "BEDFORD", "state": "TX", "street": "1901 CENTRAL DR", "postcode": "76021"}}},
{"geometry": {"type": "Point", "coordinates": [-97.1321081741, 32.8499832604]}, "type": "Feature", "properties": {"collection_times": [{"days": "Mon-Fri", "time": "2:30pm"}, {"days": "Sat", "time": "1:15pm"}, {"days": "Sun", "time": "Closed"}], "id": "7602100049", "name": "USPS COLLECTION BOX - BLUE BOX", "address": {"city": "BEDFORD", "state": "TX", "street": "2705 BROWN TRL", "postcode": "76021"}}},
{"geometry": {"type": "Point", "coordinates": [-97.1467842367, 32.8521524207]}, "type": "Feature", "properties": {"collection_times": [{"days": "Mon-Fri", "time": "5:00pm"}, {"days": "Sat", "time": "2:30pm"}, {"days": "Sun", "time": "Closed"}], "id": "7602100052", "name": "USPS COLLECTION BOX - PO LOBBY", "address": {"city": "BEDFORD", "state": "TX", "street": "1300 HARWOOD RD", "postcode": "76021"}}},
{"geometry": {"type": "Point", "coordinates": [-97.1467842367, 32.8521524207]}, "type": "Feature", "properties": {"collection_times": [{"days": "Mon-Fri", "time": "5:00pm"}, {"days": "Sat", "time": "2:30pm"}, {"days": "Sun", "time": "Closed"}], "id": "7602100054", "name": "USPS COLLECTION BOX - PO LOBBY", "address": {"city": "BEDFORD", "state": "TX", "street": "1300 HARWOOD RD", "postcode": "76021"}}},
{"geometry": {"type": "Point", "coordinates": [-97.1320753249, 32.8411580001]}, "type": "Feature", "properties": {"collection_times": [{"days": "Mon-Fri", "time": "4:30pm"}, {"days": "Sat-Sun", "time": "Closed"}], "id": "7602100056", "name": "USPS COLLECTION BOX - PO LOBBY", "address": {"city": "BEDFORD", "state": "TX", "street": "2124 L DON DODSON DR", "postcode": "76021"}}},
{"geometry": {"type": "Point", "coordinates": [-97.1320753249, 32.8411580001]}, "type": "Feature", "properties": {"collection_times": [{"days": "Mon-Fri", "time": "4:30pm"}, {"days": "Sat-Sun", "time": "Closed"}], "id": "7602100058", "name": "USPS COLLECTION BOX - PO LOBBY", "address": {"city": "BEDFORD", "state": "TX", "street": "2124 L DON DODSON DR", "postcode": "76021"}}},
{"geometry": {"type": "Point", "coordinates": [-97.1467842367, 32.8521524207]}, "type": "Feature", "properties": {"collection_times": [{"days": "Mon-Fri", "time": "5:00pm"}, {"days": "Sat", "time": "2:30pm"}, {"days": "Sun", "time": "Closed"}], "id": "7602100059", "name": "USPS COLLECTION BOX - PO LOBBY", "address": {"city": "BEDFORD", "state": "TX", "street": "1300 HARWOOD RD", "postcode": "76021"}}},
{"geometry": {"type": "Point", "coordinates": [-97.1467842367, 32.8521524207]}, "type": "Feature", "properties": {"collection_times": [{"days": "Mon-Fri", "time": "5:00pm"}, {"days": "Sat", "time": "2:30pm"}, {"days": "Sun", "time": "Closed"}], "id": "7602100060", "name": "USPS COLLECTION BOX - PO LOBBY", "address": {"city": "BEDFORD", "state": "TX", "street": "1300 HARWOOD RD", "postcode": "76021"}}},
{"geometry": {"type": "Point", "coordinates": [-97.1467842367, 32.8521524207]}, "type": "Feature", "properties": {"collection_times": [{"days": "Mon-Fri", "time": "5:00pm"}, {"days": "Sat", "time": "2:30pm"}, {"days": "Sun", "time": "Closed"}], "id": "7602100061", "name": "USPS COLLECTION BOX - APC", "address": {"city": "BEDFORD", "state": "TX", "street": "1300 HARWOOD RD", "postcode": "76021"}}},
{"geometry": {"type": "Point", "coordinates": [-97.1410149458, 32.8365728511]}, "type": "Feature", "properties": {"collection_times": [{"days": "Mon-Fri", "time": "2:45pm"}, {"days": "Sat", "time": "1:30pm"}, {"days": "Sun", "time": "Closed"}], "id": "7602200000", "name": "USPS COLLECTION BOX - BLUE BOX", "address": {"city": "BEDFORD", "state": "TX", "street": "1600 AIRPORT FWY", "postcode": "76022"}}},
{"geometry": {"type": "Point", "coordinates": [-97.1474313152, 32.8230054948]}, "type": "Feature", "properties": {"collection_times": [{"days": "Mon-Fri", "time": "2:45pm"}, {"days": "Sat", "time": "1:30pm"}, {"days": "Sun", "time": "Closed"}], "id": "7602200001", "name": "USPS COLLECTION BOX - BLUE BOX", "address": {"city": "BEDFORD", "state": "TX", "street": "801 FOREST RIDGE DR", "postcode": "76022"}}},
{"geometry": {"type": "Point", "coordinates": [-97.1613672769, 32.8351805379]}, "type": "Feature", "properties": {"collection_times": [{"days": "Mon-Fri", "time": "2:30pm"}, {"days": "Sat", "time": "1:15pm"}, {"days": "Sun", "time": "Closed"}], "id": "7602200003", "name": "USPS COLLECTION BOX - BLUE BOX", "address": {"city": "BEDFORD", "state": "TX", "street": "1309 BROWN TRL", "postcode": "76022"}}},
{"geometry": {"type": "Point", "coordinates": [-97.1401781804, 32.8328652335]}, "type": "Feature", "properties": {"collection_times": [{"days": "Mon-Sat", "time": "10:00am"}, {"days": "Sun", "time": "Closed"}], "id": "7602200005", "name": "USPS COLLECTION BOX - BLUE BOX", "address": {"city": "BEDFORD", "state": "TX", "street": "1710 OAK CREEK LN", "postcode": "76022"}}},
{"geometry": {"type": "Point", "coordinates": [-97.1333931412, 32.8320894367]}, "type": "Feature", "properties": {"collection_times": [{"days": "Mon-Fri", "time": "2:45pm"}, {"days": "Sat", "time": "1:30pm"}, {"days": "Sun", "time": "Closed"}], "id": "7602200006", "name": "USPS COLLECTION BOX - BLUE BOX", "address": {"city": "BEDFORD", "state": "TX", "street": "1600 CENTRAL DR", "postcode": "76022"}}},
{"geometry": {"type": "Point", "coordinates": [-97.1313407074, 32.8365633875]}, "type": "Feature", "properties": {"collection_times": [{"days": "Mon-Sat", "time": "10:00am"}, {"days": "Sun", "time": "Closed"}], "id": "7602200009", "name": "USPS COLLECTION BOX - BLUE BOX", "address": {"city": "BEDFORD", "state": "TX", "street": "2200 AIRPORT FWY", "postcode": "76022"}}},
{"geometry": {"type": "Point", "coordinates": [-97.1448086252, 32.8317603074]}, "type": "Feature", "properties": {"collection_times": [{"days": "Mon-Sat", "time": "9:00am"}, {"days": "Sun", "time": "Closed"}], "id": "7602200010", "name": "USPS COLLECTION BOX - BLUE BOX", "address": {"city": "BEDFORD", "state": "TX", "street": "1300 AIRPORT FWY", "postcode": "76022"}}},
{"geometry": {"type": "Point", "coordinates": [-97.1285454634, 32.8365107531]}, "type": "Feature", "properties": {"collection_times": [{"days": "Mon-Sat", "time": "12:00pm"}, {"days": "Sun", "time": "Closed"}], "id": "7602200014", "name": "USPS COLLECTION BOX - BLUE BOX", "address": {"city": "BEDFORD", "state": "TX", "street": "2350 AIRPORT FWY", "postcode": "76022"}}},
{"geometry": {"type": "Point", "coordinates": [-97.5579001639, 33.08169487]}, "type": "Feature", "properties": {"collection_times": [{"days": "Mon-Fri", "time": "4:30pm"}, {"days": "Sat", "time": "12:00pm"}, {"days": "Sun", "time": "Closed"}], "id": "7602300001", "name": "USPS COLLECTION BOX - BLUE BOX", "address": {"city": "BOYD", "state": "TX", "street": "121 N FM 730", "postcode": "76023"}}},
{"geometry": {"type": "Point", "coordinates": [-97.5579001639, 33.08169487]}, "type": "Feature", "properties": {"collection_times": [{"days": "Mon-Fri", "time": "4:30pm"}, {"days": "Sat-Sun", "time": "Closed"}], "id": "7602300004", "name": "USPS COLLECTION BOX - PO LOBBY", "address": {"city": "BOYD", "state": "TX", "street": "121 N FM 730", "postcode": "76023"}}},
{"geometry": {"type": "Point", "coordinates": [-97.5579001639, 33.08169487]}, "type": "Feature", "properties": {"collection_times": [{"days": "Mon-Fri", "time": "4:30pm"}, {"days": "Sat-Sun", "time": "Closed"}], "id": "7602300005", "name": "USPS COLLECTION BOX - PO LOBBY", "address": {"city": "BOYD", "state": "TX", "street": "121 N FM 730", "postcode": "76023"}}},
{"geometry": {"type": "Point", "coordinates": [-97.3369834571, 32.533217312]}, "type": "Feature", "properties": {"collection_times": [{"days": "Mon-Fri", "time": "2:30pm"}, {"days": "Sat", "time": "1:00pm"}, {"days": "Sun", "time": "Closed"}], "id": "7602800002", "name": "USPS COLLECTION BOX - BLUE BOX", "address": {"city": "BURLESON", "state": "TX", "street": "728 SW WILSHIRE BLVD", "postcode": "76028"}}},
{"geometry": {"type": "Point", "coordinates": [-97.3232930498, 32.5428121495]}, "type": "Feature", "properties": {"collection_times": [{"days": "Mon-Fri", "time": "2:30pm"}, {"days": "Sat", "time": "1:00pm"}, {"days": "Sun", "time": "Closed"}], "id": "7602800004", "name": "USPS COLLECTION BOX - BLUE BOX", "address": {"city": "BURLESON", "state": "TX", "street": "141 W RENFRO ST", "postcode": "76028"}}},
{"geometry": {"type": "Point", "coordinates": [-97.3271189587, 32.5410114626]}, "type": "Feature", "properties": {"collection_times": [{"days": "Mon-Fri", "time": "5:30pm"}, {"days": "Sat", "time": "1:30pm"}, {"days": "Sun", "time": "Closed"}], "id": "7602800008", "name": "USPS COLLECTION BOX - BLUE BOX", "address": {"city": "BURLESON", "state": "TX", "street": "232 SW JOHNSON AVE", "postcode": "76028"}}},
{"geometry": {"type": "Point", "coordinates": [-97.3271189587, 32.5410114626]}, "type": "Feature", "properties": {"collection_times": [{"days": "Mon-Fri", "time": "5:30pm"}, {"days": "Sat", "time": "1:30pm"}, {"days": "Sun", "time": "Closed"}], "id": "7602800009", "name": "USPS COLLECTION BOX - BLUE BOX", "address": {"city": "BURLESON", "state": "TX", "street": "232 SW JOHNSON AVE", "postcode": "76028"}}},
{"geometry": {"type": "Point", "coordinates": [-97.3124085224, 32.5365606337]}, "type": "Feature", "properties": {"collection_times": [{"days": "Mon-Fri", "time": "5:30pm"}, {"days": "Sat", "time": "1:30pm"}, {"days": "Sun", "time": "Closed"}], "id": "7602800012", "name": "USPS COLLECTION BOX - EXPRESS", "address": {"city": "BURLESON", "state": "TX", "street": "232 SW JOHNSON AVE", "postcode": "76028"}}},
{"geometry": {"type": "Point", "coordinates": [-97.2414435831, 32.577194923]}, "type": "Feature", "properties": {"collection_times": [{"days": "Mon-Sat", "time": "11:00am"}, {"days": "Sun", "time": "Closed"}], "id": "7602800013", "name": "USPS COLLECTION BOX - BLUE BOX", "address": {"city": "BURLESON", "state": "TX", "street": "12201 RENDON RD", "postcode": "76028"}}},
{"geometry": {"type": "Point", "coordinates": [-97.3271189587, 32.5410114626]}, "type": "Feature", "properties": {"collection_times": [{"days": "Mon-Fri", "time": "5:30pm"}, {"days": "Sat", "time": "1:30pm"}, {"days": "Sun", "time": "Closed"}], "id": "7602800015", "name": "USPS COLLECTION BOX - PO LOBBY", "address": {"city": "BURLESON", "state": "TX", "street": "232 SW JOHNSON AVE", "postcode": "76028"}}},
{"geometry": {"type": "Point", "coordinates": [-97.3271189587, 32.5410114626]}, "type": "Feature", "properties": {"collection_times": [{"days": "Mon-Fri", "time": "5:30pm"}, {"days": "Sat", "time": "1:30pm"}, {"days": "Sun", "time": "Closed"}], "id": "7602800016", "name": "USPS COLLECTION BOX - PO LOBBY", "address": {"city": "BURLESON", "state": "TX", "street": "232 SW JOHNSON AVE", "postcode": "76028"}}},
{"geometry": {"type": "Point", "coordinates": [-97.3271189587, 32.5410114626]}, "type": "Feature", "properties": {"collection_times": [{"days": "Mon-Fri", "time": "5:30pm"}, {"days": "Sat", "time": "1:30pm"}, {"days": "Sun", "time": "Closed"}], "id": "7602800017", "name": "USPS COLLECTION BOX - PO LOBBY", "address": {"city": "BURLESON", "state": "TX", "street": "232 SW JOHNSON AVE", "postcode": "76028"}}},
{"geometry": {"type": "Point", "coordinates": [-97.3124085224, 32.5365606337]}, "type": "Feature", "properties": {"collection_times": [{"days": "Mon-Fri", "time": "11:00am"}, {"days": "Sat", "time": "10:00am"}, {"days": "Sun", "time": "Closed"}], "id": "7602800018", "name": "USPS COLLECTION BOX - BLUE BOX", "address": {"city": "BURLESON", "state": "TX", "street": "11803 SOUTH FWY", "postcode": "76028"}}},
{"geometry": {"type": "Point", "coordinates": [-97.3271189587, 32.5410114626]}, "type": "Feature", "properties": {"collection_times": [{"days": "Mon-Fri", "time": "5:30pm"}, {"days": "Sat", "time": "1:30pm"}, {"days": "Sun", "time": "Closed"}], "id": "7602800019", "name": "USPS COLLECTION BOX - APC", "address": {"city": "BURLESON", "state": "TX", "street": "232 SW JOHNSON AVE", "postcode": "76028"}}},
{"geometry": {"type": "Point", "coordinates": [-97.385872211, 32.3476433425]}, "type": "Feature", "properties": {"collection_times": [{"days": "Mon-Sat", "time": "9:00am"}, {"days": "Sun", "time": "Closed"}], "id": "7603100003", "name": "USPS COLLECTION BOX - BLUE BOX", "address": {"city": "CLEBURNE", "state": "TX", "street": "101 E HENDERSON ST", "postcode": "76031"}}},
{"geometry": {"type": "Point", "coordinates": [-97.3849940111, 32.3413325051]}, "type": "Feature", "properties": {"collection_times": [{"days": "Mon-Sat", "time": "1:00pm"}, {"days": "Sun", "time": "Closed"}], "id": "7603100006", "name": "USPS COLLECTION BOX - BLUE BOX", "address": {"city": "CLEBURNE", "state": "TX", "street": "100 E WESTHILL DR", "postcode": "76031"}}},
{"geometry": {"type": "Point", "coordinates": [-97.372716261, 32.3514922701]}, "type": "Feature", "properties": {"collection_times": [{"days": "Mon-Sat", "time": "10:00am"}, {"days": "Sun", "time": "Closed"}], "id": "7603100019", "name": "USPS COLLECTION BOX - BLUE BOX", "address": {"city": "CLEBURNE", "state": "TX", "street": "1022 E HENDERSON ST", "postcode": "76031"}}},
{"geometry": {"type": "Point", "coordinates": [-97.3841314204, 32.3480914152]}, "type": "Feature", "properties": {"collection_times": [{"days": "Mon-Sat", "time": "4:15pm"}, {"days": "Sun", "time": "Closed"}], "id": "7603100046", "name": "USPS COLLECTION BOX - BLUE BOX", "address": {"city": "CLEBURNE", "state": "TX", "street": "300 E HENDERSON ST", "postcode": "76031"}}},
{"geometry": {"type": "Point", "coordinates": [-97.3869011974, 32.347550242]}, "type": "Feature", "properties": {"collection_times": [{"days": "Mon-Sat", "time": "4:15pm"}, {"days": "Sun", "time": "Closed"}], "id": "7603300000", "name": "USPS COLLECTION BOX - BLUE BOX", "address": {"city": "CLEBURNE", "state": "TX", "street": "110 W HENDERSON ST", "postcode": "76033"}}},
{"geometry": {"type": "Point", "coordinates": [-97.3912009033, 32.3608375972]}, "type": "Feature", "properties": {"collection_times": [{"days": "Mon-Sat", "time": "12:00pm"}, {"days": "Sun", "time": "Closed"}], "id": "7603300004", "name": "USPS COLLECTION BOX - BLUE BOX", "address": {"city": "CLEBURNE", "state": "TX", "street": "103 POINDEXTER AVE", "postcode": "76033"}}},
{"geometry": {"type": "Point", "coordinates": [-97.4101912991, 32.3379506066]}, "type": "Feature", "properties": {"collection_times": [{"days": "Mon-Sat", "time": "5:00pm"}, {"days": "Sun", "time": "Closed"}], "id": "7603300005", "name": "USPS COLLECTION BOX - PO LOBBY", "address": {"city": "CLEBURNE", "state": "TX", "street": "201 FAIRCREST DR", "postcode": "76033"}}},
{"geometry": {"type": "Point", "coordinates": [-97.4101912991, 32.3379506066]}, "type": "Feature", "properties": {"collection_times": [{"days": "Mon-Sat", "time": "5:00pm"}, {"days": "Sun", "time": "Closed"}], "id": "7603300006", "name": "USPS COLLECTION BOX - PO LOBBY", "address": {"city": "CLEBURNE", "state": "TX", "street": "201 FAIRCREST DR", "postcode": "76033"}}},
{"geometry": {"type": "Point", "coordinates": [-97.4101912991, 32.3379506066]}, "type": "Feature", "properties": {"collection_times": [{"days": "Mon-Sat", "time": "5:00pm"}, {"days": "Sun", "time": "Closed"}], "id": "7603300008", "name": "USPS COLLECTION BOX - PO LOBBY", "address": {"city": "CLEBURNE", "state": "TX", "street": "201 FAIRCREST DR", "postcode": "76033"}}},
{"geometry": {"type": "Point", "coordinates": [-97.4455963309, 32.3301364315]}, "type": "Feature", "properties": {"collection_times": [{"days": "Mon-Sat", "time": "11:00am"}, {"days": "Sun", "time": "Closed"}], "id": "7603300009", "name": "USPS COLLECTION BOX - BLUE BOX", "address": {"city": "CLEBURNE", "state": "TX", "street": "201 WALLS DR", "postcode": "76033"}}},
{"geometry": {"type": "Point", "coordinates": [-97.4097908111, 32.3422326434]}, "type": "Feature", "properties": {"collection_times": [{"days": "Mon-Sat", "time": "3:45pm"}, {"days": "Sun", "time": "Closed"}], "id": "7603300010", "name": "USPS COLLECTION BOX - BLUE BOX", "address": {"city": "CLEBURNE", "state": "TX", "street": "210 N RIDGEWAY DR", "postcode": "76033"}}},
{"geometry": {"type": "Point", "coordinates": [-97.3885202975, 32.344077851]}, "type": "Feature", "properties": {"collection_times": [{"days": "Mon-Sat", "time": "4:15pm"}, {"days": "Sun", "time": "Closed"}], "id": "7603300013", "name": "USPS COLLECTION BOX - BLUE BOX", "address": {"city": "CLEBURNE", "state": "TX", "street": "240 S BUFFALO AVE", "postcode": "76033"}}},
{"geometry": {"type": "Point", "coordinates": [-97.3906970407, 32.3601323361]}, "type": "Feature", "properties": {"collection_times": [{"days": "Mon-Sat", "time": "3:45pm"}, {"days": "Sun", "time": "Closed"}], "id": "7603300015", "name": "USPS COLLECTION BOX - BLUE BOX", "address": {"city": "CLEBURNE", "state": "TX", "street": "1122 N MAIN ST", "postcode": "76033"}}},
{"geometry": {"type": "Point", "coordinates": [-97.3885202975, 32.344077851]}, "type": "Feature", "properties": {"collection_times": [{"days": "Mon-Sat", "time": "4:15pm"}, {"days": "Sun", "time": "Closed"}], "id": "7603300016", "name": "USPS COLLECTION BOX - BLUE BOX", "address": {"city": "CLEBURNE", "state": "TX", "street": "240 S BUFFALO AVE", "postcode": "76033"}}},
{"geometry": {"type": "Point", "coordinates": [-97.4101912991, 32.3379506066]}, "type": "Feature", "properties": {"collection_times": [{"days": "Mon-Sat", "time": "5:00pm"}, {"days": "Sun", "time": "Closed"}], "id": "7603300017", "name": "USPS COLLECTION BOX - APC", "address": {"city": "CLEBURNE", "state": "TX", "street": "201 FAIRCREST DR", "postcode": "76033"}}},
{"geometry": {"type": "Point", "coordinates": [-97.1449423696, 32.8924250757]}, "type": "Feature", "properties": {"collection_times": [{"days": "Mon-Fri", "time": "5:00pm"}, {"days": "Sat", "time": "3:30pm"}, {"days": "Sun", "time": "Closed"}], "id": "7603400001", "name": "USPS COLLECTION BOX - PO LOBBY", "address": {"city": "COLLEYVILLE", "state": "TX", "street": "1501 HALL JOHNSON RD", "postcode": "76034"}}},
{"geometry": {"type": "Point", "coordinates": [-97.1573042907, 32.8794882365]}, "type": "Feature", "properties": {"collection_times": [{"days": "Mon-Fri", "time": "3:15pm"}, {"days": "Sat", "time": "11:15am"}, {"days": "Sun", "time": "Closed"}], "id": "7603400002", "name": "USPS COLLECTION BOX - BLUE BOX", "address": {"city": "COLLEYVILLE", "state": "TX", "street": "4709 COLLEYVILLE BLVD", "postcode": "76034"}}},
{"geometry": {"type": "Point", "coordinates": [-97.1489750767, 32.8907606525]}, "type": "Feature", "properties": {"collection_times": [{"days": "Mon-Fri", "time": "3:00pm"}, {"days": "Sat", "time": "11:00am"}, {"days": "Sun", "time": "Closed"}], "id": "7603400003", "name": "USPS COLLECTION BOX - BLUE BOX", "address": {"city": "COLLEYVILLE", "state": "TX", "street": "5600 COLLEYVILLE BLVD", "postcode": "76034"}}},
{"geometry": {"type": "Point", "coordinates": [-97.150954167, 32.8668234778]}, "type": "Feature", "properties": {"collection_times": [{"days": "Mon-Fri", "time": "3:15pm"}, {"days": "Sat", "time": "11:15am"}, {"days": "Sun", "time": "Closed"}], "id": "7603400004", "name": "USPS COLLECTION BOX - BLUE BOX", "address": {"city": "COLLEYVILLE", "state": "TX", "street": "1101 CHEEK SPARGER RD", "postcode": "76034"}}},
{"geometry": {"type": "Point", "coordinates": [-97.1013207577, 32.8814164596]}, "type": "Feature", "properties": {"collection_times": [{"days": "Mon-Fri", "time": "3:30pm"}, {"days": "Sat", "time": "11:30am"}, {"days": "Sun", "time": "Closed"}], "id": "7603400006", "name": "USPS COLLECTION BOX - BLUE BOX", "address": {"city": "COLLEYVILLE", "state": "TX", "street": "4000 GLADE RD", "postcode": "76034"}}},
{"geometry": {"type": "Point", "coordinates": [-97.1449423696, 32.8924250757]}, "type": "Feature", "properties": {"collection_times": [{"days": "Mon-Fri", "time": "5:00pm"}, {"days": "Sat", "time": "3:30pm"}, {"days": "Sun", "time": "Closed"}], "id": "7603400008", "name": "USPS COLLECTION BOX - PO LOBBY", "address": {"city": "COLLEYVILLE", "state": "TX", "street": "1501 HALL JOHNSON RD", "postcode": "76034"}}},
{"geometry": {"type": "Point", "coordinates": [-97.1449423696, 32.8924250757]}, "type": "Feature", "properties": {"collection_times": [{"days": "Mon-Fri", "time": "5:00pm"}, {"days": "Sat", "time": "3:30pm"}, {"days": "Sun", "time": "Closed"}], "id": "7603400010", "name": "USPS COLLECTION BOX - BLUE BOX", "address": {"city": "COLLEYVILLE", "state": "TX", "street": "1501 HALL JOHNSON RD", "postcode": "76034"}}},
{"geometry": {"type": "Point", "coordinates": [-97.1449423696, 32.8924250757]}, "type": "Feature", "properties": {"collection_times": [{"days": "Mon-Fri", "time": "5:00pm"}, {"days": "Sat", "time": "3:30pm"}, {"days": "Sun", "time": "Closed"}], "id": "7603400012", "name": "USPS COLLECTION BOX - BLUE BOX", "address": {"city": "COLLEYVILLE", "state": "TX", "street": "1501 HALL JOHNSON RD", "postcode": "76034"}}},
{"geometry": {"type": "Point", "coordinates": [-97.1400839571, 32.9020342514]}, "type": "Feature", "properties": {"collection_times": [{"days": "Mon-Fri", "time": "3:00pm"}, {"days": "Sat", "time": "11:00am"}, {"days": "Sun", "time": "Closed"}], "id": "7603400015", "name": "USPS COLLECTION BOX - BLUE BOX", "address": {"city": "COLLEYVILLE", "state": "TX", "street": "1800 INDUSTRIAL BLVD", "postcode": "76034"}}},
{"geometry": {"type": "Point", "coordinates": [-97.1615631568, 32.8887977426]}, "type": "Feature", "properties": {"collection_times": [{"days": "Mon-Fri", "time": "3:00pm"}, {"days": "Sat", "time": "11:00am"}, {"days": "Sun", "time": "Closed"}], "id": "7603400016", "name": "USPS COLLECTION BOX - BLUE BOX", "address": {"city": "COLLEYVILLE", "state": "TX", "street": "5400 BRANSFORD RD", "postcode": "76034"}}},
{"geometry": {"type": "Point", "coordinates": [-97.1449423696, 32.8924250757]}, "type": "Feature", "properties": {"collection_times": [{"days": "Mon-Fri", "time": "5:00pm"}, {"days": "Sat", "time": "3:30pm"}, {"days": "Sun", "time": "Closed"}], "id": "7603400017", "name": "USPS COLLECTION BOX - PO LOBBY", "address": {"city": "COLLEYVILLE", "state": "TX", "street": "1501 HALL JOHNSON RD", "postcode": "76034"}}},
{"geometry": {"type": "Point", "coordinates": [-97.1013207577, 32.8814164596]}, "type": "Feature", "properties": {"collection_times": [{"days": "Mon-Fri", "time": "3:30pm"}, {"days": "Sat", "time": "11:30am"}, {"days": "Sun", "time": "Closed"}], "id": "7603400018", "name": "USPS COLLECTION BOX - BLUE BOX", "address": {"city": "COLLEYVILLE", "state": "TX", "street": "4000 GLADE RD", "postcode": "76034"}}},
{"geometry": {"type": "Point", "coordinates": [-97.1013207577, 32.8814164596]}, "type": "Feature", "properties": {"collection_times": [{"days": "Mon-Fri", "time": "3:30pm"}, {"days": "Sat", "time": "11:30am"}, {"days": "Sun", "time": "Closed"}], "id": "7603400019", "name": "USPS COLLECTION BOX - BLUE BOX", "address": {"city": "COLLEYVILLE", "state": "TX", "street": "4000 GLADE RD", "postcode": "76034"}}},
{"geometry": {"type": "Point", "coordinates": [-97.1449423696, 32.8924250757]}, "type": "Feature", "properties": {"collection_times": [{"days": "Mon-Fri", "time": "5:00pm"}, {"days": "Sat", "time": "3:30pm"}, {"days": "Sun", "time": "Closed"}], "id": "7603400020", "name": "USPS COLLECTION BOX - APC", "address": {"city": "COLLEYVILLE", "state": "TX", "street": "1501 HALL JOHNSON RD", "postcode": "76034"}}},
{"geometry": {"type": "Point", "coordinates": [-97.6198984349, 32.5320069916]}, "type": "Feature", "properties": {"collection_times": [{"days": "Mon-Fri", "time": "4:00pm"}, {"days": "Sat", "time": "11:00am"}, {"days": "Sun", "time": "Closed"}], "id": "7603500001", "name": "USPS COLLECTION BOX - BLUE BOX", "address": {"city": "CRESSON", "state": "TX", "street": "9300 PITTSBURG ST", "postcode": "76035"}}},
{"geometry": {"type": "Point", "coordinates": [-97.6198984349, 32.5320069916]}, "type": "Feature", "properties": {"collection_times": [{"days": "Mon-Fri", "time": "4:00pm"}, {"days": "Sat", "time": "11:00am"}, {"days": "Sun", "time": "Closed"}], "id": "7603500003", "name": "USPS COLLECTION BOX - PO LOBBY", "address": {"city": "CRESSON", "state": "TX", "street": "9300 PITTSBURG ST", "postcode": "76035"}}},
{"geometry": {"type": "Point", "coordinates": [-97.6198984349, 32.5320069916]}, "type": "Feature", "properties": {"collection_times": [{"days": "Mon-Fri", "time": "4:00pm"}, {"days": "Sat", "time": "11:00am"}, {"days": "Sun", "time": "Closed"}], "id": "7603500004", "name": "USPS COLLECTION BOX - PO LOBBY", "address": {"city": "CRESSON", "state": "TX", "street": "9300 PITTSBURG ST", "postcode": "76035"}}},
{"geometry": {"type": "Point", "coordinates": [-97.353354893, 32.5765115891]}, "type": "Feature", "properties": {"collection_times": [{"days": "Mon-Fri", "time": "4:30pm"}, {"days": "Sat", "time": "1:30pm"}, {"days": "Sun", "time": "Closed"}], "id": "7603600001", "name": "USPS COLLECTION BOX - BLUE BOX", "address": {"city": "CROWLEY", "state": "TX", "street": "200 S CROWLEY RD", "postcode": "76036"}}},
{"geometry": {"type": "Point", "coordinates": [-97.353354893, 32.5765115891]}, "type": "Feature", "properties": {"collection_times": [{"days": "Mon-Fri", "time": "4:30pm"}, {"days": "Sat", "time": "1:30pm"}, {"days": "Sun", "time": "Closed"}], "id": "7603600003", "name": "USPS COLLECTION BOX - PO LOBBY", "address": {"city": "CROWLEY", "state": "TX", "street": "200 S CROWLEY RD", "postcode": "76036"}}},
{"geometry": {"type": "Point", "coordinates": [-97.4252743843, 32.5460092182]}, "type": "Feature", "properties": {"collection_times": [{"days": "Mon-Sat", "time": "8:45am"}, {"days": "Sun", "time": "Closed"}], "id": "7603600007", "name": "USPS COLLECTION BOX - BLUE BOX", "address": {"city": "CROWLEY", "state": "TX", "street": "10901 FM 1902", "postcode": "76036"}}},
{"geometry": {"type": "Point", "coordinates": [-97.073713341, 32.8485816564]}, "type": "Feature", "properties": {"collection_times": [{"days": "Mon-Sat", "time": "12:00pm"}, {"days": "Sun", "time": "Closed"}], "id": "7603900004", "name": "USPS COLLECTION BOX - BLUE BOX", "address": {"city": "EULESS", "state": "TX", "street": "600 E DENTON DR", "postcode": "76039"}}},
{"geometry": {"type": "Point", "coordinates": [-97.0686963291, 32.8579214193]}, "type": "Feature", "properties": {"collection_times": [{"days": "Mon-Fri", "time": "2:45pm"}, {"days": "Sat", "time": "3:30pm"}, {"days": "Sun", "time": "Closed"}], "id": "7603900006", "name": "USPS COLLECTION BOX - BLUE BOX", "address": {"city": "EULESS", "state": "TX", "street": "1600 BEAR CREEK PKWY", "postcode": "76039"}}},
{"geometry": {"type": "Point", "coordinates": [-97.0825602115, 32.8503969096]}, "type": "Feature", "properties": {"collection_times": [{"days": "Mon-Fri", "time": "3:00pm"}, {"days": "Sat", "time": "3:45pm"}, {"days": "Sun", "time": "Closed"}], "id": "7603900008", "name": "USPS COLLECTION BOX - BLUE BOX", "address": {"city": "EULESS", "state": "TX", "street": "1060 N MAIN ST", "postcode": "76039"}}},
{"geometry": {"type": "Point", "coordinates": [-97.0831284418, 32.8721480762]}, "type": "Feature", "properties": {"collection_times": [{"days": "Mon-Fri", "time": "3:00pm"}, {"days": "Sat", "time": "3:30pm"}, {"days": "Sun", "time": "Closed"}], "id": "7603900009", "name": "USPS COLLECTION BOX - BLUE BOX", "address": {"city": "EULESS", "state": "TX", "street": "2501 N MAIN ST", "postcode": "76039"}}},
{"geometry": {"type": "Point", "coordinates": [-97.0833267974, 32.8575001199]}, "type": "Feature", "properties": {"collection_times": [{"days": "Mon-Fri", "time": "5:00pm"}, {"days": "Sat", "time": "4:00pm"}, {"days": "Sun", "time": "Closed"}], "id": "7603900038", "name": "USPS COLLECTION BOX - EXPRESS", "address": {"city": "EULESS", "state": "TX", "street": "210 N ECTOR DR", "postcode": "76039"}}},
{"geometry": {"type": "Point", "coordinates": [-97.0917943892, 32.8405724354]}, "type": "Feature", "properties": {"collection_times": [{"days": "Mon-Fri", "time": "5:00pm"}, {"days": "Sat", "time": "4:00pm"}, {"days": "Sun", "time": "Closed"}], "id": "7603900045", "name": "USPS COLLECTION BOX - PO LOBBY", "address": {"city": "EULESS", "state": "TX", "street": "210 N ECTOR DR", "postcode": "76039"}}},
{"geometry": {"type": "Point", "coordinates": [-97.0917943892, 32.8405724354]}, "type": "Feature", "properties": {"collection_times": [{"days": "Mon-Fri", "time": "5:00pm"}, {"days": "Sat", "time": "4:00pm"}, {"days": "Sun", "time": "Closed"}], "id": "7603900046", "name": "USPS COLLECTION BOX - PO LOBBY", "address": {"city": "EULESS", "state": "TX", "street": "210 N ECTOR DR", "postcode": "76039"}}},
{"geometry": {"type": "Point", "coordinates": [-97.0917943892, 32.8405724354]}, "type": "Feature", "properties": {"collection_times": [{"days": "Mon-Fri", "time": "5:00pm"}, {"days": "Sat", "time": "4:00pm"}, {"days": "Sun", "time": "Closed"}], "id": "7603900047", "name": "USPS COLLECTION BOX - APC", "address": {"city": "EULESS", "state": "TX", "street": "210 N ECTOR DR", "postcode": "76039"}}},
{"geometry": {"type": "Point", "coordinates": [-97.0917943892, 32.8405724354]}, "type": "Feature", "properties": {"collection_times": [{"days": "Mon-Fri", "time": "5:00pm"}, {"days": "Sat", "time": "4:00pm"}, {"days": "Sun", "time": "Closed"}], "id": "7603900048", "name": "USPS COLLECTION BOX - BLUE BOX", "address": {"city": "EULESS", "state": "TX", "street": "210 N ECTOR DR", "postcode": "76039"}}},
{"geometry": {"type": "Point", "coordinates": [-97.091511597, 32.8398967168]}, "type": "Feature", "properties": {"collection_times": [{"days": "Mon-Fri", "time": "5:00pm"}, {"days": "Sat", "time": "4:00pm"}, {"days": "Sun", "time": "Closed"}], "id": "7603900049", "name": "USPS COLLECTION BOX - BLUE BOX", "address": {"city": "EULESS", "state": "TX", "street": "210 N ECTOR DR", "postcode": "76039"}}},
{"geometry": {"type": "Point", "coordinates": [-97.068962209, 32.867497503]}, "type": "Feature", "properties": {"collection_times": [{"days": "Mon-Sat", "time": "12:00pm"}, {"days": "Sun", "time": "Closed"}], "id": "7603900050", "name": "USPS COLLECTION BOX - BLUE BOX", "address": {"city": "EULESS", "state": "TX", "street": "801 E MID CITIES BLVD STE 300", "postcode": "76039"}}},
{"geometry": {"type": "Point", "coordinates": [-97.0967367917, 32.8301328225]}, "type": "Feature", "properties": {"collection_times": [{"days": "Mon-Fri", "time": "2:30pm"}, {"days": "Sat", "time": "3:00pm"}, {"days": "Sun", "time": "Closed"}], "id": "7604000007", "name": "USPS COLLECTION BOX - BLUE BOX", "address": {"city": "EULESS", "state": "TX", "street": "1001 W EULESS BLVD", "postcode": "76040"}}},
{"geometry": {"type": "Point", "coordinates": [-97.1172141362, 32.8224061858]}, "type": "Feature", "properties": {"collection_times": [{"days": "Mon-Sat", "time": "12:00pm"}, {"days": "Sun", "time": "Closed"}], "id": "7604000010", "name": "USPS COLLECTION BOX - BLUE BOX", "address": {"city": "EULESS", "state": "TX", "street": "2101 W EULESS BLVD", "postcode": "76040"}}},
{"geometry": {"type": "Point", "coordinates": [-97.1198612736, 32.8328394327]}, "type": "Feature", "properties": {"collection_times": [{"days": "Mon-Fri", "time": "2:00pm"}, {"days": "Sat", "time": "2:30pm"}, {"days": "Sun", "time": "Closed"}], "id": "7604000025", "name": "USPS COLLECTION BOX - BLUE BOX", "address": {"city": "EULESS", "state": "TX", "street": "350 WESTPARK WAY", "postcode": "76040"}}},
{"geometry": {"type": "Point", "coordinates": [-97.1014473343, 32.8372530525]}, "type": "Feature", "properties": {"collection_times": [{"days": "Mon-Sat", "time": "2:15pm"}, {"days": "Sun", "time": "Closed"}], "id": "7604000026", "name": "USPS COLLECTION BOX - BLUE BOX", "address": {"city": "EULESS", "state": "TX", "street": "1201 AIRPORT FWY", "postcode": "76040"}}},
{"geometry": {"type": "Point", "coordinates": [-97.0997397572, 32.8316738873]}, "type": "Feature", "properties": {"collection_times": [{"days": "Mon-Sat", "time": "9:00am"}, {"days": "Sun", "time": "Closed"}], "id": "7604000029", "name": "USPS COLLECTION BOX - BLUE BOX", "address": {"city": "EULESS", "state": "TX", "street": "400 S INDUSTRIAL BLVD", "postcode": "76040"}}},
{"geometry": {"type": "Point", "coordinates": [-97.0661383751, 32.8225559704]}, "type": "Feature", "properties": {"collection_times": [{"days": "Mon-Fri", "time": "2:30pm"}, {"days": "Sat", "time": "3:15pm"}, {"days": "Sun", "time": "Closed"}], "id": "7604000032", "name": "USPS COLLECTION BOX - BLUE BOX", "address": {"city": "EULESS", "state": "TX", "street": "13900 TRINITY BLVD", "postcode": "76040"}}},
{"geometry": {"type": "Point", "coordinates": [-96.8371438018, 32.240427177]}, "type": "Feature", "properties": {"collection_times": [{"days": "Mon-Fri", "time": "11:45am"}, {"days": "Sat", "time": "9:00am"}, {"days": "Sun", "time": "Closed"}], "id": "7604100002", "name": "USPS COLLECTION BOX - PO LOBBY", "address": {"city": "FORRESTON", "state": "TX", "street": "406 CHERRY ST", "postcode": "76041"}}},
{"geometry": {"type": "Point", "coordinates": [-97.7554108769, 32.2390286593]}, "type": "Feature", "properties": {"collection_times": [{"days": "Mon-Fri", "time": "4:00pm"}, {"days": "Sat", "time": "12:00pm"}, {"days": "Sun", "time": "Closed"}], "id": "7604300001", "name": "USPS COLLECTION BOX - BLUE BOX", "address": {"city": "GLEN ROSE", "state": "TX", "street": "500 NE BIG BEND TRL", "postcode": "76043"}}},
{"geometry": {"type": "Point", "coordinates": [-97.7554108769, 32.2390286593]}, "type": "Feature", "properties": {"collection_times": [{"days": "Mon-Fri", "time": "4:00pm"}, {"days": "Sat", "time": "12:00pm"}, {"days": "Sun", "time": "Closed"}], "id": "7604300002", "name": "USPS COLLECTION BOX - PO LOBBY", "address": {"city": "GLEN ROSE", "state": "TX", "street": "500 NE BIG BEND TRL", "postcode": "76043"}}},
{"geometry": {"type": "Point", "coordinates": [-97.529376978, 32.4454742695]}, "type": "Feature", "properties": {"collection_times": [{"days": "Mon-Fri", "time": "4:30pm"}, {"days": "Sat", "time": "11:30am"}, {"days": "Sun", "time": "Closed"}], "id": "7604400001", "name": "USPS COLLECTION BOX - BLUE BOX", "address": {"city": "GODLEY", "state": "TX", "street": "100 S MAIN ST", "postcode": "76044"}}},
{"geometry": {"type": "Point", "coordinates": [-97.529376978, 32.4454742695]}, "type": "Feature", "properties": {"collection_times": [{"days": "Mon-Fri", "time": "4:30pm"}, {"days": "Sat", "time": "11:30am"}, {"days": "Sun", "time": "Closed"}], "id": "7604400003", "name": "USPS COLLECTION BOX - PO LOBBY", "address": {"city": "GODLEY", "state": "TX", "street": "100 S MAIN ST", "postcode": "76044"}}},
{"geometry": {"type": "Point", "coordinates": [-97.7879616401, 32.4436627384]}, "type": "Feature", "properties": {"collection_times": [{"days": "Mon-Fri", "time": "2:30pm"}, {"days": "Sat-Sun", "time": "Closed"}], "id": "7604800001", "name": "USPS COLLECTION BOX - BLUE BOX", "address": {"city": "GRANBURY", "state": "TX", "street": "116 W BRIDGE ST", "postcode": "76048"}}},
{"geometry": {"type": "Point", "coordinates": [-97.794268955, 32.4423800776]}, "type": "Feature", "properties": {"collection_times": [{"days": "Mon-Fri", "time": "2:30pm"}, {"days": "Sat-Sun", "time": "Closed"}], "id": "7604800005", "name": "USPS COLLECTION BOX - BLUE BOX", "address": {"city": "GRANBURY", "state": "TX", "street": "600 W PEARL ST", "postcode": "76048"}}},
{"geometry": {"type": "Point", "coordinates": [-97.793890024, 32.4319286384]}, "type": "Feature", "properties": {"collection_times": [{"days": "Mon-Fri", "time": "2:45pm"}, {"days": "Sat", "time": "2:00pm"}, {"days": "Sun", "time": "Closed"}], "id": "7604800006", "name": "USPS COLLECTION BOX - BLUE BOX", "address": {"city": "GRANBURY", "state": "TX", "street": "1415 S MORGAN ST", "postcode": "76048"}}},
{"geometry": {"type": "Point", "coordinates": [-97.8034185897, 32.4313712082]}, "type": "Feature", "properties": {"collection_times": [{"days": "Mon-Fri", "time": "2:30pm"}, {"days": "Sat-Sun", "time": "Closed"}], "id": "7604800007", "name": "USPS COLLECTION BOX - BLUE BOX", "address": {"city": "GRANBURY", "state": "TX", "street": "1308 PALUXY RD", "postcode": "76048"}}},
{"geometry": {"type": "Point", "coordinates": [-97.7651516043, 32.4382314573]}, "type": "Feature", "properties": {"collection_times": [{"days": "Mon-Fri", "time": "2:45pm"}, {"days": "Sat", "time": "2:15pm"}, {"days": "Sun", "time": "Closed"}], "id": "7604800011", "name": "USPS COLLECTION BOX - BLUE BOX", "address": {"city": "GRANBURY", "state": "TX", "street": "1420 E HIGHWAY 377", "postcode": "76048"}}},
{"geometry": {"type": "Point", "coordinates": [-97.7877123579, 32.442036786]}, "type": "Feature", "properties": {"collection_times": [{"days": "Mon-Fri", "time": "2:30pm"}, {"days": "Sat-Sun", "time": "Closed"}], "id": "7604800012", "name": "USPS COLLECTION BOX - BLUE BOX", "address": {"city": "GRANBURY", "state": "TX", "street": "116 S HOUSTON ST", "postcode": "76048"}}},
{"geometry": {"type": "Point", "coordinates": [-97.7911586084, 32.4290130576]}, "type": "Feature", "properties": {"collection_times": [{"days": "Mon-Fri", "time": "4:30pm"}, {"days": "Sat", "time": "2:15pm"}, {"days": "Sun", "time": "Closed"}], "id": "7604800015", "name": "USPS COLLECTION BOX - EXPRESS", "address": {"city": "GRANBURY", "state": "TX", "street": "530 N CROCKETT ST", "postcode": "76048"}}},
{"geometry": {"type": "Point", "coordinates": [-97.7944536266, 32.4370735234]}, "type": "Feature", "properties": {"collection_times": [{"days": "Mon-Fri", "time": "2:30pm"}, {"days": "Sat", "time": "2:00pm"}, {"days": "Sun", "time": "Closed"}], "id": "7604800016", "name": "USPS COLLECTION BOX - BLUE BOX", "address": {"city": "GRANBURY", "state": "TX", "street": "700 PALUXY RD", "postcode": "76048"}}},
{"geometry": {"type": "Point", "coordinates": [-97.7864761607, 32.4465913301]}, "type": "Feature", "properties": {"collection_times": [{"days": "Mon-Fri", "time": "4:30pm"}, {"days": "Sat", "time": "2:15pm"}, {"days": "Sun", "time": "Closed"}], "id": "7604800019", "name": "USPS COLLECTION BOX - BLUE BOX", "address": {"city": "GRANBURY", "state": "TX", "street": "530 N CROCKETT ST", "postcode": "76048"}}},
{"geometry": {"type": "Point", "coordinates": [-97.7864761607, 32.4465913301]}, "type": "Feature", "properties": {"collection_times": [{"days": "Mon-Fri", "time": "4:30pm"}, {"days": "Sat", "time": "2:15pm"}, {"days": "Sun", "time": "Closed"}], "id": "7604800020", "name": "USPS COLLECTION BOX - BLUE BOX", "address": {"city": "GRANBURY", "state": "TX", "street": "530 N CROCKETT ST", "postcode": "76048"}}},
{"geometry": {"type": "Point", "coordinates": [-97.7864761607, 32.4465913301]}, "type": "Feature", "properties": {"collection_times": [{"days": "Mon-Fri", "time": "4:30pm"}, {"days": "Sat", "time": "2:15pm"}, {"days": "Sun", "time": "Closed"}], "id": "7604800027", "name": "USPS COLLECTION BOX - BLUE BOX", "address": {"city": "GRANBURY", "state": "TX", "street": "530 N CROCKETT ST", "postcode": "76048"}}},
{"geometry": {"type": "Point", "coordinates": [-97.7864761607, 32.4465913301]}, "type": "Feature", "properties": {"collection_times": [{"days": "Mon-Fri", "time": "4:30pm"}, {"days": "Sat", "time": "2:15pm"}, {"days": "Sun", "time": "Closed"}], "id": "7604800028", "name": "USPS COLLECTION BOX - PO LOBBY", "address": {"city": "GRANBURY", "state": "TX", "street": "530 N CROCKETT ST", "postcode": "76048"}}},
{"geometry": {"type": "Point", "coordinates": [-97.7864761607, 32.4465913301]}, "type": "Feature", "properties": {"collection_times": [{"days": "Mon-Fri", "time": "4:30pm"}, {"days": "Sat", "time": "2:15pm"}, {"days": "Sun", "time": "Closed"}], "id": "7604800029", "name": "USPS COLLECTION BOX - PO LOBBY", "address": {"city": "GRANBURY", "state": "TX", "street": "530 N CROCKETT ST", "postcode": "76048"}}},
{"geometry": {"type": "Point", "coordinates": [-97.7792615761, 32.4343581267]}, "type": "Feature", "properties": {"collection_times": [{"days": "Mon-Fri", "time": "2:45pm"}, {"days": "Sat", "time": "2:00pm"}, {"days": "Sun", "time": "Closed"}], "id": "7604800030", "name": "USPS COLLECTION BOX - BLUE BOX", "address": {"city": "GRANBURY", "state": "TX", "street": "735 E HIGHWAY 377", "postcode": "76048"}}},
{"geometry": {"type": "Point", "coordinates": [-97.7172761349, 32.4432212255]}, "type": "Feature", "properties": {"collection_times": [{"days": "Mon-Fri", "time": "4:30pm"}, {"days": "Sat", "time": "12:45pm"}, {"days": "Sun", "time": "Closed"}], "id": "7604900000", "name": "USPS COLLECTION BOX - EXPRESS", "address": {"city": "GRANBURY", "state": "TX", "street": "5561 N GATE RD", "postcode": "76049"}}},
{"geometry": {"type": "Point", "coordinates": [-97.6935464316, 32.4447984767]}, "type": "Feature", "properties": {"collection_times": [{"days": "Mon-Fri", "time": "4:30pm"}, {"days": "Sat", "time": "12:45pm"}, {"days": "Sun", "time": "Closed"}], "id": "7604900001", "name": "USPS COLLECTION BOX - BLUE BOX", "address": {"city": "GRANBURY", "state": "TX", "street": "5561 N GATE RD", "postcode": "76049"}}},
{"geometry": {"type": "Point", "coordinates": [-97.6935464316, 32.4447984767]}, "type": "Feature", "properties": {"collection_times": [{"days": "Mon-Fri", "time": "4:30pm"}, {"days": "Sat", "time": "12:45pm"}, {"days": "Sun", "time": "Closed"}], "id": "7604900002", "name": "USPS COLLECTION BOX - BLUE BOX", "address": {"city": "GRANBURY", "state": "TX", "street": "5561 N GATE RD", "postcode": "76049"}}},
{"geometry": {"type": "Point", "coordinates": [-97.6935464316, 32.4447984767]}, "type": "Feature", "properties": {"collection_times": [{"days": "Mon-Fri", "time": "4:30pm"}, {"days": "Sat", "time": "12:45pm"}, {"days": "Sun", "time": "Closed"}], "id": "7604900003", "name": "USPS COLLECTION BOX - PO LOBBY", "address": {"city": "GRANBURY", "state": "TX", "street": "5561 N GATE RD", "postcode": "76049"}}},
{"geometry": {"type": "Point", "coordinates": [-97.6935464316, 32.4447984767]}, "type": "Feature", "properties": {"collection_times": [{"days": "Mon-Fri", "time": "4:30pm"}, {"days": "Sat", "time": "12:45pm"}, {"days": "Sun", "time": "Closed"}], "id": "7604900004", "name": "USPS COLLECTION BOX - PO LOBBY", "address": {"city": "GRANBURY", "state": "TX", "street": "5561 N GATE RD", "postcode": "76049"}}},
{"geometry": {"type": "Point", "coordinates": [-97.6935464316, 32.4447984767]}, "type": "Feature", "properties": {"collection_times": [{"days": "Mon-Fri", "time": "4:30pm"}, {"days": "Sat", "time": "12:45pm"}, {"days": "Sun", "time": "Closed"}], "id": "7604900005", "name": "USPS COLLECTION BOX - PO LOBBY", "address": {"city": "GRANBURY", "state": "TX", "street": "5561 N GATE RD", "postcode": "76049"}}},
{"geometry": {"type": "Point", "coordinates": [-97.688990053, 32.4448421992]}, "type": "Feature", "properties": {"collection_times": [{"days": "Mon-Fri", "time": "2:00pm"}, {"days": "Sat", "time": "12:45pm"}, {"days": "Sun", "time": "Closed"}], "id": "7604900007", "name": "USPS COLLECTION BOX - BLUE BOX", "address": {"city": "GRANBURY", "state": "TX", "street": "3230 FALL CREEK HWY", "postcode": "76049"}}},
{"geometry": {"type": "Point", "coordinates": [-97.7558752161, 32.4417744788]}, "type": "Feature", "properties": {"collection_times": [{"days": "Mon-Fri", "time": "2:45pm"}, {"days": "Sat", "time": "2:00pm"}, {"days": "Sun", "time": "Closed"}], "id": "7604900009", "name": "USPS COLLECTION BOX - BLUE BOX", "address": {"city": "GRANBURY", "state": "TX", "street": "1800 ACTON HWY", "postcode": "76049"}}},
{"geometry": {"type": "Point", "coordinates": [-97.7285943615, 32.4561251188]}, "type": "Feature", "properties": {"collection_times": [{"days": "Mon-Sat", "time": "11:00am"}, {"days": "Sun", "time": "Closed"}], "id": "7604900011", "name": "USPS COLLECTION BOX - BLUE BOX", "address": {"city": "GRANBURY", "state": "TX", "street": "3804 E US HIGHWAY 377", "postcode": "76049"}}},
{"geometry": {"type": "Point", "coordinates": [-97.1736487065, 32.2711351289]}, "type": "Feature", "properties": {"collection_times": [{"days": "Mon-Fri", "time": "4:30pm"}, {"days": "Sat", "time": "8:30am"}, {"days": "Sun", "time": "Closed"}], "id": "7605000003", "name": "USPS COLLECTION BOX - BLUE BOX", "address": {"city": "GRANDVIEW", "state": "TX", "street": "900 E CRINER ST", "postcode": "76050"}}},
{"geometry": {"type": "Point", "coordinates": [-97.1736487065, 32.2711351289]}, "type": "Feature", "properties": {"collection_times": [{"days": "Mon-Fri", "time": "4:30pm"}, {"days": "Sat", "time": "8:30am"}, {"days": "Sun", "time": "Closed"}], "id": "7605000004", "name": "USPS COLLECTION BOX - PO LOBBY", "address": {"city": "GRANDVIEW", "state": "TX", "street": "900 E CRINER ST", "postcode": "76050"}}},
{"geometry": {"type": "Point", "coordinates": [-97.1736487065, 32.2711351289]}, "type": "Feature", "properties": {"collection_times": [{"days": "Mon-Fri", "time": "4:30pm"}, {"days": "Sat", "time": "8:30am"}, {"days": "Sun", "time": "Closed"}], "id": "7605000006", "name": "USPS COLLECTION BOX - BLUE BOX", "address": {"city": "GRANDVIEW", "state": "TX", "street": "900 E CRINER ST", "postcode": "76050"}}},
{"geometry": {"type": "Point", "coordinates": [-97.1736487065, 32.2711351289]}, "type": "Feature", "properties": {"collection_times": [{"days": "Mon-Fri", "time": "4:30pm"}, {"days": "Sat", "time": "8:30am"}, {"days": "Sun", "time": "Closed"}], "id": "7605000007", "name": "USPS COLLECTION BOX - PO LOBBY", "address": {"city": "GRANDVIEW", "state": "TX", "street": "900 E CRINER ST", "postcode": "76050"}}},
{"geometry": {"type": "Point", "coordinates": [-97.0943077765, 32.9410805812]}, "type": "Feature", "properties": {"collection_times": [{"days": "Mon-Sat", "time": "4:15pm"}, {"days": "Sun", "time": "Closed"}], "id": "7605100013", "name": "USPS COLLECTION BOX - BLUE BOX", "address": {"city": "GRAPEVINE", "state": "TX", "street": "1651 W NORTHWEST HWY", "postcode": "76051"}}},
{"geometry": {"type": "Point", "coordinates": [-97.0783689879, 32.9394157547]}, "type": "Feature", "properties": {"collection_times": [{"days": "Mon-Fri", "time": "3:45pm"}, {"days": "Sat-Sun", "time": "Closed"}], "id": "7605100019", "name": "USPS COLLECTION BOX - BLUE BOX", "address": {"city": "GRAPEVINE", "state": "TX", "street": "200 S MAIN ST", "postcode": "76051"}}},
{"geometry": {"type": "Point", "coordinates": [-97.0783701708, 32.9309919039]}, "type": "Feature", "properties": {"collection_times": [{"days": "Mon-Fri", "time": "4:00pm"}, {"days": "Sat-Sun", "time": "Closed"}], "id": "7605100021", "name": "USPS COLLECTION BOX - BLUE BOX", "address": {"city": "GRAPEVINE", "state": "TX", "street": "1000 S MAIN ST", "postcode": "76051"}}},
{"geometry": {"type": "Point", "coordinates": [-97.086407194, 32.927789634]}, "type": "Feature", "properties": {"collection_times": [{"days": "Mon-Fri", "time": "5:30pm"}, {"days": "Sat", "time": "4:30pm"}, {"days": "Sun", "time": "Closed"}], "id": "7605100022", "name": "USPS COLLECTION BOX - PO LOBBY", "address": {"city": "GRAPEVINE", "state": "TX", "street": "1251 WILLIAM D TATE AVE", "postcode": "76051"}}},
{"geometry": {"type": "Point", "coordinates": [-97.0694518432, 32.9193042693]}, "type": "Feature", "properties": {"collection_times": [{"days": "Mon-Fri", "time": "3:30pm"}, {"days": "Sat", "time": "3:00pm"}, {"days": "Sun", "time": "Closed"}], "id": "7605100026", "name": "USPS COLLECTION BOX - BLUE BOX", "address": {"city": "GRAPEVINE", "state": "TX", "street": "751 PORT AMERICA PL", "postcode": "76051"}}},
{"geometry": {"type": "Point", "coordinates": [-97.0783772686, 32.9249032141]}, "type": "Feature", "properties": {"collection_times": [{"days": "Mon-Fri", "time": "4:00pm"}, {"days": "Sat", "time": "3:30pm"}, {"days": "Sun", "time": "Closed"}], "id": "7605100027", "name": "USPS COLLECTION BOX - BLUE BOX", "address": {"city": "GRAPEVINE", "state": "TX", "street": "1400 S MAIN ST", "postcode": "76051"}}},
{"geometry": {"type": "Point", "coordinates": [-97.0997781792, 32.8924298076]}, "type": "Feature", "properties": {"collection_times": [{"days": "Mon-Fri", "time": "3:15pm"}, {"days": "Sat", "time": "3:00pm"}, {"days": "Sun", "time": "Closed"}], "id": "7605100028", "name": "USPS COLLECTION BOX - BLUE BOX", "address": {"city": "GRAPEVINE", "state": "TX", "street": "4000 WILLIAM D TATE AVE", "postcode": "76051"}}},
{"geometry": {"type": "Point", "coordinates": [-97.060914106, 32.9311565942]}, "type": "Feature", "properties": {"collection_times": [{"days": "Mon-Fri", "time": "3:30pm"}, {"days": "Sat-Sun", "time": "Closed"}], "id": "7605100029", "name": "USPS COLLECTION BOX - BLUE BOX", "address": {"city": "GRAPEVINE", "state": "TX", "street": "1200 TEXAN TRL", "postcode": "76051"}}},
{"geometry": {"type": "Point", "coordinates": [-97.0999059388, 32.9411192156]}, "type": "Feature", "properties": {"collection_times": [{"days": "Mon-Fri", "time": "4:30pm"}, {"days": "Sat", "time": "3:45pm"}, {"days": "Sun", "time": "Closed"}], "id": "7605100030", "name": "USPS COLLECTION BOX - BLUE BOX", "address": {"city": "GRAPEVINE", "state": "TX", "street": "2100 W NORTHWEST HWY", "postcode": "76051"}}},
{"geometry": {"type": "Point", "coordinates": [-97.086407194, 32.927789634]}, "type": "Feature", "properties": {"collection_times": [{"days": "Mon-Fri", "time": "5:30pm"}, {"days": "Sat", "time": "4:30pm"}, {"days": "Sun", "time": "Closed"}], "id": "7605100031", "name": "USPS COLLECTION BOX - PO LOBBY", "address": {"city": "GRAPEVINE", "state": "TX", "street": "1251 WILLIAM D TATE AVE", "postcode": "76051"}}},
{"geometry": {"type": "Point", "coordinates": [-97.0987240105, 32.9395547547]}, "type": "Feature", "properties": {"collection_times": [{"days": "Mon-Fri", "time": "4:15pm"}, {"days": "Sat", "time": "3:45pm"}, {"days": "Sun", "time": "Closed"}], "id": "7605100035", "name": "USPS COLLECTION BOX - BLUE BOX", "address": {"city": "GRAPEVINE", "state": "TX", "street": "340 S PARK BLVD", "postcode": "76051"}}},
{"geometry": {"type": "Point", "coordinates": [-97.0929015957, 32.9356721452]}, "type": "Feature", "properties": {"collection_times": [{"days": "Mon-Fri", "time": "4:15pm"}, {"days": "Sat-Sun", "time": "Closed"}], "id": "7605100036", "name": "USPS COLLECTION BOX - BLUE BOX", "address": {"city": "GRAPEVINE", "state": "TX", "street": "1600 W COLLEGE ST", "postcode": "76051"}}},
{"geometry": {"type": "Point", "coordinates": [-97.086407194, 32.927789634]}, "type": "Feature", "properties": {"collection_times": [{"days": "Mon-Fri", "time": "5:15pm"}, {"days": "Sat", "time": "4:15pm"}, {"days": "Sun", "time": "Closed"}], "id": "7605100037", "name": "USPS COLLECTION BOX - BLUE BOX", "address": {"city": "GRAPEVINE", "state": "TX", "street": "1251 WILLIAM D TATE AVE", "postcode": "76051"}}},
{"geometry": {"type": "Point", "coordinates": [-97.086407194, 32.927789634]}, "type": "Feature", "properties": {"collection_times": [{"days": "Mon-Fri", "time": "5:15pm"}, {"days": "Sat", "time": "4:15pm"}, {"days": "Sun", "time": "Closed"}], "id": "7605100038", "name": "USPS COLLECTION BOX - BLUE BOX", "address": {"city": "GRAPEVINE", "state": "TX", "street": "1251 WILLIAM D TATE AVE", "postcode": "76051"}}},
{"geometry": {"type": "Point", "coordinates": [-97.086407194, 32.927789634]}, "type": "Feature", "properties": {"collection_times": [{"days": "Mon-Fri", "time": "5:30pm"}, {"days": "Sat", "time": "4:30pm"}, {"days": "Sun", "time": "Closed"}], "id": "7605100040", "name": "USPS COLLECTION BOX - PO LOBBY", "address": {"city": "GRAPEVINE", "state": "TX", "street": "1251 WILLIAM D TATE AVE", "postcode": "76051"}}},
{"geometry": {"type": "Point", "coordinates": [-97.1084764765, 32.9288803221]}, "type": "Feature", "properties": {"collection_times": [{"days": "Mon-Fri", "time": "5:15pm"}, {"days": "Sat-Sun", "time": "Closed"}], "id": "7605100041", "name": "USPS COLLECTION BOX - BLUE BOX", "address": {"city": "GRAPEVINE", "state": "TX", "street": "1000 NOLEN DR", "postcode": "76051"}}},
{"geometry": {"type": "Point", "coordinates": [-97.086407194, 32.927789634]}, "type": "Feature", "properties": {"collection_times": [{"days": "Mon-Fri", "time": "5:30pm"}, {"days": "Sat", "time": "4:30pm"}, {"days": "Sun", "time": "Closed"}], "id": "7605100042", "name": "USPS COLLECTION BOX - APC", "address": {"city": "GRAPEVINE", "state": "TX", "street": "1251 WILLIAM D TATE AVE", "postcode": "76051"}}},
{"geometry": {"type": "Point", "coordinates": [-97.3499932991, 32.9609181397]}, "type": "Feature", "properties": {"collection_times": [{"days": "Mon-Fri", "time": "4:30pm"}, {"days": "Sat", "time": "11:15am"}, {"days": "Sun", "time": "Closed"}], "id": "7605200001", "name": "USPS COLLECTION BOX - BLUE BOX", "address": {"city": "HASLET", "state": "TX", "street": "1097 SCHOOLHOUSE RD", "postcode": "76052"}}},
{"geometry": {"type": "Point", "coordinates": [-97.3499932991, 32.9609181397]}, "type": "Feature", "properties": {"collection_times": [{"days": "Mon-Fri", "time": "4:30pm"}, {"days": "Sat", "time": "11:15am"}, {"days": "Sun", "time": "Closed"}], "id": "7605200002", "name": "USPS COLLECTION BOX - BLUE BOX", "address": {"city": "HASLET", "state": "TX", "street": "1097 SCHOOLHOUSE RD", "postcode": "76052"}}},
{"geometry": {"type": "Point", "coordinates": [-97.3499932991, 32.9609181397]}, "type": "Feature", "properties": {"collection_times": [{"days": "Mon-Fri", "time": "4:30pm"}, {"days": "Sat", "time": "11:15am"}, {"days": "Sun", "time": "Closed"}], "id": "7605200004", "name": "USPS COLLECTION BOX - PO LOBBY", "address": {"city": "HASLET", "state": "TX", "street": "1097 SCHOOLHOUSE RD", "postcode": "76052"}}},
{"geometry": {"type": "Point", "coordinates": [-97.3499932991, 32.9609181397]}, "type": "Feature", "properties": {"collection_times": [{"days": "Mon-Fri", "time": "4:30pm"}, {"days": "Sat", "time": "11:15am"}, {"days": "Sun", "time": "Closed"}], "id": "7605200005", "name": "USPS COLLECTION BOX - PO LOBBY", "address": {"city": "HASLET", "state": "TX", "street": "1097 SCHOOLHOUSE RD", "postcode": "76052"}}},
{"geometry": {"type": "Point", "coordinates": [-97.1632055268, 32.8235138437]}, "type": "Feature", "properties": {"collection_times": [{"days": "Mon-Sat", "time": "11:00am"}, {"days": "Sun", "time": "Closed"}], "id": "7605300007", "name": "USPS COLLECTION BOX - BLUE BOX", "address": {"city": "HURST", "state": "TX", "street": "364 E PIPELINE RD", "postcode": "76053"}}},
{"geometry": {"type": "Point", "coordinates": [-97.186454047, 32.8241878602]}, "type": "Feature", "properties": {"collection_times": [{"days": "Mon-Fri", "time": "5:00pm"}, {"days": "Sat", "time": "3:00pm"}, {"days": "Sun", "time": "Closed"}], "id": "7605300049", "name": "USPS COLLECTION BOX - BLUE BOX", "address": {"city": "HURST", "state": "TX", "street": "825 PRECINCT LINE RD", "postcode": "76053"}}},
{"geometry": {"type": "Point", "coordinates": [-97.1865079354, 32.8256352184]}, "type": "Feature", "properties": {"collection_times": [{"days": "Mon-Fri", "time": "5:00pm"}, {"days": "Sat", "time": "3:00pm"}, {"days": "Sun", "time": "Closed"}], "id": "7605300053", "name": "USPS COLLECTION BOX - BLUE BOX", "address": {"city": "HURST", "state": "TX", "street": "825 PRECINCT LINE RD", "postcode": "76053"}}},
{"geometry": {"type": "Point", "coordinates": [-97.1865079354, 32.8256352184]}, "type": "Feature", "properties": {"collection_times": [{"days": "Mon-Fri", "time": "5:00pm"}, {"days": "Sat", "time": "3:15pm"}, {"days": "Sun", "time": "Closed"}], "id": "7605300057", "name": "USPS COLLECTION BOX - PO LOBBY", "address": {"city": "HURST", "state": "TX", "street": "825 PRECINCT LINE RD", "postcode": "76053"}}},
{"geometry": {"type": "Point", "coordinates": [-97.1865079354, 32.8256352184]}, "type": "Feature", "properties": {"collection_times": [{"days": "Mon-Fri", "time": "5:00pm"}, {"days": "Sat", "time": "3:15pm"}, {"days": "Sun", "time": "Closed"}], "id": "7605300058", "name": "USPS COLLECTION BOX - PO LOBBY", "address": {"city": "HURST", "state": "TX", "street": "825 PRECINCT LINE RD", "postcode": "76053"}}},
{"geometry": {"type": "Point", "coordinates": [-97.1828692169, 32.8393670002]}, "type": "Feature", "properties": {"collection_times": [{"days": "Mon-Fri", "time": "4:15pm"}, {"days": "Sat", "time": "2:00pm"}, {"days": "Sun", "time": "Closed"}], "id": "7605300061", "name": "USPS COLLECTION BOX - BLUE BOX", "address": {"city": "HURST", "state": "TX", "street": "669 AIRPORT FWY", "postcode": "76053"}}},
{"geometry": {"type": "Point", "coordinates": [-97.1865079354, 32.8256352184]}, "type": "Feature", "properties": {"collection_times": [{"days": "Mon-Fri", "time": "5:00pm"}, {"days": "Sat", "time": "3:15pm"}, {"days": "Sun", "time": "Closed"}], "id": "7605300064", "name": "USPS COLLECTION BOX - APC", "address": {"city": "HURST", "state": "TX", "street": "825 PRECINCT LINE RD", "postcode": "76053"}}},
{"geometry": {"type": "Point", "coordinates": [-97.2087570909, 32.8127953759]}, "type": "Feature", "properties": {"collection_times": [{"days": "Mon-Sat", "time": "11:30am"}, {"days": "Sun", "time": "Closed"}], "id": "7605300065", "name": "USPS COLLECTION BOX - BLUE BOX", "address": {"city": "HURST", "state": "TX", "street": "235 NE LOOP 820", "postcode": "76053"}}},
{"geometry": {"type": "Point", "coordinates": [-97.1806842917, 32.833635564]}, "type": "Feature", "properties": {"collection_times": [{"days": "Mon-Sat", "time": "12:45pm"}, {"days": "Sun", "time": "Closed"}], "id": "7605300066", "name": "USPS COLLECTION BOX - BLUE BOX", "address": {"city": "HURST", "state": "TX", "street": "1244 SOUTHRIDGE CT", "postcode": "76053"}}},
{"geometry": {"type": "Point", "coordinates": [-97.1774265813, 32.8196117184]}, "type": "Feature", "properties": {"collection_times": [{"days": "Mon-Sat", "time": "11:00am"}, {"days": "Sun", "time": "Closed"}], "id": "7605300068", "name": "USPS COLLECTION BOX - BLUE BOX", "address": {"city": "HURST", "state": "TX", "street": "8888 TRINITY BLVD", "postcode": "76053"}}},
{"geometry": {"type": "Point", "coordinates": [-97.1676693772, 32.8404576884]}, "type": "Feature", "properties": {"collection_times": [{"days": "Mon-Sat", "time": "11:00am"}, {"days": "Sun", "time": "Closed"}], "id": "7605400000", "name": "USPS COLLECTION BOX - BLUE BOX", "address": {"city": "HURST", "state": "TX", "street": "1500 NORWOOD DR", "postcode": "76054"}}},
{"geometry": {"type": "Point", "coordinates": [-97.1847725979, 32.852864562]}, "type": "Feature", "properties": {"collection_times": [{"days": "Mon-Fri", "time": "4:30pm"}, {"days": "Sat", "time": "2:00pm"}, {"days": "Sun", "time": "Closed"}], "id": "7605400003", "name": "USPS COLLECTION BOX - BLUE BOX", "address": {"city": "HURST", "state": "TX", "street": "777 CANNON DR", "postcode": "76054"}}},
{"geometry": {"type": "Point", "coordinates": [-97.1788995384, 32.8576826102]}, "type": "Feature", "properties": {"collection_times": [{"days": "Mon-Fri", "time": "4:30pm"}, {"days": "Sat", "time": "2:00pm"}, {"days": "Sun", "time": "Closed"}], "id": "7605400004", "name": "USPS COLLECTION BOX - EXPRESS", "address": {"city": "HURST", "state": "TX", "street": "777 CANNON DR", "postcode": "76054"}}},
{"geometry": {"type": "Point", "coordinates": [-97.1680017887, 32.8495830338]}, "type": "Feature", "properties": {"collection_times": [{"days": "Mon-Fri", "time": "4:30pm"}, {"days": "Sat", "time": "2:15pm"}, {"days": "Sun", "time": "Closed"}], "id": "7605400008", "name": "USPS COLLECTION BOX - BLUE BOX", "address": {"city": "HURST", "state": "TX", "street": "1852 NORWOOD DR", "postcode": "76054"}}},
{"geometry": {"type": "Point", "coordinates": [-97.1768455899, 32.8633645058]}, "type": "Feature", "properties": {"collection_times": [{"days": "Mon-Fri", "time": "4:30pm"}, {"days": "Sat-Sun", "time": "Closed"}], "id": "7605400010", "name": "USPS COLLECTION BOX - BLUE BOX", "address": {"city": "HURST", "state": "TX", "street": "500 GRAPEVINE HWY", "postcode": "76054"}}},
{"geometry": {"type": "Point", "coordinates": [-97.1780584494, 32.862461323]}, "type": "Feature", "properties": {"collection_times": [{"days": "Mon-Fri", "time": "4:30pm"}, {"days": "Sat", "time": "2:15pm"}, {"days": "Sun", "time": "Closed"}], "id": "7605400011", "name": "USPS COLLECTION BOX - BLUE BOX", "address": {"city": "HURST", "state": "TX", "street": "600 GRAPEVINE HWY", "postcode": "76054"}}},
{"geometry": {"type": "Point", "coordinates": [-97.186183868, 32.8498503826]}, "type": "Feature", "properties": {"collection_times": [{"days": "Mon-Sat", "time": "9:15am"}, {"days": "Sun", "time": "Closed"}], "id": "7605400015", "name": "USPS COLLECTION BOX - BLUE BOX", "address": {"city": "HURST", "state": "TX", "street": "1845 PRECINCT LINE RD", "postcode": "76054"}}},
{"geometry": {"type": "Point", "coordinates": [-97.1847725979, 32.852864562]}, "type": "Feature", "properties": {"collection_times": [{"days": "Mon-Fri", "time": "4:30pm"}, {"days": "Sat", "time": "2:00pm"}, {"days": "Sun", "time": "Closed"}], "id": "7605400027", "name": "USPS COLLECTION BOX - PO LOBBY", "address": {"city": "HURST", "state": "TX", "street": "777 CANNON DR", "postcode": "76054"}}},
{"geometry": {"type": "Point", "coordinates": [-97.1847725979, 32.852864562]}, "type": "Feature", "properties": {"collection_times": [{"days": "Mon-Fri", "time": "4:30pm"}, {"days": "Sat", "time": "2:00pm"}, {"days": "Sun", "time": "Closed"}], "id": "7605400028", "name": "USPS COLLECTION BOX - PO LOBBY", "address": {"city": "HURST", "state": "TX", "street": "777 CANNON DR", "postcode": "76054"}}},
{"geometry": {"type": "Point", "coordinates": [-97.1847310827, 32.8528235035]}, "type": "Feature", "properties": {"collection_times": [{"days": "Mon-Fri", "time": "4:30pm"}, {"days": "Sat", "time": "2:00pm"}, {"days": "Sun", "time": "Closed"}], "id": "7605400030", "name": "USPS COLLECTION BOX - BLUE BOX", "address": {"city": "HURST", "state": "TX", "street": "777 CANNON DR", "postcode": "76054"}}},
{"geometry": {"type": "Point", "coordinates": [-97.1498122167, 32.1586520246]}, "type": "Feature", "properties": {"collection_times": [{"days": "Mon-Fri", "time": "4:15pm"}, {"days": "Sat-Sun", "time": "Closed"}], "id": "7605500002", "name": "USPS COLLECTION BOX - PO LOBBY", "address": {"city": "ITASCA", "state": "TX", "street": "100 E ADAMS ST", "postcode": "76055"}}},
{"geometry": {"type": "Point", "coordinates": [-97.1496127879, 32.1587344348]}, "type": "Feature", "properties": {"collection_times": [{"days": "Mon-Fri", "time": "4:15pm"}, {"days": "Sat", "time": "9:00am"}, {"days": "Sun", "time": "Closed"}], "id": "7605500003", "name": "USPS COLLECTION BOX - BLUE BOX", "address": {"city": "ITASCA", "state": "TX", "street": "100 E ADAMS ST", "postcode": "76055"}}},
{"geometry": {"type": "Point", "coordinates": [-97.1498122167, 32.1586520246]}, "type": "Feature", "properties": {"collection_times": [{"days": "Mon-Fri", "time": "4:15pm"}, {"days": "Sat-Sun", "time": "Closed"}], "id": "7605500004", "name": "USPS COLLECTION BOX - PO LOBBY", "address": {"city": "ITASCA", "state": "TX", "street": "100 E ADAMS ST", "postcode": "76055"}}},
{"geometry": {"type": "Point", "coordinates": [-97.3843233299, 32.4639346506]}, "type": "Feature", "properties": {"collection_times": [{"days": "Mon-Fri", "time": "4:00pm"}, {"days": "Sat", "time": "10:30am"}, {"days": "Sun", "time": "Closed"}], "id": "7605800001", "name": "USPS COLLECTION BOX - PO LOBBY", "address": {"city": "JOSHUA", "state": "TX", "street": "306 N BROADWAY ST", "postcode": "76058"}}},
{"geometry": {"type": "Point", "coordinates": [-97.3843233299, 32.4639346506]}, "type": "Feature", "properties": {"collection_times": [{"days": "Mon-Fri", "time": "4:00pm"}, {"days": "Sat", "time": "10:30am"}, {"days": "Sun", "time": "Closed"}], "id": "7605800004", "name": "USPS COLLECTION BOX - PO LOBBY", "address": {"city": "JOSHUA", "state": "TX", "street": "306 N BROADWAY ST", "postcode": "76058"}}},
{"geometry": {"type": "Point", "coordinates": [-97.3843233299, 32.4639346506]}, "type": "Feature", "properties": {"collection_times": [{"days": "Mon-Fri", "time": "4:00pm"}, {"days": "Sat", "time": "10:30am"}, {"days": "Sun", "time": "Closed"}], "id": "7605800007", "name": "USPS COLLECTION BOX - BLUE BOX", "address": {"city": "JOSHUA", "state": "TX", "street": "306 N BROADWAY ST", "postcode": "76058"}}},
{"geometry": {"type": "Point", "coordinates": [-97.3319306499, 32.3949380205]}, "type": "Feature", "properties": {"collection_times": [{"days": "Mon-Fri", "time": "4:30pm"}, {"days": "Sat-Sun", "time": "Closed"}], "id": "7605900001", "name": "USPS COLLECTION BOX - BLUE BOX", "address": {"city": "KEENE", "state": "TX", "street": "203 S OLD BETSY RD", "postcode": "76059"}}},
{"geometry": {"type": "Point", "coordinates": [-97.3319306499, 32.3949380205]}, "type": "Feature", "properties": {"collection_times": [{"days": "Mon-Fri", "time": "4:30pm"}, {"days": "Sat-Sun", "time": "Closed"}], "id": "7605900002", "name": "USPS COLLECTION BOX - PO LOBBY", "address": {"city": "KEENE", "state": "TX", "street": "203 S OLD BETSY RD", "postcode": "76059"}}},
{"geometry": {"type": "Point", "coordinates": [-97.3319306499, 32.3949380205]}, "type": "Feature", "properties": {"collection_times": [{"days": "Mon-Fri", "time": "4:30pm"}, {"days": "Sat-Sun", "time": "Closed"}], "id": "7605900003", "name": "USPS COLLECTION BOX - PO LOBBY", "address": {"city": "KEENE", "state": "TX", "street": "203 S OLD BETSY RD", "postcode": "76059"}}},
{"geometry": {"type": "Point", "coordinates": [-97.3319306499, 32.3949380205]}, "type": "Feature", "properties": {"collection_times": [{"days": "Mon-Fri", "time": "4:30pm"}, {"days": "Sat-Sun", "time": "Closed"}], "id": "7605900004", "name": "USPS COLLECTION BOX - BLUE BOX", "address": {"city": "KEENE", "state": "TX", "street": "203 S OLD BETSY RD", "postcode": "76059"}}},
{"geometry": {"type": "Point", "coordinates": [-97.2189015642, 32.6444247976]}, "type": "Feature", "properties": {"collection_times": [{"days": "Mon-Fri", "time": "4:30pm"}, {"days": "Sat", "time": "11:30am"}, {"days": "Sun", "time": "Closed"}], "id": "7606000004", "name": "USPS COLLECTION BOX - PO LOBBY", "address": {"city": "KENNEDALE", "state": "TX", "street": "317 E KENNEDALE PKWY", "postcode": "76060"}}},
{"geometry": {"type": "Point", "coordinates": [-97.2189015642, 32.6444247976]}, "type": "Feature", "properties": {"collection_times": [{"days": "Mon-Fri", "time": "4:30pm"}, {"days": "Sat", "time": "11:30am"}, {"days": "Sun", "time": "Closed"}], "id": "7606000006", "name": "USPS COLLECTION BOX - BLUE BOX", "address": {"city": "KENNEDALE", "state": "TX", "street": "317 E KENNEDALE PKWY", "postcode": "76060"}}},
{"geometry": {"type": "Point", "coordinates": [-97.1880038191, 32.506638244]}, "type": "Feature", "properties": {"collection_times": [{"days": "Mon-Fri", "time": "4:00pm"}, {"days": "Sat", "time": "11:00am"}, {"days": "Sun", "time": "Closed"}], "id": "7606100001", "name": "USPS COLLECTION BOX - PO LOBBY", "address": {"city": "LILLIAN", "state": "TX", "street": "10061 E FM 917", "postcode": "76061"}}},
{"geometry": {"type": "Point", "coordinates": [-97.1880038191, 32.506638244]}, "type": "Feature", "properties": {"collection_times": [{"days": "Mon-Fri", "time": "4:00pm"}, {"days": "Sat", "time": "11:00am"}, {"days": "Sun", "time": "Closed"}], "id": "7606100003", "name": "USPS COLLECTION BOX - BLUE BOX", "address": {"city": "LILLIAN", "state": "TX", "street": "10061 E FM 917", "postcode": "76061"}}},
{"geometry": {"type": "Point", "coordinates": [-97.1437882394, 32.5732330206]}, "type": "Feature", "properties": {"collection_times": [{"days": "Mon-Fri", "time": "5:00pm"}, {"days": "Sat", "time": "2:30pm"}, {"days": "Sun", "time": "Closed"}], "id": "7606300002", "name": "USPS COLLECTION BOX - BLUE BOX", "address": {"city": "MANSFIELD", "state": "TX", "street": "752 N MAIN ST", "postcode": "76063"}}},
{"geometry": {"type": "Point", "coordinates": [-97.1318683071, 32.584015844]}, "type": "Feature", "properties": {"collection_times": [{"days": "Mon-Sat", "time": "12:15pm"}, {"days": "Sun", "time": "Closed"}], "id": "7606300008", "name": "USPS COLLECTION BOX - BLUE BOX", "address": {"city": "MANSFIELD", "state": "TX", "street": "1101 N WALNUT CREEK DR", "postcode": "76063"}}},
{"geometry": {"type": "Point", "coordinates": [-97.1437882394, 32.5732330206]}, "type": "Feature", "properties": {"collection_times": [{"days": "Mon-Fri", "time": "5:00pm"}, {"days": "Sat", "time": "2:30pm"}, {"days": "Sun", "time": "Closed"}], "id": "7606300009", "name": "USPS COLLECTION BOX - BLUE BOX", "address": {"city": "MANSFIELD", "state": "TX", "street": "752 N MAIN ST", "postcode": "76063"}}},
{"geometry": {"type": "Point", "coordinates": [-97.1437882394, 32.5732330206]}, "type": "Feature", "properties": {"collection_times": [{"days": "Mon-Fri", "time": "5:00pm"}, {"days": "Sat", "time": "2:30pm"}, {"days": "Sun", "time": "Closed"}], "id": "7606300012", "name": "USPS COLLECTION BOX - PO LOBBY", "address": {"city": "MANSFIELD", "state": "TX", "street": "752 N MAIN ST", "postcode": "76063"}}},
{"geometry": {"type": "Point", "coordinates": [-97.1437882394, 32.5732330206]}, "type": "Feature", "properties": {"collection_times": [{"days": "Mon-Fri", "time": "5:00pm"}, {"days": "Sat", "time": "2:30pm"}, {"days": "Sun", "time": "Closed"}], "id": "7606300013", "name": "USPS COLLECTION BOX - PO LOBBY", "address": {"city": "MANSFIELD", "state": "TX", "street": "752 N MAIN ST", "postcode": "76063"}}},
{"geometry": {"type": "Point", "coordinates": [-97.1437882394, 32.5732330206]}, "type": "Feature", "properties": {"collection_times": [{"days": "Mon-Fri", "time": "5:15pm"}, {"days": "Sat", "time": "2:00pm"}, {"days": "Sun", "time": "Closed"}], "id": "7606300014", "name": "USPS COLLECTION BOX - APC", "address": {"city": "MANSFIELD", "state": "TX", "street": "752 N MAIN ST", "postcode": "76063"}}},
{"geometry": {"type": "Point", "coordinates": [-97.0136528831, 32.3087974228]}, "type": "Feature", "properties": {"collection_times": [{"days": "Mon-Fri", "time": "4:00pm"}, {"days": "Sat", "time": "9:30am"}, {"days": "Sun", "time": "Closed"}], "id": "7606400001", "name": "USPS COLLECTION BOX - PO LOBBY", "address": {"city": "MAYPEARL", "state": "TX", "street": "100 S MAIN ST", "postcode": "76064"}}},
{"geometry": {"type": "Point", "coordinates": [-97.0136528831, 32.3087974228]}, "type": "Feature", "properties": {"collection_times": [{"days": "Mon-Fri", "time": "4:00pm"}, {"days": "Sat", "time": "9:30am"}, {"days": "Sun", "time": "Closed"}], "id": "7606400002", "name": "USPS COLLECTION BOX - BLUE BOX", "address": {"city": "MAYPEARL", "state": "TX", "street": "100 S MAIN ST", "postcode": "76064"}}},
{"geometry": {"type": "Point", "coordinates": [-96.9917803488, 32.4824483965]}, "type": "Feature", "properties": {"collection_times": [{"days": "Mon-Fri", "time": "4:30pm"}, {"days": "Sat", "time": "1:00pm"}, {"days": "Sun", "time": "Closed"}], "id": "7606500001", "name": "USPS COLLECTION BOX - BLUE BOX", "address": {"city": "MIDLOTHIAN", "state": "TX", "street": "211 E AVENUE G", "postcode": "76065"}}},
{"geometry": {"type": "Point", "coordinates": [-96.9935186027, 32.4660198994]}, "type": "Feature", "properties": {"collection_times": [{"days": "Mon-Sat", "time": "8:30am"}, {"days": "Sun", "time": "Closed"}], "id": "7606500006", "name": "USPS COLLECTION BOX - BLUE BOX", "address": {"city": "MIDLOTHIAN", "state": "TX", "street": "1601 S 9TH ST", "postcode": "76065"}}},
{"geometry": {"type": "Point", "coordinates": [-96.9922223302, 32.4824692919]}, "type": "Feature", "properties": {"collection_times": [{"days": "Mon-Fri", "time": "4:30pm"}, {"days": "Sat", "time": "1:00pm"}, {"days": "Sun", "time": "Closed"}], "id": "7606500007", "name": "USPS COLLECTION BOX - PO LOBBY", "address": {"city": "MIDLOTHIAN", "state": "TX", "street": "211 E AVENUE G", "postcode": "76065"}}},
{"geometry": {"type": "Point", "coordinates": [-96.9922223302, 32.4824692919]}, "type": "Feature", "properties": {"collection_times": [{"days": "Mon-Fri", "time": "4:30pm"}, {"days": "Sat", "time": "1:00pm"}, {"days": "Sun", "time": "Closed"}], "id": "7606500008", "name": "USPS COLLECTION BOX - PO LOBBY", "address": {"city": "MIDLOTHIAN", "state": "TX", "street": "211 E AVENUE G", "postcode": "76065"}}},
{"geometry": {"type": "Point", "coordinates": [-96.9922223302, 32.4824692919]}, "type": "Feature", "properties": {"collection_times": [{"days": "Mon-Fri", "time": "4:30pm"}, {"days": "Sat", "time": "1:00pm"}, {"days": "Sun", "time": "Closed"}], "id": "7606500009", "name": "USPS COLLECTION BOX - PO LOBBY", "address": {"city": "MIDLOTHIAN", "state": "TX", "street": "211 E AVENUE G", "postcode": "76065"}}},
{"geometry": {"type": "Point", "coordinates": [-96.9922223302, 32.4824692919]}, "type": "Feature", "properties": {"collection_times": [{"days": "Mon-Fri", "time": "4:30pm"}, {"days": "Sat", "time": "1:00pm"}, {"days": "Sun", "time": "Closed"}], "id": "7606500011", "name": "USPS COLLECTION BOX - BLUE BOX", "address": {"city": "MIDLOTHIAN", "state": "TX", "street": "211 E AVENUE G", "postcode": "76065"}}},
{"geometry": {"type": "Point", "coordinates": [-98.0084059507, 32.7461705704]}, "type": "Feature", "properties": {"collection_times": [{"days": "Mon-Fri", "time": "3:30pm"}, {"days": "Sat", "time": "11:30am"}, {"days": "Sun", "time": "Closed"}], "id": "7606600001", "name": "USPS COLLECTION BOX - BLUE BOX", "address": {"city": "MILLSAP", "state": "TX", "street": "103 FAIRVIEW RD", "postcode": "76066"}}},
{"geometry": {"type": "Point", "coordinates": [-98.0084059507, 32.7461705704]}, "type": "Feature", "properties": {"collection_times": [{"days": "Mon-Fri", "time": "3:30pm"}, {"days": "Sat", "time": "11:30am"}, {"days": "Sun", "time": "Closed"}], "id": "7606600003", "name": "USPS COLLECTION BOX - PO LOBBY", "address": {"city": "MILLSAP", "state": "TX", "street": "103 FAIRVIEW RD", "postcode": "76066"}}},
{"geometry": {"type": "Point", "coordinates": [-98.0902819112, 32.8093929479]}, "type": "Feature", "properties": {"collection_times": [{"days": "Mon-Sat", "time": "2:30pm"}, {"days": "Sun", "time": "Closed"}], "id": "7606700010", "name": "USPS COLLECTION BOX - BLUE BOX", "address": {"city": "MINERAL WELLS", "state": "TX", "street": "2801 E HUBBARD ST", "postcode": "76067"}}},
{"geometry": {"type": "Point", "coordinates": [-98.0972932701, 32.8091032588]}, "type": "Feature", "properties": {"collection_times": [{"days": "Mon-Sat", "time": "2:30pm"}, {"days": "Sun", "time": "Closed"}], "id": "7606700011", "name": "USPS COLLECTION BOX - BLUE BOX", "address": {"city": "MINERAL WELLS", "state": "TX", "street": "1900 E HUBBARD ST", "postcode": "76067"}}},
{"geometry": {"type": "Point", "coordinates": [-98.1139060458, 32.807729836]}, "type": "Feature", "properties": {"collection_times": [{"days": "Mon-Sat", "time": "4:00pm"}, {"days": "Sun", "time": "Closed"}], "id": "7606700015", "name": "USPS COLLECTION BOX - BLUE BOX", "address": {"city": "MINERAL WELLS", "state": "TX", "street": "200 SW 2ND ST", "postcode": "76067"}}},
{"geometry": {"type": "Point", "coordinates": [-98.0902819112, 32.8093929479]}, "type": "Feature", "properties": {"collection_times": [{"days": "Mon-Sat", "time": "2:30pm"}, {"days": "Sun", "time": "Closed"}], "id": "7606700021", "name": "USPS COLLECTION BOX - BLUE BOX", "address": {"city": "MINERAL WELLS", "state": "TX", "street": "2801 E HUBBARD ST", "postcode": "76067"}}},
{"geometry": {"type": "Point", "coordinates": [-98.113856952, 32.8084054907]}, "type": "Feature", "properties": {"collection_times": [{"days": "Mon-Sat", "time": "3:00pm"}, {"days": "Sun", "time": "Closed"}], "id": "7606700024", "name": "USPS COLLECTION BOX - PO LOBBY", "address": {"city": "MINERAL WELLS", "state": "TX", "street": "200 SW 1ST AVE", "postcode": "76067"}}},
{"geometry": {"type": "Point", "coordinates": [-98.113856952, 32.8084054907]}, "type": "Feature", "properties": {"collection_times": [{"days": "Mon-Sat", "time": "3:00pm"}, {"days": "Sun", "time": "Closed"}], "id": "7606700025", "name": "USPS COLLECTION BOX - PO LOBBY", "address": {"city": "MINERAL WELLS", "state": "TX", "street": "200 SW 1ST AVE", "postcode": "76067"}}},
{"geometry": {"type": "Point", "coordinates": [-97.4837168959, 33.0024228713]}, "type": "Feature", "properties": {"collection_times": [{"days": "Mon-Fri", "time": "4:00pm"}, {"days": "Sat", "time": "9:30am"}, {"days": "Sun", "time": "Closed"}], "id": "7607100001", "name": "USPS COLLECTION BOX - BLUE BOX", "address": {"city": "NEWARK", "state": "TX", "street": "312 FM 718", "postcode": "76071"}}},
{"geometry": {"type": "Point", "coordinates": [-97.4837168959, 33.0024228713]}, "type": "Feature", "properties": {"collection_times": [{"days": "Mon-Fri", "time": "4:00pm"}, {"days": "Sat", "time": "9:30am"}, {"days": "Sun", "time": "Closed"}], "id": "7607100002", "name": "USPS COLLECTION BOX - PO LOBBY", "address": {"city": "NEWARK", "state": "TX", "street": "312 FM 718", "postcode": "76071"}}},
{"geometry": {"type": "Point", "coordinates": [-97.4837168959, 33.0024228713]}, "type": "Feature", "properties": {"collection_times": [{"days": "Mon-Fri", "time": "4:00pm"}, {"days": "Sat", "time": "9:30am"}, {"days": "Sun", "time": "Closed"}], "id": "7607100003", "name": "USPS COLLECTION BOX - PO LOBBY", "address": {"city": "NEWARK", "state": "TX", "street": "312 FM 718", "postcode": "76071"}}},
{"geometry": {"type": "Point", "coordinates": [-97.687795699, 33.1520761876]}, "type": "Feature", "properties": {"collection_times": [{"days": "Mon-Fri", "time": "4:00pm"}, {"days": "Sat", "time": "9:00am"}, {"days": "Sun", "time": "Closed"}], "id": "7607300001", "name": "USPS COLLECTION BOX - BLUE BOX", "address": {"city": "PARADISE", "state": "TX", "street": "217 MAIN ST", "postcode": "76073"}}},
{"geometry": {"type": "Point", "coordinates": [-97.687795699, 33.1520761876]}, "type": "Feature", "properties": {"collection_times": [{"days": "Mon-Fri", "time": "4:00pm"}, {"days": "Sat", "time": "9:00am"}, {"days": "Sun", "time": "Closed"}], "id": "7607300002", "name": "USPS COLLECTION BOX - PO LOBBY", "address": {"city": "PARADISE", "state": "TX", "street": "217 MAIN ST", "postcode": "76073"}}},
{"geometry": {"type": "Point", "coordinates": [-97.7137738787, 32.2653953632]}, "type": "Feature", "properties": {"collection_times": [{"days": "Mon-Fri", "time": "10:45am"}, {"days": "Sat", "time": "10:00am"}, {"days": "Sun", "time": "Closed"}], "id": "7607700001", "name": "USPS COLLECTION BOX - PO LOBBY", "address": {"city": "RAINBOW", "state": "TX", "street": "1683 N FM 200", "postcode": "76077"}}},
{"geometry": {"type": "Point", "coordinates": [-97.4715133768, 33.05161057]}, "type": "Feature", "properties": {"collection_times": [{"days": "Mon-Fri", "time": "4:30pm"}, {"days": "Sat", "time": "9:00am"}, {"days": "Sun", "time": "Closed"}], "id": "7607800001", "name": "USPS COLLECTION BOX - BLUE BOX", "address": {"city": "RHOME", "state": "TX", "street": "500 S MAIN ST", "postcode": "76078"}}},
{"geometry": {"type": "Point", "coordinates": [-97.4715133768, 33.05161057]}, "type": "Feature", "properties": {"collection_times": [{"days": "Mon-Fri", "time": "4:30pm"}, {"days": "Sat", "time": "9:00am"}, {"days": "Sun", "time": "Closed"}], "id": "7607800002", "name": "USPS COLLECTION BOX - PO LOBBY", "address": {"city": "RHOME", "state": "TX", "street": "500 S MAIN ST", "postcode": "76078"}}},
{"geometry": {"type": "Point", "coordinates": [-97.4715133768, 33.05161057]}, "type": "Feature", "properties": {"collection_times": [{"days": "Mon-Fri", "time": "4:30pm"}, {"days": "Sat", "time": "9:00am"}, {"days": "Sun", "time": "Closed"}], "id": "7607800004", "name": "USPS COLLECTION BOX - PO LOBBY", "address": {"city": "RHOME", "state": "TX", "street": "500 S MAIN ST", "postcode": "76078"}}},
{"geometry": {"type": "Point", "coordinates": [-97.6797152083, 32.960835978]}, "type": "Feature", "properties": {"collection_times": [{"days": "Mon-Fri", "time": "4:00pm"}, {"days": "Sat", "time": "12:00pm"}, {"days": "Sun", "time": "Closed"}], "id": "7608200003", "name": "USPS COLLECTION BOX - BLUE BOX", "address": {"city": "SPRINGTOWN", "state": "TX", "street": "225 BONNIE BELL LN", "postcode": "76082"}}},
{"geometry": {"type": "Point", "coordinates": [-97.6797152083, 32.960835978]}, "type": "Feature", "properties": {"collection_times": [{"days": "Mon-Fri", "time": "4:00pm"}, {"days": "Sat", "time": "12:00pm"}, {"days": "Sun", "time": "Closed"}], "id": "7608200004", "name": "USPS COLLECTION BOX - PO LOBBY", "address": {"city": "SPRINGTOWN", "state": "TX", "street": "225 BONNIE BELL LN", "postcode": "76082"}}},
{"geometry": {"type": "Point", "coordinates": [-97.6797152083, 32.960835978]}, "type": "Feature", "properties": {"collection_times": [{"days": "Mon-Fri", "time": "4:00pm"}, {"days": "Sat", "time": "12:00pm"}, {"days": "Sun", "time": "Closed"}], "id": "7608200005", "name": "USPS COLLECTION BOX - PO LOBBY", "address": {"city": "SPRINGTOWN", "state": "TX", "street": "225 BONNIE BELL LN", "postcode": "76082"}}},
{"geometry": {"type": "Point", "coordinates": [-97.6836618671, 32.9657417349]}, "type": "Feature", "properties": {"collection_times": [{"days": "Mon-Sat", "time": "10:00am"}, {"days": "Sun", "time": "Closed"}], "id": "7608200006", "name": "USPS COLLECTION BOX - BLUE BOX", "address": {"city": "SPRINGTOWN", "state": "TX", "street": "101 S MAIN ST", "postcode": "76082"}}},
{"geometry": {"type": "Point", "coordinates": [-97.1006057664, 32.4289376523]}, "type": "Feature", "properties": {"collection_times": [{"days": "Mon-Fri", "time": "4:00pm"}, {"days": "Sat", "time": "10:00am"}, {"days": "Sun", "time": "Closed"}], "id": "7608400001", "name": "USPS COLLECTION BOX - BLUE BOX", "address": {"city": "VENUS", "state": "TX", "street": "101 W 8 ST", "postcode": "76084"}}},
{"geometry": {"type": "Point", "coordinates": [-97.1006057664, 32.4289376523]}, "type": "Feature", "properties": {"collection_times": [{"days": "Mon-Fri", "time": "4:00pm"}, {"days": "Sat", "time": "10:00am"}, {"days": "Sun", "time": "Closed"}], "id": "7608400003", "name": "USPS COLLECTION BOX - PO LOBBY", "address": {"city": "VENUS", "state": "TX", "street": "101 W 8 ST", "postcode": "76084"}}},
{"geometry": {"type": "Point", "coordinates": [-97.1006057664, 32.4289376523]}, "type": "Feature", "properties": {"collection_times": [{"days": "Mon-Fri", "time": "4:00pm"}, {"days": "Sat", "time": "10:00am"}, {"days": "Sun", "time": "Closed"}], "id": "7608400004", "name": "USPS COLLECTION BOX - PO LOBBY", "address": {"city": "VENUS", "state": "TX", "street": "101 W 8 ST", "postcode": "76084"}}},
{"geometry": {"type": "Point", "coordinates": [-97.7972557371, 32.7596279798]}, "type": "Feature", "properties": {"collection_times": [{"days": "Mon-Sat", "time": "9:00am"}, {"days": "Sun", "time": "Closed"}], "id": "7608600001", "name": "USPS COLLECTION BOX - BLUE BOX", "address": {"city": "WEATHERFORD", "state": "TX", "street": "102 N MAIN ST", "postcode": "76086"}}},
{"geometry": {"type": "Point", "coordinates": [-97.7979003626, 32.7596520628]}, "type": "Feature", "properties": {"collection_times": [{"days": "Mon-Sat", "time": "9:45am"}, {"days": "Sun", "time": "Closed"}], "id": "7608600003", "name": "USPS COLLECTION BOX - BLUE BOX", "address": {"city": "WEATHERFORD", "state": "TX", "street": "112 DALLAS AVE", "postcode": "76086"}}},
{"geometry": {"type": "Point", "coordinates": [-97.7972210165, 32.7725050704]}, "type": "Feature", "properties": {"collection_times": [{"days": "Mon-Fri", "time": "3:45pm"}, {"days": "Sat-Sun", "time": "Closed"}], "id": "7608600007", "name": "USPS COLLECTION BOX - BLUE BOX", "address": {"city": "WEATHERFORD", "state": "TX", "street": "1200 N MAIN ST", "postcode": "76086"}}},
{"geometry": {"type": "Point", "coordinates": [-97.7394128352, 32.7567981341]}, "type": "Feature", "properties": {"collection_times": [{"days": "Mon-Sat", "time": "12:00pm"}, {"days": "Sun", "time": "Closed"}], "id": "7608600008", "name": "USPS COLLECTION BOX - BLUE BOX", "address": {"city": "WEATHERFORD", "state": "TX", "street": "2200 FORT WORTH HWY", "postcode": "76086"}}},
{"geometry": {"type": "Point", "coordinates": [-97.7973494834, 32.754779533]}, "type": "Feature", "properties": {"collection_times": [{"days": "Mon-Fri", "time": "4:00pm"}, {"days": "Sat", "time": "3:30pm"}, {"days": "Sun", "time": "Closed"}], "id": "7608600011", "name": "USPS COLLECTION BOX - BLUE BOX", "address": {"city": "WEATHERFORD", "state": "TX", "street": "411 S MAIN ST", "postcode": "76086"}}},
{"geometry": {"type": "Point", "coordinates": [-97.797468956, 32.7559764186]}, "type": "Feature", "properties": {"collection_times": [{"days": "Mon-Sat", "time": "9:45am"}, {"days": "Sun", "time": "Closed"}], "id": "7608600012", "name": "USPS COLLECTION BOX - BLUE BOX", "address": {"city": "WEATHERFORD", "state": "TX", "street": "314 S MAIN ST", "postcode": "76086"}}},
{"geometry": {"type": "Point", "coordinates": [-97.7959735285, 32.7388502996]}, "type": "Feature", "properties": {"collection_times": [{"days": "Mon-Fri", "time": "4:30pm"}, {"days": "Sat", "time": "3:45pm"}, {"days": "Sun", "time": "Closed"}], "id": "7608600016", "name": "USPS COLLECTION BOX - BLUE BOX", "address": {"city": "WEATHERFORD", "state": "TX", "street": "124 COLLEGE PARK DR", "postcode": "76086"}}},
{"geometry": {"type": "Point", "coordinates": [-97.7660630392, 32.7384321342]}, "type": "Feature", "properties": {"collection_times": [{"days": "Mon-Sat", "time": "1:10pm"}, {"days": "Sun", "time": "Closed"}], "id": "7608600018", "name": "USPS COLLECTION BOX - BLUE BOX", "address": {"city": "WEATHERFORD", "state": "TX", "street": "2001 SANTA FE DR", "postcode": "76086"}}},
{"geometry": {"type": "Point", "coordinates": [-97.7830052824, 32.7481260031]}, "type": "Feature", "properties": {"collection_times": [{"days": "Mon-Fri", "time": "4:15pm"}, {"days": "Sat-Sun", "time": "Closed"}], "id": "7608600026", "name": "USPS COLLECTION BOX - BLUE BOX", "address": {"city": "WEATHERFORD", "state": "TX", "street": "1112 SANTA FE DR", "postcode": "76086"}}},
{"geometry": {"type": "Point", "coordinates": [-97.8130268322, 32.7338626475]}, "type": "Feature", "properties": {"collection_times": [{"days": "Mon-Sat", "time": "9:00am"}, {"days": "Sun", "time": "Closed"}], "id": "7608600029", "name": "USPS COLLECTION BOX - BLUE BOX", "address": {"city": "WEATHERFORD", "state": "TX", "street": "1000 W PARK AVE", "postcode": "76086"}}},
{"geometry": {"type": "Point", "coordinates": [-97.8060195014, 32.7588166574]}, "type": "Feature", "properties": {"collection_times": [{"days": "Mon-Fri", "time": "4:00pm"}, {"days": "Sat", "time": "3:15pm"}, {"days": "Sun", "time": "Closed"}], "id": "7608600030", "name": "USPS COLLECTION BOX - BLUE BOX", "address": {"city": "WEATHERFORD", "state": "TX", "street": "615 PALO PINTO ST", "postcode": "76086"}}},
{"geometry": {"type": "Point", "coordinates": [-97.7923151416, 32.7326093299]}, "type": "Feature", "properties": {"collection_times": [{"days": "Mon-Fri", "time": "4:30pm"}, {"days": "Sat", "time": "3:45pm"}, {"days": "Sun", "time": "Closed"}], "id": "7608600032", "name": "USPS COLLECTION BOX - BLUE BOX", "address": {"city": "WEATHERFORD", "state": "TX", "street": "1836 S MAIN ST", "postcode": "76086"}}},
{"geometry": {"type": "Point", "coordinates": [-97.7679302452, 32.7376455149]}, "type": "Feature", "properties": {"collection_times": [{"days": "Mon-Fri", "time": "1:00pm"}, {"days": "Sat-Sun", "time": "Closed"}], "id": "7608600033", "name": "USPS COLLECTION BOX - BLUE BOX", "address": {"city": "WEATHERFORD", "state": "TX", "street": "1950 CLEAR LAKE RD", "postcode": "76086"}}},
{"geometry": {"type": "Point", "coordinates": [-97.7922883098, 32.754071609]}, "type": "Feature", "properties": {"collection_times": [{"days": "Mon-Fri", "time": "5:00pm"}, {"days": "Sat", "time": "4:00pm"}, {"days": "Sun", "time": "Closed"}], "id": "7608600037", "name": "USPS COLLECTION BOX - EXPRESS", "address": {"city": "WEATHERFORD", "state": "TX", "street": "1145 SANTA FE DR", "postcode": "76086"}}},
{"geometry": {"type": "Point", "coordinates": [-97.7825640383, 32.7477352851]}, "type": "Feature", "properties": {"collection_times": [{"days": "Mon-Fri", "time": "5:00pm"}, {"days": "Sat", "time": "4:00pm"}, {"days": "Sun", "time": "Closed"}], "id": "7608600038", "name": "USPS COLLECTION BOX - BLUE BOX", "address": {"city": "WEATHERFORD", "state": "TX", "street": "1145 SANTA FE DR", "postcode": "76086"}}},
{"geometry": {"type": "Point", "coordinates": [-97.7825640383, 32.7477352851]}, "type": "Feature", "properties": {"collection_times": [{"days": "Mon-Fri", "time": "5:00pm"}, {"days": "Sat", "time": "4:00pm"}, {"days": "Sun", "time": "Closed"}], "id": "7608600039", "name": "USPS COLLECTION BOX - BLUE BOX", "address": {"city": "WEATHERFORD", "state": "TX", "street": "1145 SANTA FE DR", "postcode": "76086"}}},
{"geometry": {"type": "Point", "coordinates": [-97.7922883098, 32.754071609]}, "type": "Feature", "properties": {"collection_times": [{"days": "Mon-Sat", "time": "11:00am"}, {"days": "Sun", "time": "Closed"}], "id": "7608600040", "name": "USPS COLLECTION BOX - BLUE BOX", "address": {"city": "WEATHERFORD", "state": "TX", "street": "1314 S MAIN ST", "postcode": "76086"}}},
{"geometry": {"type": "Point", "coordinates": [-97.7902900677, 32.7427346645]}, "type": "Feature", "properties": {"collection_times": [{"days": "Mon-Sat", "time": "9:00am"}, {"days": "Sun", "time": "Closed"}], "id": "7608600041", "name": "USPS COLLECTION BOX - BLUE BOX", "address": {"city": "WEATHERFORD", "state": "TX", "street": "508 E  PARK", "postcode": "76086"}}},
{"geometry": {"type": "Point", "coordinates": [-97.7016946643, 32.7569150251]}, "type": "Feature", "properties": {"collection_times": [{"days": "Mon-Fri", "time": "3:15pm"}, {"days": "Sat", "time": "2:45pm"}, {"days": "Sun", "time": "Closed"}], "id": "7608600042", "name": "USPS COLLECTION BOX - BLUE BOX", "address": {"city": "WEATHERFORD", "state": "TX", "street": "3118 FORT WORTH HWY", "postcode": "76086"}}},
{"geometry": {"type": "Point", "coordinates": [-97.7825640383, 32.7477352851]}, "type": "Feature", "properties": {"collection_times": [{"days": "Mon-Fri", "time": "5:00pm"}, {"days": "Sat", "time": "4:00pm"}, {"days": "Sun", "time": "Closed"}], "id": "7608600043", "name": "USPS COLLECTION BOX - PO LOBBY", "address": {"city": "WEATHERFORD", "state": "TX", "street": "1145 SANTA FE DR", "postcode": "76086"}}},
{"geometry": {"type": "Point", "coordinates": [-97.7825640383, 32.7477352851]}, "type": "Feature", "properties": {"collection_times": [{"days": "Mon-Fri", "time": "5:00pm"}, {"days": "Sat", "time": "4:00pm"}, {"days": "Sun", "time": "Closed"}], "id": "7608600045", "name": "USPS COLLECTION BOX - PO LOBBY", "address": {"city": "WEATHERFORD", "state": "TX", "street": "1145 SANTA FE DR", "postcode": "76086"}}},
{"geometry": {"type": "Point", "coordinates": [-97.7825640383, 32.7477352851]}, "type": "Feature", "properties": {"collection_times": [{"days": "Mon-Fri", "time": "5:00pm"}, {"days": "Sat", "time": "4:00pm"}, {"days": "Sun", "time": "Closed"}], "id": "7608600049", "name": "USPS COLLECTION BOX - APC", "address": {"city": "WEATHERFORD", "state": "TX", "street": "1145 SANTA FE DR", "postcode": "76086"}}},
{"geometry": {"type": "Point", "coordinates": [-97.635866198, 32.7432173035]}, "type": "Feature", "properties": {"collection_times": [{"days": "Mon-Fri", "time": "3:30pm"}, {"days": "Sat", "time": "2:45pm"}, {"days": "Sun", "time": "Closed"}], "id": "7608700002", "name": "USPS COLLECTION BOX - BLUE BOX", "address": {"city": "WEATHERFORD", "state": "TX", "street": "516 RANCH HOUSE RD", "postcode": "76087"}}},
{"geometry": {"type": "Point", "coordinates": [-97.132158132, 32.9439464875]}, "type": "Feature", "properties": {"collection_times": [{"days": "Mon-Fri", "time": "4:30pm"}, {"days": "Sat", "time": "3:15pm"}, {"days": "Sun", "time": "Closed"}], "id": "7609200001", "name": "USPS COLLECTION BOX - BLUE BOX", "address": {"city": "SOUTHLAKE", "state": "TX", "street": "300 STATE ST", "postcode": "76092"}}},
{"geometry": {"type": "Point", "coordinates": [-97.132158132, 32.9439464875]}, "type": "Feature", "properties": {"collection_times": [{"days": "Mon-Fri", "time": "4:30pm"}, {"days": "Sat", "time": "3:15pm"}, {"days": "Sun", "time": "Closed"}], "id": "7609200002", "name": "USPS COLLECTION BOX - BLUE BOX", "address": {"city": "SOUTHLAKE", "state": "TX", "street": "300 STATE ST", "postcode": "76092"}}},
{"geometry": {"type": "Point", "coordinates": [-97.132158132, 32.9439464875]}, "type": "Feature", "properties": {"collection_times": [{"days": "Mon-Fri", "time": "4:30pm"}, {"days": "Sat", "time": "3:15pm"}, {"days": "Sun", "time": "Closed"}], "id": "7609200003", "name": "USPS COLLECTION BOX - PO LOBBY", "address": {"city": "SOUTHLAKE", "state": "TX", "street": "300 STATE ST", "postcode": "76092"}}},
{"geometry": {"type": "Point", "coordinates": [-97.132158132, 32.9439464875]}, "type": "Feature", "properties": {"collection_times": [{"days": "Mon-Fri", "time": "4:30pm"}, {"days": "Sat", "time": "3:15pm"}, {"days": "Sun", "time": "Closed"}], "id": "7609200004", "name": "USPS COLLECTION BOX - PO LOBBY", "address": {"city": "SOUTHLAKE", "state": "TX", "street": "300 STATE ST", "postcode": "76092"}}},
{"geometry": {"type": "Point", "coordinates": [-97.185403115, 32.9378684444]}, "type": "Feature", "properties": {"collection_times": [{"days": "Mon-Fri", "time": "5:00pm"}, {"days": "Sat", "time": "4:30pm"}, {"days": "Sun", "time": "Closed"}], "id": "7609200005", "name": "USPS COLLECTION BOX - BLUE BOX", "address": {"city": "SOUTHLAKE", "state": "TX", "street": "2225 W SOUTHLAKE BLVD", "postcode": "76092"}}},
{"geometry": {"type": "Point", "coordinates": [-97.1515965137, 32.9414776522]}, "type": "Feature", "properties": {"collection_times": [{"days": "Mon-Fri", "time": "5:00pm"}, {"days": "Sat", "time": "4:15pm"}, {"days": "Sun", "time": "Closed"}], "id": "7609200006", "name": "USPS COLLECTION BOX - BLUE BOX", "address": {"city": "SOUTHLAKE", "state": "TX", "street": "100 W SOUTHLAKE BLVD", "postcode": "76092"}}},
{"geometry": {"type": "Point", "coordinates": [-97.1046304589, 32.9321344038]}, "type": "Feature", "properties": {"collection_times": [{"days": "Mon-Fri", "time": "5:15pm"}, {"days": "Sat-Sun", "time": "Closed"}], "id": "7609200007", "name": "USPS COLLECTION BOX - BLUE BOX", "address": {"city": "SOUTHLAKE", "state": "TX", "street": "705 COMMERCE ST", "postcode": "76092"}}},
{"geometry": {"type": "Point", "coordinates": [-97.1236905117, 32.9409512354]}, "type": "Feature", "properties": {"collection_times": [{"days": "Mon-Fri", "time": "4:45pm"}, {"days": "Sat", "time": "4:00pm"}, {"days": "Sun", "time": "Closed"}], "id": "7609200008", "name": "USPS COLLECTION BOX - BLUE BOX", "address": {"city": "SOUTHLAKE", "state": "TX", "street": "1700 E SOUTHLAKE BLVD", "postcode": "76092"}}},
{"geometry": {"type": "Point", "coordinates": [-97.1046304589, 32.9321344038]}, "type": "Feature", "properties": {"collection_times": [{"days": "Mon-Fri", "time": "5:15pm"}, {"days": "Sat-Sun", "time": "Closed"}], "id": "7609200010", "name": "USPS COLLECTION BOX - BLUE BOX", "address": {"city": "SOUTHLAKE", "state": "TX", "street": "705 COMMERCE ST", "postcode": "76092"}}},
{"geometry": {"type": "Point", "coordinates": [-97.132158132, 32.9439464875]}, "type": "Feature", "properties": {"collection_times": [{"days": "Mon-Fri", "time": "4:30pm"}, {"days": "Sat", "time": "3:15pm"}, {"days": "Sun", "time": "Closed"}], "id": "7609200011", "name": "USPS COLLECTION BOX - PO LOBBY", "address": {"city": "SOUTHLAKE", "state": "TX", "street": "300 STATE ST", "postcode": "76092"}}},
{"geometry": {"type": "Point", "coordinates": [-97.132158132, 32.9439464875]}, "type": "Feature", "properties": {"collection_times": [{"days": "Mon-Fri", "time": "4:30pm"}, {"days": "Sat", "time": "3:15pm"}, {"days": "Sun", "time": "Closed"}], "id": "7609200012", "name": "USPS COLLECTION BOX - APC", "address": {"city": "SOUTHLAKE", "state": "TX", "street": "300 STATE ST", "postcode": "76092"}}},
{"geometry": {"type": "Point", "coordinates": [-97.3790438957, 32.2340266439]}, "type": "Feature", "properties": {"collection_times": [{"days": "Mon-Fri", "time": "4:30pm"}, {"days": "Sat", "time": "11:00am"}, {"days": "Sun", "time": "Closed"}], "id": "7609300000", "name": "USPS COLLECTION BOX - PO LOBBY", "address": {"city": "RIO VISTA", "state": "TX", "street": "205 HIGHWAY 174 S", "postcode": "76093"}}},
{"geometry": {"type": "Point", "coordinates": [-97.3790438957, 32.2340266439]}, "type": "Feature", "properties": {"collection_times": [{"days": "Mon-Fri", "time": "4:30pm"}, {"days": "Sat", "time": "11:00am"}, {"days": "Sun", "time": "Closed"}], "id": "7609300001", "name": "USPS COLLECTION BOX - BLUE BOX", "address": {"city": "RIO VISTA", "state": "TX", "street": "205 HIGHWAY 174 S", "postcode": "76093"}}}
]}
