{"type": "FeatureCollection", "features": [
{"geometry": {"type": "Point", "coordinates": [-97.3306439571, 32.7485123666]}, "type": "Feature", "properties": {"collection_times": [{"days": "Mon-Fri", "time": "2:00pm"}, {"days": "Sat-Sun", "time": "Closed"}], "id": "7610200007", "name": "USPS COLLECTION BOX - BLUE BOX", "address": {"city": "FORT WORTH", "state": "TX", "street": "270 TEXAS ST", "postcode": "76102"}}},
{"geometry": {"type": "Point", "coordinates": [-97.3420605685, 32.7427785963]}, "type": "Feature", "properties": {"collection_times": [{"days": "Mon-Fri", "time": "3:30pm"}, {"days": "Sat-Sun", "time": "Closed"}], "id": "7610200023", "name": "USPS COLLECTION BOX - BLUE BOX", "address": {"city": "FORT WORTH", "state": "TX", "street": "1501 W DAGGETT AVE", "postcode": "76102"}}},
{"geometry": {"type": "Point", "coordinates": [-97.3283944628, 32.7520173101]}, "type": "Feature", "properties": {"collection_times": [{"days": "Mon-Fri", "time": "3:30pm"}, {"days": "Sat-Sun", "time": "Closed"}], "id": "7610200039", "name": "USPS COLLECTION BOX - BLUE BOX", "address": {"city": "FORT WORTH", "state": "TX", "street": "1000 JONES ST", "postcode": "76102"}}},
{"geometry": {"type": "Point", "coordinates": [-97.3358491834, 32.7556420653]}, "type": "Feature", "properties": {"collection_times": [{"days": "Mon-Fri", "time": "3:00pm"}, {"days": "Sat-Sun", "time": "Closed"}], "id": "7610200049", "name": "USPS COLLECTION BOX - BLUE BOX", "address": {"city": "FORT WORTH", "state": "TX", "street": "100 N LAMAR ST", "postcode": "76102"}}},
{"geometry": {"type": "Point", "coordinates": [-97.3253203768, 32.7488308511]}, "type": "Feature", "properties": {"collection_times": [{"days": "Mon-Fri", "time": "3:15pm"}, {"days": "Sat-Sun", "time": "Closed"}], "id": "7610200055", "name": "USPS COLLECTION BOX - BLUE BOX", "address": {"city": "FORT WORTH", "state": "TX", "street": "1520 CALHOUN ST", "postcode": "76102"}}},
{"geometry": {"type": "Point", "coordinates": [-97.3178635312, 32.7510844262]}, "type": "Feature", "properties": {"collection_times": [{"days": "Mon-Fri", "time": "1:45pm"}, {"days": "Sat", "time": "11:30am"}, {"days": "Sun", "time": "Closed"}], "id": "7610200056", "name": "USPS COLLECTION BOX - BLUE BOX", "address": {"city": "FORT WORTH", "state": "TX", "street": "1201 LUELLA ST", "postcode": "76102"}}},
{"geometry": {"type": "Point", "coordinates": [-97.3250076511, 32.7609451012]}, "type": "Feature", "properties": {"collection_times": [{"days": "Mon-Fri", "time": "2:30pm"}, {"days": "Sat-Sun", "time": "Closed"}], "id": "7610200059", "name": "USPS COLLECTION BOX - BLUE BOX", "address": {"city": "FORT WORTH", "state": "TX", "street": "1110 E WEATHERFORD ST", "postcode": "76102"}}},
{"geometry": {"type": "Point", "coordinates": [-97.3301594381, 32.7584833636]}, "type": "Feature", "properties": {"collection_times": [{"days": "Mon-Fri", "time": "2:30pm"}, {"days": "Sat-Sun", "time": "Closed"}], "id": "7610200060", "name": "USPS COLLECTION BOX - BLUE BOX", "address": {"city": "FORT WORTH", "state": "TX", "street": "410 E WEATHERFORD ST", "postcode": "76102"}}},
{"geometry": {"type": "Point", "coordinates": [-97.3289154212, 32.7555603358]}, "type": "Feature", "properties": {"collection_times": [{"days": "Mon-Fri", "time": "3:00pm"}, {"days": "Sat-Sun", "time": "Closed"}], "id": "7610200064", "name": "USPS COLLECTION BOX - BLUE BOX", "address": {"city": "FORT WORTH", "state": "TX", "street": "500 JONES ST", "postcode": "76102"}}},
{"geometry": {"type": "Point", "coordinates": [-97.331839387, 32.754054229]}, "type": "Feature", "properties": {"collection_times": [{"days": "Mon-Fri", "time": "2:00pm"}, {"days": "Sat-Sun", "time": "Closed"}], "id": "7610200067", "name": "USPS COLLECTION BOX - BLUE BOX", "address": {"city": "FORT WORTH", "state": "TX", "street": "810 W 10TH ST", "postcode": "76102"}}},
{"geometry": {"type": "Point", "coordinates": [-97.3329381894, 32.7487881333]}, "type": "Feature", "properties": {"collection_times": [{"days": "Mon-Fri", "time": "1:45pm"}, {"days": "Sat-Sun", "time": "Closed"}], "id": "7610200070", "name": "USPS COLLECTION BOX - BLUE BOX", "address": {"city": "FORT WORTH", "state": "TX", "street": "1010 LAMAR ST", "postcode": "76102"}}},
{"geometry": {"type": "Point", "coordinates": [-97.3329845169, 32.7498885343]}, "type": "Feature", "properties": {"collection_times": [{"days": "Mon-Fri", "time": "2:00pm"}, {"days": "Sat-Sun", "time": "Closed"}], "id": "7610200071", "name": "USPS COLLECTION BOX - BLUE BOX", "address": {"city": "FORT WORTH", "state": "TX", "street": "900 LAMAR ST", "postcode": "76102"}}},
{"geometry": {"type": "Point", "coordinates": [-97.3347410377, 32.7519463327]}, "type": "Feature", "properties": {"collection_times": [{"days": "Mon-Fri", "time": "2:15pm"}, {"days": "Sat-Sun", "time": "Closed"}], "id": "7610200073", "name": "USPS COLLECTION BOX - BLUE BOX", "address": {"city": "FORT WORTH", "state": "TX", "street": "750 W 5TH ST", "postcode": "76102"}}},
{"geometry": {"type": "Point", "coordinates": [-97.3350307414, 32.7570387157]}, "type": "Feature", "properties": {"collection_times": [{"days": "Mon-Fri", "time": "5:15pm"}, {"days": "Sat-Sun", "time": "Closed"}], "id": "7610200077", "name": "USPS COLLECTION BOX - BLUE BOX", "address": {"city": "FORT WORTH", "state": "TX", "street": "300 W BELKNAP ST", "postcode": "76102"}}},
{"geometry": {"type": "Point", "coordinates": [-97.3416684745, 32.7460043312]}, "type": "Feature", "properties": {"collection_times": [{"days": "Mon-Fri", "time": "3:15pm"}, {"days": "Sat-Sun", "time": "Closed"}], "id": "7610200085", "name": "USPS COLLECTION BOX - BLUE BOX", "address": {"city": "FORT WORTH", "state": "TX", "street": "1300 SUMMIT AVE", "postcode": "76102"}}},
{"geometry": {"type": "Point", "coordinates": [-97.3316087251, 32.7551822464]}, "type": "Feature", "properties": {"collection_times": [{"days": "Mon-Fri", "time": "3:00pm"}, {"days": "Sat-Sun", "time": "Closed"}], "id": "7610200112", "name": "USPS COLLECTION BOX - BLUE BOX", "address": {"city": "FORT WORTH", "state": "TX", "street": "101 E 3RD ST", "postcode": "76102"}}},
{"geometry": {"type": "Point", "coordinates": [-97.3556013361, 32.7394874089]}, "type": "Feature", "properties": {"collection_times": [{"days": "Mon-Fri", "time": "3:45pm"}, {"days": "Sat-Sun", "time": "Closed"}], "id": "7610200131", "name": "USPS COLLECTION BOX - BLUE BOX", "address": {"city": "FORT WORTH", "state": "TX", "street": "2501 PARKVIEW DR", "postcode": "76102"}}},
{"geometry": {"type": "Point", "coordinates": [-97.338884943, 32.7467330322]}, "type": "Feature", "properties": {"collection_times": [{"days": "Mon-Fri", "time": "3:00pm"}, {"days": "Sat-Sun", "time": "Closed"}], "id": "7610200133", "name": "USPS COLLECTION BOX - BLUE BOX", "address": {"city": "FORT WORTH", "state": "TX", "street": "1115 W LANCASTER AVE", "postcode": "76102"}}},
{"geometry": {"type": "Point", "coordinates": [-97.3279603169, 32.7466029075]}, "type": "Feature", "properties": {"collection_times": [{"days": "Mon-Fri", "time": "5:00pm"}, {"days": "Sat", "time": "3:00pm"}, {"days": "Sun", "time": "Closed"}], "id": "7610200139", "name": "USPS COLLECTION BOX - BLUE BOX", "address": {"city": "FORT WORTH", "state": "TX", "street": "251 W LANCASTER AVE", "postcode": "76102"}}},
{"geometry": {"type": "Point", "coordinates": [-97.3279603169, 32.7466029075]}, "type": "Feature", "properties": {"collection_times": [{"days": "Mon-Fri", "time": "5:00pm"}, {"days": "Sat", "time": "3:00pm"}, {"days": "Sun", "time": "Closed"}], "id": "7610200140", "name": "USPS COLLECTION BOX - BLUE BOX", "address": {"city": "FORT WORTH", "state": "TX", "street": "251 W LANCASTER AVE", "postcode": "76102"}}},
{"geometry": {"type": "Point", "coordinates": [-97.331839387, 32.754054229]}, "type": "Feature", "properties": {"collection_times": [{"days": "Mon-Fri", "time": "5:00pm"}, {"days": "Sat", "time": "3:00pm"}, {"days": "Sun", "time": "Closed"}], "id": "7610200141", "name": "USPS COLLECTION BOX - EXPRESS", "address": {"city": "FORT WORTH", "state": "TX", "street": "251 W LANCASTER AVE", "postcode": "76102"}}},
{"geometry": {"type": "Point", "coordinates": [-97.3399109157, 32.7448981976]}, "type": "Feature", "properties": {"collection_times": [{"days": "Mon-Fri", "time": "3:00pm"}, {"days": "Sat-Sun", "time": "Closed"}], "id": "7610200149", "name": "USPS COLLECTION BOX - BLUE BOX", "address": {"city": "FORT WORTH", "state": "TX", "street": "1315 W EL PASO ST", "postcode": "76102"}}},
{"geometry": {"type": "Point", "coordinates": [-97.3394455866, 32.7450039911]}, "type": "Feature", "properties": {"collection_times": [{"days": "Mon-Fri", "time": "3:00pm"}, {"days": "Sat-Sun", "time": "Closed"}], "id": "7610200151", "name": "USPS COLLECTION BOX - BLUE BOX", "address": {"city": "FORT WORTH", "state": "TX", "street": "1400 W EL PASO ST", "postcode": "76102"}}},
{"geometry": {"type": "Point", "coordinates": [-97.3279603169, 32.7466029075]}, "type": "Feature", "properties": {"collection_times": [{"days": "Mon-Fri", "time": "6:00pm"}, {"days": "Sat", "time": "3:00pm"}, {"days": "Sun", "time": "Closed"}], "id": "7610200159", "name": "USPS COLLECTION BOX - PO LOBBY", "address": {"city": "FORT WORTH", "state": "TX", "street": "251 W LANCASTER AVE", "postcode": "76102"}}},
{"geometry": {"type": "Point", "coordinates": [-97.3279603169, 32.7466029075]}, "type": "Feature", "properties": {"collection_times": [{"days": "Mon-Fri", "time": "6:00pm"}, {"days": "Sat", "time": "3:00pm"}, {"days": "Sun", "time": "Closed"}], "id": "7610200160", "name": "USPS COLLECTION BOX - PO LOBBY", "address": {"city": "FORT WORTH", "state": "TX", "street": "251 W LANCASTER AVE", "postcode": "76102"}}},
{"geometry": {"type": "Point", "coordinates": [-97.3279603169, 32.7466029075]}, "type": "Feature", "properties": {"collection_times": [{"days": "Mon-Fri", "time": "6:00pm"}, {"days": "Sat", "time": "3:00pm"}, {"days": "Sun", "time": "Closed"}], "id": "7610200161", "name": "USPS COLLECTION BOX - PO LOBBY", "address": {"city": "FORT WORTH", "state": "TX", "street": "251 W LANCASTER AVE", "postcode": "76102"}}},
{"geometry": {"type": "Point", "coordinates": [-97.3279603169, 32.7466029075]}, "type": "Feature", "properties": {"collection_times": [{"days": "Mon-Fri", "time": "6:00pm"}, {"days": "Sat", "time": "3:00pm"}, {"days": "Sun", "time": "Closed"}], "id": "7610200162", "name": "USPS COLLECTION BOX - PO LOBBY", "address": {"city": "FORT WORTH", "state": "TX", "street": "251 W LANCASTER AVE", "postcode": "76102"}}},
{"geometry": {"type": "Point", "coordinates": [-97.3279603169, 32.7466029075]}, "type": "Feature", "properties": {"collection_times": [{"days": "Mon-Fri", "time": "6:00pm"}, {"days": "Sat", "time": "3:00pm"}, {"days": "Sun", "time": "Closed"}], "id": "7610200163", "name": "USPS COLLECTION BOX - PO LOBBY", "address": {"city": "FORT WORTH", "state": "TX", "street": "251 W LANCASTER AVE", "postcode": "76102"}}},
{"geometry": {"type": "Point", "coordinates": [-97.3320036707, 32.7504345111]}, "type": "Feature", "properties": {"collection_times": [{"days": "Mon-Fri", "time": "5:30pm"}, {"days": "Sat-Sun", "time": "Closed"}], "id": "7610200165", "name": "USPS COLLECTION BOX - PO LOBBY", "address": {"city": "FORT WORTH", "state": "TX", "street": "819 TAYLOR ST", "postcode": "76102"}}},
{"geometry": {"type": "Point", "coordinates": [-97.3320036707, 32.7504345111]}, "type": "Feature", "properties": {"collection_times": [{"days": "Mon-Fri", "time": "5:30pm"}, {"days": "Sat-Sun", "time": "Closed"}], "id": "7610200166", "name": "USPS COLLECTION BOX - PO LOBBY", "address": {"city": "FORT WORTH", "state": "TX", "street": "819 TAYLOR ST", "postcode": "76102"}}},
{"geometry": {"type": "Point", "coordinates": [-97.3395355704, 32.7467318496]}, "type": "Feature", "properties": {"collection_times": [{"days": "Mon-Fri", "time": "1:45pm"}, {"days": "Sat-Sun", "time": "Closed"}], "id": "7610200174", "name": "USPS COLLECTION BOX - BLUE BOX", "address": {"city": "FORT WORTH", "state": "TX", "street": "1212 E LANCASTER AVE", "postcode": "76102"}}},
{"geometry": {"type": "Point", "coordinates": [-97.3247663126, 32.7610735406]}, "type": "Feature", "properties": {"collection_times": [{"days": "Mon-Fri", "time": "2:30pm"}, {"days": "Sat", "time": "11:30am"}, {"days": "Sun", "time": "Closed"}], "id": "7610200175", "name": "USPS COLLECTION BOX - BLUE BOX", "address": {"city": "FORT WORTH", "state": "TX", "street": "100 N NICHOLS ST", "postcode": "76102"}}},
{"geometry": {"type": "Point", "coordinates": [-97.269871117, 32.740809957]}, "type": "Feature", "properties": {"collection_times": [{"days": "Mon-Fri", "time": "1:30pm"}, {"days": "Sat", "time": "12:45pm"}, {"days": "Sun", "time": "Closed"}], "id": "7610300004", "name": "USPS COLLECTION BOX - BLUE BOX", "address": {"city": "FORT WORTH", "state": "TX", "street": "3750 E LANCASTER AVE", "postcode": "76103"}}},
{"geometry": {"type": "Point", "coordinates": [-97.2617472555, 32.7591929512]}, "type": "Feature", "properties": {"collection_times": [{"days": "Mon-Sat", "time": "11:35am"}, {"days": "Sun", "time": "Closed"}], "id": "7610300007", "name": "USPS COLLECTION BOX - BLUE BOX", "address": {"city": "FORT WORTH", "state": "TX", "street": "1227 OAKLAND BLVD", "postcode": "76103"}}},
{"geometry": {"type": "Point", "coordinates": [-97.2876450754, 32.7477125226]}, "type": "Feature", "properties": {"collection_times": [{"days": "Mon-Fri", "time": "2:50pm"}, {"days": "Sat", "time": "2:30pm"}, {"days": "Sun", "time": "Closed"}], "id": "7610300011", "name": "USPS COLLECTION BOX - BLUE BOX", "address": {"city": "FORT WORTH", "state": "TX", "street": "2601 SCOTT AVE", "postcode": "76103"}}},
{"geometry": {"type": "Point", "coordinates": [-97.3281596989, 32.7342874222]}, "type": "Feature", "properties": {"collection_times": [{"days": "Mon-Fri", "time": "2:15pm"}, {"days": "Sat-Sun", "time": "Closed"}], "id": "7610400009", "name": "USPS COLLECTION BOX - BLUE BOX", "address": {"city": "FORT WORTH", "state": "TX", "street": "1020 SAINT LOUIS AVE", "postcode": "76104"}}},
{"geometry": {"type": "Point", "coordinates": [-97.3428265623, 32.7331739569]}, "type": "Feature", "properties": {"collection_times": [{"days": "Mon-Fri", "time": "2:45pm"}, {"days": "Sat-Sun", "time": "Closed"}], "id": "7610400013", "name": "USPS COLLECTION BOX - BLUE BOX", "address": {"city": "FORT WORTH", "state": "TX", "street": "1432 W ROSEDALE ST", "postcode": "76104"}}},
{"geometry": {"type": "Point", "coordinates": [-97.3382627066, 32.7306518884]}, "type": "Feature", "properties": {"collection_times": [{"days": "Mon-Fri", "time": "2:30pm"}, {"days": "Sat-Sun", "time": "Closed"}], "id": "7610400016", "name": "USPS COLLECTION BOX - BLUE BOX", "address": {"city": "FORT WORTH", "state": "TX", "street": "1227 W MAGNOLIA AVE", "postcode": "76104"}}},
{"geometry": {"type": "Point", "coordinates": [-97.3451901143, 32.7332070797]}, "type": "Feature", "properties": {"collection_times": [{"days": "Mon-Fri", "time": "2:45pm"}, {"days": "Sat-Sun", "time": "Closed"}], "id": "7610400017", "name": "USPS COLLECTION BOX - BLUE BOX", "address": {"city": "FORT WORTH", "state": "TX", "street": "1650 W ROSEDALE ST", "postcode": "76104"}}},
{"geometry": {"type": "Point", "coordinates": [-97.3403192954, 32.7379856797]}, "type": "Feature", "properties": {"collection_times": [{"days": "Mon-Fri", "time": "3:15pm"}, {"days": "Sat-Sun", "time": "Closed"}], "id": "7610400023", "name": "USPS COLLECTION BOX - BLUE BOX", "address": {"city": "FORT WORTH", "state": "TX", "street": "700 6TH AVE", "postcode": "76104"}}},
{"geometry": {"type": "Point", "coordinates": [-97.3436901223, 32.7367535907]}, "type": "Feature", "properties": {"collection_times": [{"days": "Mon-Fri", "time": "3:00pm"}, {"days": "Sat-Sun", "time": "Closed"}], "id": "7610400025", "name": "USPS COLLECTION BOX - BLUE BOX", "address": {"city": "FORT WORTH", "state": "TX", "street": "757 8TH AVE", "postcode": "76104"}}},
{"geometry": {"type": "Point", "coordinates": [-97.3344405662, 32.738474796]}, "type": "Feature", "properties": {"collection_times": [{"days": "Mon-Fri", "time": "3:30pm"}, {"days": "Sat-Sun", "time": "Closed"}], "id": "7610400029", "name": "USPS COLLECTION BOX - BLUE BOX", "address": {"city": "FORT WORTH", "state": "TX", "street": "901 PENNSYLVANIA AVE", "postcode": "76104"}}},
{"geometry": {"type": "Point", "coordinates": [-97.3182800029, 32.7327485342]}, "type": "Feature", "properties": {"collection_times": [{"days": "Mon-Fri", "time": "1:30pm"}, {"days": "Sat", "time": "11:30am"}, {"days": "Sun", "time": "Closed"}], "id": "7610400031", "name": "USPS COLLECTION BOX - BLUE BOX", "address": {"city": "FORT WORTH", "state": "TX", "street": "1115 EVANS AVE", "postcode": "76104"}}},
{"geometry": {"type": "Point", "coordinates": [-97.3137328695, 32.7182331852]}, "type": "Feature", "properties": {"collection_times": [{"days": "Mon-Fri", "time": "1:15pm"}, {"days": "Sat", "time": "11:30am"}, {"days": "Sun", "time": "Closed"}], "id": "7610400037", "name": "USPS COLLECTION BOX - BLUE BOX", "address": {"city": "FORT WORTH", "state": "TX", "street": "1100 E JESSAMINE ST", "postcode": "76104"}}},
{"geometry": {"type": "Point", "coordinates": [-97.3427059123, 32.738538633]}, "type": "Feature", "properties": {"collection_times": [{"days": "Mon-Fri", "time": "3:15pm"}, {"days": "Sat-Sun", "time": "Closed"}], "id": "7610400038", "name": "USPS COLLECTION BOX - BLUE BOX", "address": {"city": "FORT WORTH", "state": "TX", "street": "1510 PENNSYLVANIA AVE", "postcode": "76104"}}},
{"geometry": {"type": "Point", "coordinates": [-97.3437802814, 32.7282637402]}, "type": "Feature", "properties": {"collection_times": [{"days": "Mon-Fri", "time": "2:45pm"}, {"days": "Sat-Sun", "time": "Closed"}], "id": "7610400042", "name": "USPS COLLECTION BOX - BLUE BOX", "address": {"city": "FORT WORTH", "state": "TX", "street": "1450 8TH AVE", "postcode": "76104"}}},
{"geometry": {"type": "Point", "coordinates": [-97.3326424685, 32.7330237211]}, "type": "Feature", "properties": {"collection_times": [{"days": "Mon-Fri", "time": "2:15pm"}, {"days": "Sat-Sun", "time": "Closed"}], "id": "7610400043", "name": "USPS COLLECTION BOX - BLUE BOX", "address": {"city": "FORT WORTH", "state": "TX", "street": "600 W ROSEDALE ST", "postcode": "76104"}}},
{"geometry": {"type": "Point", "coordinates": [-97.3217988278, 32.7980485526]}, "type": "Feature", "properties": {"collection_times": [{"days": "Mon-Fri", "time": "1:15pm"}, {"days": "Sat-Sun", "time": "Closed"}], "id": "7610400044", "name": "USPS COLLECTION BOX - BLUE BOX", "address": {"city": "FORT WORTH", "state": "TX", "street": "3037 SOUTH FWY", "postcode": "76104"}}},
{"geometry": {"type": "Point", "coordinates": [-97.3389736649, 32.7384842597]}, "type": "Feature", "properties": {"collection_times": [{"days": "Mon-Fri", "time": "3:15pm"}, {"days": "Sat-Sun", "time": "Closed"}], "id": "7610400045", "name": "USPS COLLECTION BOX - BLUE BOX", "address": {"city": "FORT WORTH", "state": "TX", "street": "1325 PENNSYLVANIA AVE", "postcode": "76104"}}},
{"geometry": {"type": "Point", "coordinates": [-97.3230277158, 32.7304912642]}, "type": "Feature", "properties": {"collection_times": [{"days": "Mon-Fri", "time": "3:00pm"}, {"days": "Sat-Sun", "time": "Closed"}], "id": "7610400054", "name": "USPS COLLECTION BOX - BLUE BOX", "address": {"city": "FORT WORTH", "state": "TX", "street": "1612 W HUMBOLT ST", "postcode": "76104"}}},
{"geometry": {"type": "Point", "coordinates": [-97.2543942168, 32.7311792323]}, "type": "Feature", "properties": {"collection_times": [{"days": "Mon-Fri", "time": "5:15pm"}, {"days": "Sat", "time": "3:30pm"}, {"days": "Sun", "time": "Closed"}], "id": "7610500009", "name": "USPS COLLECTION BOX - BLUE BOX", "address": {"city": "FORT WORTH", "state": "TX", "street": "4650 E ROSEDALE ST", "postcode": "76105"}}},
{"geometry": {"type": "Point", "coordinates": [-97.2543942168, 32.7311792323]}, "type": "Feature", "properties": {"collection_times": [{"days": "Mon-Fri", "time": "5:00pm"}, {"days": "Sat", "time": "3:30pm"}, {"days": "Sun", "time": "Closed"}], "id": "7610500013", "name": "USPS COLLECTION BOX - PO LOBBY", "address": {"city": "FORT WORTH", "state": "TX", "street": "4650 E ROSEDALE ST", "postcode": "76105"}}},
{"geometry": {"type": "Point", "coordinates": [-97.2543942168, 32.7311792323]}, "type": "Feature", "properties": {"collection_times": [{"days": "Mon-Fri", "time": "5:00pm"}, {"days": "Sat", "time": "3:30pm"}, {"days": "Sun", "time": "Closed"}], "id": "7610500014", "name": "USPS COLLECTION BOX - PO LOBBY", "address": {"city": "FORT WORTH", "state": "TX", "street": "4650 E ROSEDALE ST", "postcode": "76105"}}},
{"geometry": {"type": "Point", "coordinates": [-97.2809909652, 32.732483433]}, "type": "Feature", "properties": {"collection_times": [{"days": "Mon-Fri", "time": "3:00pm"}, {"days": "Sat-Sun", "time": "Closed"}], "id": "7610500015", "name": "USPS COLLECTION BOX - BLUE BOX", "address": {"city": "FORT WORTH", "state": "TX", "street": "1201 WESLEYAN ST", "postcode": "76105"}}},
{"geometry": {"type": "Point", "coordinates": [-97.2543942168, 32.7311792323]}, "type": "Feature", "properties": {"collection_times": [{"days": "Mon-Fri", "time": "5:15pm"}, {"days": "Sat", "time": "3:30pm"}, {"days": "Sun", "time": "Closed"}], "id": "7610500017", "name": "USPS COLLECTION BOX - BLUE BOX", "address": {"city": "FORT WORTH", "state": "TX", "street": "4650 E ROSEDALE ST", "postcode": "76105"}}},
{"geometry": {"type": "Point", "coordinates": [-97.3395463183, 32.8175065644]}, "type": "Feature", "properties": {"collection_times": [{"days": "Mon-Sat", "time": "8:10am"}, {"days": "Sun", "time": "Closed"}], "id": "7610600026", "name": "USPS COLLECTION BOX - BLUE BOX", "address": {"city": "FORT WORTH", "state": "TX", "street": "4099 DECATUR AVE", "postcode": "76106"}}},
{"geometry": {"type": "Point", "coordinates": [-97.3264082748, 32.7032320825]}, "type": "Feature", "properties": {"collection_times": [{"days": "Mon-Fri", "time": "2:00pm"}, {"days": "Sat", "time": "1:00pm"}, {"days": "Sun", "time": "Closed"}], "id": "7610600027", "name": "USPS COLLECTION BOX - BLUE BOX", "address": {"city": "FORT WORTH", "state": "TX", "street": "3220 N MAIN ST", "postcode": "76106"}}},
{"geometry": {"type": "Point", "coordinates": [-97.3631438825, 32.7261045941]}, "type": "Feature", "properties": {"collection_times": [{"days": "Mon-Fri", "time": "2:45pm"}, {"days": "Sat", "time": "2:05pm"}, {"days": "Sun", "time": "Closed"}], "id": "7610700021", "name": "USPS COLLECTION BOX - BLUE BOX", "address": {"city": "FT WORTH", "state": "TX", "street": "3200 COLLINSWORTH ST", "postcode": "76107"}}},
{"geometry": {"type": "Point", "coordinates": [-97.3878869191, 32.7251765872]}, "type": "Feature", "properties": {"collection_times": [{"days": "Mon-Fri", "time": "2:35pm"}, {"days": "Sat", "time": "1:55pm"}, {"days": "Sun", "time": "Closed"}], "id": "7610700024", "name": "USPS COLLECTION BOX - BLUE BOX", "address": {"city": "FT WORTH", "state": "TX", "street": "4603 WELLESLEY AVE", "postcode": "76107"}}},
{"geometry": {"type": "Point", "coordinates": [-97.3924402244, 32.7386851442]}, "type": "Feature", "properties": {"collection_times": [{"days": "Mon-Fri", "time": "3:00pm"}, {"days": "Sat", "time": "2:10pm"}, {"days": "Sun", "time": "Closed"}], "id": "7610700038", "name": "USPS COLLECTION BOX - BLUE BOX", "address": {"city": "FT WORTH", "state": "TX", "street": "4840 BYERS AVE", "postcode": "76107"}}},
{"geometry": {"type": "Point", "coordinates": [-97.361138767, 32.7585153038]}, "type": "Feature", "properties": {"collection_times": [{"days": "Mon-Fri", "time": "3:00pm"}, {"days": "Sat", "time": "2:30pm"}, {"days": "Sun", "time": "Closed"}], "id": "7610700067", "name": "USPS COLLECTION BOX - BLUE BOX", "address": {"city": "FT WORTH", "state": "TX", "street": "100 N UNIVERSITY DR", "postcode": "76107"}}},
{"geometry": {"type": "Point", "coordinates": [-97.3850086853, 32.7413069526]}, "type": "Feature", "properties": {"collection_times": [{"days": "Mon-Fri", "time": "2:50pm"}, {"days": "Sat", "time": "2:05pm"}, {"days": "Sun", "time": "Closed"}], "id": "7610700072", "name": "USPS COLLECTION BOX - BLUE BOX", "address": {"city": "FT WORTH", "state": "TX", "street": "4451 CAMP BOWIE BLVD", "postcode": "76107"}}},
{"geometry": {"type": "Point", "coordinates": [-97.3987284711, 32.7341995823]}, "type": "Feature", "properties": {"collection_times": [{"days": "Mon-Fri", "time": "3:00pm"}, {"days": "Sat", "time": "2:10pm"}, {"days": "Sun", "time": "Closed"}], "id": "7610700077", "name": "USPS COLLECTION BOX - BLUE BOX", "address": {"city": "FT WORTH", "state": "TX", "street": "2615 MERRICK ST", "postcode": "76107"}}},
{"geometry": {"type": "Point", "coordinates": [-97.4079697465, 32.7280564764]}, "type": "Feature", "properties": {"collection_times": [{"days": "Mon-Fri", "time": "3:05pm"}, {"days": "Sat", "time": "2:15pm"}, {"days": "Sun", "time": "Closed"}], "id": "7610700119", "name": "USPS COLLECTION BOX - BLUE BOX", "address": {"city": "FT WORTH", "state": "TX", "street": "3300 HORNE ST", "postcode": "76107"}}},
{"geometry": {"type": "Point", "coordinates": [-97.468811692, 32.7634044732]}, "type": "Feature", "properties": {"collection_times": [{"days": "Mon-Fri", "time": "5:00pm"}, {"days": "Sat", "time": "2:15pm"}, {"days": "Sun", "time": "Closed"}], "id": "7610800015", "name": "USPS COLLECTION BOX - BLUE BOX", "address": {"city": "FORT WORTH", "state": "TX", "street": "301 N LAS VEGAS TRL", "postcode": "76108"}}},
{"geometry": {"type": "Point", "coordinates": [-97.4688629205, 32.763300762]}, "type": "Feature", "properties": {"collection_times": [{"days": "Mon-Fri", "time": "5:00pm"}, {"days": "Sat", "time": "2:15pm"}, {"days": "Sun", "time": "Closed"}], "id": "7610800018", "name": "USPS COLLECTION BOX - PO LOBBY", "address": {"city": "FORT WORTH", "state": "TX", "street": "301 N LAS VEGAS TRL", "postcode": "76108"}}},
{"geometry": {"type": "Point", "coordinates": [-97.4688629205, 32.763300762]}, "type": "Feature", "properties": {"collection_times": [{"days": "Mon-Fri", "time": "5:00pm"}, {"days": "Sat", "time": "2:15pm"}, {"days": "Sun", "time": "Closed"}], "id": "7610800019", "name": "USPS COLLECTION BOX - PO LOBBY", "address": {"city": "FORT WORTH", "state": "TX", "street": "301 N LAS VEGAS TRL", "postcode": "76108"}}},
{"geometry": {"type": "Point", "coordinates": [-97.468811692, 32.7634044732]}, "type": "Feature", "properties": {"collection_times": [{"days": "Mon-Fri", "time": "5:00pm"}, {"days": "Sat", "time": "2:15pm"}, {"days": "Sun", "time": "Closed"}], "id": "7610800021", "name": "USPS COLLECTION BOX - BLUE BOX", "address": {"city": "FORT WORTH", "state": "TX", "street": "301 N LAS VEGAS TRL", "postcode": "76108"}}},
{"geometry": {"type": "Point", "coordinates": [-97.509518742, 32.823182819]}, "type": "Feature", "properties": {"collection_times": [{"days": "Mon-Sat", "time": "11:00am"}, {"days": "Sun", "time": "Closed"}], "id": "7610800022", "name": "USPS COLLECTION BOX - BLUE BOX", "address": {"city": "FORT WORTH", "state": "TX", "street": "7001 CONFEDERATE PARK RD STE 102", "postcode": "76108"}}},
{"geometry": {"type": "Point", "coordinates": [-97.3612355753, 32.6990482083]}, "type": "Feature", "properties": {"collection_times": [{"days": "Mon-Fri", "time": "1:10pm"}, {"days": "Sat", "time": "1:05pm"}, {"days": "Sun", "time": "Closed"}], "id": "7610900001", "name": "USPS COLLECTION BOX - BLUE BOX", "address": {"city": "FORT WORTH", "state": "TX", "street": "3000 W BIDDISON ST", "postcode": "76109"}}},
{"geometry": {"type": "Point", "coordinates": [-97.3674924396, 32.6963732864]}, "type": "Feature", "properties": {"collection_times": [{"days": "Mon-Fri", "time": "1:10pm"}, {"days": "Sat", "time": "1:15pm"}, {"days": "Sun", "time": "Closed"}], "id": "7610900002", "name": "USPS COLLECTION BOX - BLUE BOX", "address": {"city": "FORT WORTH", "state": "TX", "street": "3500 S HILLS AVE", "postcode": "76109"}}},
{"geometry": {"type": "Point", "coordinates": [-97.4119620644, 32.6913736909]}, "type": "Feature", "properties": {"collection_times": [{"days": "Mon-Sat", "time": "1:30pm"}, {"days": "Sun", "time": "Closed"}], "id": "7610900005", "name": "USPS COLLECTION BOX - BLUE BOX", "address": {"city": "FORT WORTH", "state": "TX", "street": "4260 BRYANT IRVIN RD", "postcode": "76109"}}},
{"geometry": {"type": "Point", "coordinates": [-97.3885976105, 32.7103570444]}, "type": "Feature", "properties": {"collection_times": [{"days": "Mon-Fri", "time": "5:00pm"}, {"days": "Sat", "time": "3:45pm"}, {"days": "Sun", "time": "Closed"}], "id": "7610900010", "name": "USPS COLLECTION BOX - BLUE BOX", "address": {"city": "FORT WORTH", "state": "TX", "street": "4450 OAK PARK LN", "postcode": "76109"}}},
{"geometry": {"type": "Point", "coordinates": [-97.3885976105, 32.7103570444]}, "type": "Feature", "properties": {"collection_times": [{"days": "Mon-Fri", "time": "5:00pm"}, {"days": "Sat", "time": "3:45pm"}, {"days": "Sun", "time": "Closed"}], "id": "7610900011", "name": "USPS COLLECTION BOX - BLUE BOX", "address": {"city": "FORT WORTH", "state": "TX", "street": "4450 OAK PARK LN", "postcode": "76109"}}},
{"geometry": {"type": "Point", "coordinates": [-97.3579558092, 32.7018047263]}, "type": "Feature", "properties": {"collection_times": [{"days": "Mon-Fri", "time": "1:05pm"}, {"days": "Sat", "time": "1:00pm"}, {"days": "Sun", "time": "Closed"}], "id": "7610900012", "name": "USPS COLLECTION BOX - BLUE BOX", "address": {"city": "FORT WORTH", "state": "TX", "street": "2851 BENBROOK BLVD", "postcode": "76109"}}},
{"geometry": {"type": "Point", "coordinates": [-97.4183948369, 32.6921131953]}, "type": "Feature", "properties": {"collection_times": [{"days": "Mon-Fri", "time": "1:35pm"}, {"days": "Sat", "time": "1:30pm"}, {"days": "Sun", "time": "Closed"}], "id": "7610900013", "name": "USPS COLLECTION BOX - BLUE BOX", "address": {"city": "FORT WORTH", "state": "TX", "street": "6400 SOUTHWEST BLVD", "postcode": "76109"}}},
{"geometry": {"type": "Point", "coordinates": [-97.3836672271, 32.7007601003]}, "type": "Feature", "properties": {"collection_times": [{"days": "Mon-Fri", "time": "1:45pm"}, {"days": "Sat", "time": "1:35pm"}, {"days": "Sun", "time": "Closed"}], "id": "7610900014", "name": "USPS COLLECTION BOX - BLUE BOX", "address": {"city": "FORT WORTH", "state": "TX", "street": "4701 OVERTON PLZ", "postcode": "76109"}}},
{"geometry": {"type": "Point", "coordinates": [-97.4183948369, 32.6921131953]}, "type": "Feature", "properties": {"collection_times": [{"days": "Mon-Fri", "time": "1:35pm"}, {"days": "Sat", "time": "1:30pm"}, {"days": "Sun", "time": "Closed"}], "id": "7610900015", "name": "USPS COLLECTION BOX - BLUE BOX", "address": {"city": "FORT WORTH", "state": "TX", "street": "6400 SOUTHWEST BLVD", "postcode": "76109"}}},
{"geometry": {"type": "Point", "coordinates": [-97.3885976105, 32.7103570444]}, "type": "Feature", "properties": {"collection_times": [{"days": "Mon-Fri", "time": "5:00pm"}, {"days": "Sat", "time": "3:45pm"}, {"days": "Sun", "time": "Closed"}], "id": "7610900021", "name": "USPS COLLECTION BOX - PO LOBBY", "address": {"city": "FORT WORTH", "state": "TX", "street": "4450 OAK PARK LN", "postcode": "76109"}}},
{"geometry": {"type": "Point", "coordinates": [-97.3885976105, 32.7103570444]}, "type": "Feature", "properties": {"collection_times": [{"days": "Mon-Fri", "time": "5:00pm"}, {"days": "Sat", "time": "3:45pm"}, {"days": "Sun", "time": "Closed"}], "id": "7610900022", "name": "USPS COLLECTION BOX - PO LOBBY", "address": {"city": "FORT WORTH", "state": "TX", "street": "4450 OAK PARK LN", "postcode": "76109"}}},
{"geometry": {"type": "Point", "coordinates": [-97.3885976105, 32.7103570444]}, "type": "Feature", "properties": {"collection_times": [{"days": "Mon-Fri", "time": "6:00pm"}, {"days": "Sat", "time": "1:30pm"}, {"days": "Sun", "time": "Closed"}], "id": "7610900024", "name": "USPS COLLECTION BOX - APC", "address": {"city": "FORT WORTH", "state": "TX", "street": "4450 OAK PARK LN", "postcode": "76109"}}},
{"geometry": {"type": "Point", "coordinates": [-97.3316830888, 32.6968642144]}, "type": "Feature", "properties": {"collection_times": [{"days": "Mon-Fri", "time": "12:35pm"}, {"days": "Sat", "time": "12:05pm"}, {"days": "Sun", "time": "Closed"}], "id": "7611000002", "name": "USPS COLLECTION BOX - BLUE BOX", "address": {"city": "FORT WORTH", "state": "TX", "street": "3601 HEMPHILL ST", "postcode": "76110"}}},
{"geometry": {"type": "Point", "coordinates": [-97.3441080643, 32.7059921172]}, "type": "Feature", "properties": {"collection_times": [{"days": "Mon-Fri", "time": "12:35pm"}, {"days": "Sat", "time": "12:10pm"}, {"days": "Sun", "time": "Closed"}], "id": "7611000004", "name": "USPS COLLECTION BOX - BLUE BOX", "address": {"city": "FORT WORTH", "state": "TX", "street": "1621 W BERRY ST", "postcode": "76110"}}},
{"geometry": {"type": "Point", "coordinates": [-97.3389391259, 32.7073019698]}, "type": "Feature", "properties": {"collection_times": [{"days": "Mon-Fri", "time": "1:00pm"}, {"days": "Sat", "time": "12:45pm"}, {"days": "Sun", "time": "Closed"}], "id": "7611000006", "name": "USPS COLLECTION BOX - BLUE BOX", "address": {"city": "FORT WORTH", "state": "TX", "street": "2300 PARK HILL DR", "postcode": "76110"}}},
{"geometry": {"type": "Point", "coordinates": [-97.3425367765, 32.6949954503]}, "type": "Feature", "properties": {"collection_times": [{"days": "Mon-Fri", "time": "12:35pm"}, {"days": "Sat", "time": "12:05pm"}, {"days": "Sun", "time": "Closed"}], "id": "7611000011", "name": "USPS COLLECTION BOX - BLUE BOX", "address": {"city": "FORT WORTH", "state": "TX", "street": "3701 RYAN AVE", "postcode": "76110"}}},
{"geometry": {"type": "Point", "coordinates": [-97.3438717187, 32.7133126894]}, "type": "Feature", "properties": {"collection_times": [{"days": "Mon-Fri", "time": "5:15pm"}, {"days": "Sat", "time": "3:20pm"}, {"days": "Sun", "time": "Closed"}], "id": "7611000014", "name": "USPS COLLECTION BOX - BLUE BOX", "address": {"city": "FORT WORTH", "state": "TX", "street": "2600 8TH AVE", "postcode": "76110"}}},
{"geometry": {"type": "Point", "coordinates": [-97.3438717187, 32.7133126894]}, "type": "Feature", "properties": {"collection_times": [{"days": "Mon-Fri", "time": "5:15pm"}, {"days": "Sat", "time": "3:20pm"}, {"days": "Sun", "time": "Closed"}], "id": "7611000015", "name": "USPS COLLECTION BOX - BLUE BOX", "address": {"city": "FORT WORTH", "state": "TX", "street": "2600 8TH AVE", "postcode": "76110"}}},
{"geometry": {"type": "Point", "coordinates": [-97.3315091342, 32.7212170985]}, "type": "Feature", "properties": {"collection_times": [{"days": "Mon-Fri", "time": "12:30pm"}, {"days": "Sat", "time": "12:00pm"}, {"days": "Sun", "time": "Closed"}], "id": "7611000017", "name": "USPS COLLECTION BOX - BLUE BOX", "address": {"city": "FORT WORTH", "state": "TX", "street": "2101 HEMPHILL ST", "postcode": "76110"}}},
{"geometry": {"type": "Point", "coordinates": [-97.3438717187, 32.7133126894]}, "type": "Feature", "properties": {"collection_times": [{"days": "Mon-Fri", "time": "5:00pm"}, {"days": "Sat", "time": "3:30pm"}, {"days": "Sun", "time": "Closed"}], "id": "7611000019", "name": "USPS COLLECTION BOX - PO LOBBY", "address": {"city": "FORT WORTH", "state": "TX", "street": "2600 8TH AVE", "postcode": "76110"}}},
{"geometry": {"type": "Point", "coordinates": [-97.3438717187, 32.7133126894]}, "type": "Feature", "properties": {"collection_times": [{"days": "Mon-Fri", "time": "5:00pm"}, {"days": "Sat", "time": "3:30pm"}, {"days": "Sun", "time": "Closed"}], "id": "7611000020", "name": "USPS COLLECTION BOX - PO LOBBY", "address": {"city": "FORT WORTH", "state": "TX", "street": "2600 8TH AVE", "postcode": "76110"}}},
{"geometry": {"type": "Point", "coordinates": [-97.3438717187, 32.7133126894]}, "type": "Feature", "properties": {"collection_times": [{"days": "Mon-Fri", "time": "5:00pm"}, {"days": "Sat", "time": "3:30pm"}, {"days": "Sun", "time": "Closed"}], "id": "7611000021", "name": "USPS COLLECTION BOX - PO LOBBY", "address": {"city": "FORT WORTH", "state": "TX", "street": "2600 8TH AVE", "postcode": "76110"}}},
{"geometry": {"type": "Point", "coordinates": [-97.3438717187, 32.7133126894]}, "type": "Feature", "properties": {"collection_times": [{"days": "Mon-Fri", "time": "5:00pm"}, {"days": "Sat", "time": "12:00pm"}, {"days": "Sun", "time": "Closed"}], "id": "7611000023", "name": "USPS COLLECTION BOX - APC", "address": {"city": "FORT WORTH", "state": "TX", "street": "2600 8TH AVE", "postcode": "76110"}}},
{"geometry": {"type": "Point", "coordinates": [-97.3016460026, 32.7654307807]}, "type": "Feature", "properties": {"collection_times": [{"days": "Mon-Sat", "time": "8:05am"}, {"days": "Sun", "time": "Closed"}], "id": "7611100001", "name": "USPS COLLECTION BOX - BLUE BOX", "address": {"city": "FORT WORTH", "state": "TX", "street": "2830 N BEACH ST STE E", "postcode": "76111"}}},
{"geometry": {"type": "Point", "coordinates": [-97.3042005861, 32.7705211544]}, "type": "Feature", "properties": {"collection_times": [{"days": "Mon-Fri", "time": "5:15pm"}, {"days": "Sat", "time": "3:45pm"}, {"days": "Sun", "time": "Closed"}], "id": "7611100020", "name": "USPS COLLECTION BOX - BLUE BOX", "address": {"city": "FORT WORTH", "state": "TX", "street": "400 N RETTA ST", "postcode": "76111"}}},
{"geometry": {"type": "Point", "coordinates": [-97.3042005861, 32.7705211544]}, "type": "Feature", "properties": {"collection_times": [{"days": "Mon-Fri", "time": "5:15pm"}, {"days": "Sat", "time": "3:45pm"}, {"days": "Sun", "time": "Closed"}], "id": "7611100021", "name": "USPS COLLECTION BOX - BLUE BOX", "address": {"city": "FORT WORTH", "state": "TX", "street": "400 N RETTA ST", "postcode": "76111"}}},
{"geometry": {"type": "Point", "coordinates": [-97.3042005861, 32.7705211544]}, "type": "Feature", "properties": {"collection_times": [{"days": "Mon-Fri", "time": "5:15pm"}, {"days": "Sat", "time": "3:45pm"}, {"days": "Sun", "time": "Closed"}], "id": "7611100022", "name": "USPS COLLECTION BOX - BLUE BOX", "address": {"city": "FORT WORTH", "state": "TX", "street": "400 N RETTA ST", "postcode": "76111"}}},
{"geometry": {"type": "Point", "coordinates": [-97.3042005861, 32.7705211544]}, "type": "Feature", "properties": {"collection_times": [{"days": "Mon-Fri", "time": "5:15pm"}, {"days": "Sat", "time": "3:45pm"}, {"days": "Sun", "time": "Closed"}], "id": "7611100023", "name": "USPS COLLECTION BOX - BLUE BOX", "address": {"city": "FORT WORTH", "state": "TX", "street": "400 N RETTA ST", "postcode": "76111"}}},
{"geometry": {"type": "Point", "coordinates": [-97.2873907392, 32.770964764]}, "type": "Feature", "properties": {"collection_times": [{"days": "Mon-Sat", "time": "10:35am"}, {"days": "Sun", "time": "Closed"}], "id": "7611100026", "name": "USPS COLLECTION BOX - BLUE BOX", "address": {"city": "FORT WORTH", "state": "TX", "street": "550 N BEACH ST", "postcode": "76111"}}},
{"geometry": {"type": "Point", "coordinates": [-97.3042005861, 32.7705211544]}, "type": "Feature", "properties": {"collection_times": [{"days": "Mon-Fri", "time": "5:00pm"}, {"days": "Sat", "time": "2:00pm"}, {"days": "Sun", "time": "Closed"}], "id": "7611100029", "name": "USPS COLLECTION BOX - PO LOBBY", "address": {"city": "FORT WORTH", "state": "TX", "street": "400 N RETTA ST", "postcode": "76111"}}},
{"geometry": {"type": "Point", "coordinates": [-97.232354155, 32.7392851173]}, "type": "Feature", "properties": {"collection_times": [{"days": "Mon-Fri", "time": "1:45pm"}, {"days": "Sat", "time": "1:15pm"}, {"days": "Sun", "time": "Closed"}], "id": "7611200006", "name": "USPS COLLECTION BOX - BLUE BOX", "address": {"city": "FORT WORTH", "state": "TX", "street": "2816 STARK ST", "postcode": "76112"}}},
{"geometry": {"type": "Point", "coordinates": [-97.2181320407, 32.7330639417]}, "type": "Feature", "properties": {"collection_times": [{"days": "Mon-Sat", "time": "8:40am"}, {"days": "Sun", "time": "Closed"}], "id": "7611200008", "name": "USPS COLLECTION BOX - BLUE BOX", "address": {"city": "FORT WORTH", "state": "TX", "street": "3128 HANDLEY DR", "postcode": "76112"}}},
{"geometry": {"type": "Point", "coordinates": [-97.2436141598, 32.7702112191]}, "type": "Feature", "properties": {"collection_times": [{"days": "Mon-Fri", "time": "2:30pm"}, {"days": "Sat", "time": "2:00pm"}, {"days": "Sun", "time": "Closed"}], "id": "7611200016", "name": "USPS COLLECTION BOX - BLUE BOX", "address": {"city": "FORT WORTH", "state": "TX", "street": "5100 RANDOL MILL RD", "postcode": "76112"}}},
{"geometry": {"type": "Point", "coordinates": [-97.2400483887, 32.7635334562]}, "type": "Feature", "properties": {"collection_times": [{"days": "Mon-Sat", "time": "1:35pm"}, {"days": "Sun", "time": "Closed"}], "id": "7611200018", "name": "USPS COLLECTION BOX - BLUE BOX", "address": {"city": "FORT WORTH", "state": "TX", "street": "5370 BOCA RATON BLVD", "postcode": "76112"}}},
{"geometry": {"type": "Point", "coordinates": [-97.2144021711, 32.7460587459]}, "type": "Feature", "properties": {"collection_times": [{"days": "Mon-Fri", "time": "2:00pm"}, {"days": "Sat", "time": "1:15pm"}, {"days": "Sun", "time": "Closed"}], "id": "7611200033", "name": "USPS COLLECTION BOX - BLUE BOX", "address": {"city": "FORT WORTH", "state": "TX", "street": "6705 MEADOWBROOK DR", "postcode": "76112"}}},
{"geometry": {"type": "Point", "coordinates": [-97.2337807812, 32.7626174476]}, "type": "Feature", "properties": {"collection_times": [{"days": "Mon-Fri", "time": "2:30pm"}, {"days": "Sat", "time": "1:30pm"}, {"days": "Sun", "time": "Closed"}], "id": "7611200041", "name": "USPS COLLECTION BOX - BLUE BOX", "address": {"city": "FORT WORTH", "state": "TX", "street": "1158 COUNTRY CLUB LN", "postcode": "76112"}}},
{"geometry": {"type": "Point", "coordinates": [-97.216562751, 32.732137301]}, "type": "Feature", "properties": {"collection_times": [{"days": "Mon-Sat", "time": "8:40am"}, {"days": "Sun", "time": "Closed"}], "id": "7611200042", "name": "USPS COLLECTION BOX - BLUE BOX", "address": {"city": "FORT WORTH", "state": "TX", "street": "6701 E LANCASTER AVE", "postcode": "76112"}}},
{"geometry": {"type": "Point", "coordinates": [-97.3918774858, 32.7790791049]}, "type": "Feature", "properties": {"collection_times": [{"days": "Mon-Fri", "time": "12:45pm"}, {"days": "Sat", "time": "11:40am"}, {"days": "Sun", "time": "Closed"}], "id": "7611400002", "name": "USPS COLLECTION BOX - BLUE BOX", "address": {"city": "RIVER OAKS", "state": "TX", "street": "4821 GREEN OAKS DR", "postcode": "76114"}}},
{"geometry": {"type": "Point", "coordinates": [-97.4026783711, 32.8034500001]}, "type": "Feature", "properties": {"collection_times": [{"days": "Mon-Sat", "time": "11:05am"}, {"days": "Sun", "time": "Closed"}], "id": "7611400008", "name": "USPS COLLECTION BOX - BLUE BOX", "address": {"city": "RIVER OAKS", "state": "TX", "street": "5500 BUCHANAN ST", "postcode": "76114"}}},
{"geometry": {"type": "Point", "coordinates": [-97.3998712095, 32.7756599281]}, "type": "Feature", "properties": {"collection_times": [{"days": "Mon-Fri", "time": "5:15pm"}, {"days": "Sat", "time": "4:00pm"}, {"days": "Sun", "time": "Closed"}], "id": "7611400014", "name": "USPS COLLECTION BOX - BLUE BOX", "address": {"city": "RIVER OAKS", "state": "TX", "street": "1008 ROBERTS CUT OFF RD", "postcode": "76114"}}},
{"geometry": {"type": "Point", "coordinates": [-97.3849558226, 32.7870699638]}, "type": "Feature", "properties": {"collection_times": [{"days": "Mon-Sat", "time": "9:35am"}, {"days": "Sun", "time": "Closed"}], "id": "7611400015", "name": "USPS COLLECTION BOX - BLUE BOX", "address": {"city": "RIVER OAKS", "state": "TX", "street": "2454 JACKSBORO HWY", "postcode": "76114"}}},
{"geometry": {"type": "Point", "coordinates": [-97.3998712095, 32.7756599281]}, "type": "Feature", "properties": {"collection_times": [{"days": "Mon-Fri", "time": "5:00pm"}, {"days": "Sat", "time": "4:00pm"}, {"days": "Sun", "time": "Closed"}], "id": "7611400019", "name": "USPS COLLECTION BOX - PO LOBBY", "address": {"city": "RIVER OAKS", "state": "TX", "street": "1008 ROBERTS CUT OFF RD", "postcode": "76114"}}},
{"geometry": {"type": "Point", "coordinates": [-97.4001917914, 32.7600791756]}, "type": "Feature", "properties": {"collection_times": [{"days": "Mon-Sat", "time": "11:55am"}, {"days": "Sun", "time": "Closed"}], "id": "7611400020", "name": "USPS COLLECTION BOX - BLUE BOX", "address": {"city": "RIVER OAKS", "state": "TX", "street": "5301 WHITE SETTLEMENT RD", "postcode": "76114"}}},
{"geometry": {"type": "Point", "coordinates": [-97.3441335362, 32.681692505]}, "type": "Feature", "properties": {"collection_times": [{"days": "Mon-Sat", "time": "8:35am"}, {"days": "Sun", "time": "Closed"}], "id": "7611500003", "name": "USPS COLLECTION BOX - BLUE BOX", "address": {"city": "FT WORTH", "state": "TX", "street": "1609 W GAMBRELL ST", "postcode": "76115"}}},
{"geometry": {"type": "Point", "coordinates": [-97.3089714596, 32.6844443282]}, "type": "Feature", "properties": {"collection_times": [{"days": "Mon-Sat", "time": "9:50am"}, {"days": "Sun", "time": "Closed"}], "id": "7611500008", "name": "USPS COLLECTION BOX - BLUE BOX", "address": {"city": "FT WORTH", "state": "TX", "street": "1305 E SEMINARY DR", "postcode": "76115"}}},
{"geometry": {"type": "Point", "coordinates": [-97.334216105, 32.6797415999]}, "type": "Feature", "properties": {"collection_times": [{"days": "Mon-Fri", "time": "4:00pm"}, {"days": "Sat-Sun", "time": "Closed"}], "id": "7611500017", "name": "USPS COLLECTION BOX - BLUE BOX", "address": {"city": "FT WORTH", "state": "TX", "street": "4200 SOUTH FWY", "postcode": "76115"}}},
{"geometry": {"type": "Point", "coordinates": [-97.3324767545, 32.6648379212]}, "type": "Feature", "properties": {"collection_times": [{"days": "Mon-Sat", "time": "8:10am"}, {"days": "Sun", "time": "Closed"}], "id": "7611500020", "name": "USPS COLLECTION BOX - BLUE BOX", "address": {"city": "FT WORTH", "state": "TX", "street": "700 CALIFORNIA PKWY N", "postcode": "76115"}}},
{"geometry": {"type": "Point", "coordinates": [-97.41484747, 32.7290324176]}, "type": "Feature", "properties": {"collection_times": [{"days": "Mon-Fri", "time": "3:30pm"}, {"days": "Sat", "time": "1:30pm"}, {"days": "Sun", "time": "Closed"}], "id": "7611600006", "name": "USPS COLLECTION BOX - BLUE BOX", "address": {"city": "FORT WORTH", "state": "TX", "street": "6040 CAMP BOWIE BLVD", "postcode": "76116"}}},
{"geometry": {"type": "Point", "coordinates": [-97.4502945376, 32.7045113302]}, "type": "Feature", "properties": {"collection_times": [{"days": "Mon-Sat", "time": "8:10am"}, {"days": "Sun", "time": "Closed"}], "id": "7611600008", "name": "USPS COLLECTION BOX - BLUE BOX", "address": {"city": "FORT WORTH", "state": "TX", "street": "4840 HIGHWAY 377 S", "postcode": "76116"}}},
{"geometry": {"type": "Point", "coordinates": [-97.4455394909, 32.7226224592]}, "type": "Feature", "properties": {"collection_times": [{"days": "Mon-Fri", "time": "1:45pm"}, {"days": "Sat", "time": "1:00pm"}, {"days": "Sun", "time": "Closed"}], "id": "7611600019", "name": "USPS COLLECTION BOX - BLUE BOX", "address": {"city": "FORT WORTH", "state": "TX", "street": "8629 CAMP BOWIE WEST BLVD", "postcode": "76116"}}},
{"geometry": {"type": "Point", "coordinates": [-97.4455394909, 32.7226224592]}, "type": "Feature", "properties": {"collection_times": [{"days": "Mon-Sat", "time": "12:55pm"}, {"days": "Sun", "time": "Closed"}], "id": "7611600026", "name": "USPS COLLECTION BOX - BLUE BOX", "address": {"city": "FORT WORTH", "state": "TX", "street": "7921 CAMP BOWIE WEST BLVD", "postcode": "76116"}}},
{"geometry": {"type": "Point", "coordinates": [-97.4508082395, 32.7299101731]}, "type": "Feature", "properties": {"collection_times": [{"days": "Mon-Fri", "time": "5:00pm"}, {"days": "Sat", "time": "2:00pm"}, {"days": "Sun", "time": "Closed"}], "id": "7611600040", "name": "USPS COLLECTION BOX - BLUE BOX", "address": {"city": "FORT WORTH", "state": "TX", "street": "3020 CHERRY LN", "postcode": "76116"}}},
{"geometry": {"type": "Point", "coordinates": [-97.4508082395, 32.7299101731]}, "type": "Feature", "properties": {"collection_times": [{"days": "Mon-Fri", "time": "5:00pm"}, {"days": "Sat", "time": "2:00pm"}, {"days": "Sun", "time": "Closed"}], "id": "7611600042", "name": "USPS COLLECTION BOX - BLUE BOX", "address": {"city": "FORT WORTH", "state": "TX", "street": "3020 CHERRY LN", "postcode": "76116"}}},
{"geometry": {"type": "Point", "coordinates": [-97.4156672605, 32.728559234]}, "type": "Feature", "properties": {"collection_times": [{"days": "Mon-Fri", "time": "3:30pm"}, {"days": "Sat-Sun", "time": "Closed"}], "id": "7611600043", "name": "USPS COLLECTION BOX - BLUE BOX", "address": {"city": "FORT WORTH", "state": "TX", "street": "6115 CAMP BOWIE BLVD", "postcode": "76116"}}},
{"geometry": {"type": "Point", "coordinates": [-97.4508082395, 32.7299101731]}, "type": "Feature", "properties": {"collection_times": [{"days": "Mon-Fri", "time": "5:00pm"}, {"days": "Sat", "time": "2:00pm"}, {"days": "Sun", "time": "Closed"}], "id": "7611600049", "name": "USPS COLLECTION BOX - PO LOBBY", "address": {"city": "FORT WORTH", "state": "TX", "street": "3020 CHERRY LN", "postcode": "76116"}}},
{"geometry": {"type": "Point", "coordinates": [-97.4508082395, 32.7299101731]}, "type": "Feature", "properties": {"collection_times": [{"days": "Mon-Fri", "time": "5:00pm"}, {"days": "Sat", "time": "2:00pm"}, {"days": "Sun", "time": "Closed"}], "id": "7611600050", "name": "USPS COLLECTION BOX - PO LOBBY", "address": {"city": "FORT WORTH", "state": "TX", "street": "3020 CHERRY LN", "postcode": "76116"}}},
{"geometry": {"type": "Point", "coordinates": [-97.4342030446, 32.7207694492]}, "type": "Feature", "properties": {"collection_times": [{"days": "Mon-Sat", "time": "8:10am"}, {"days": "Sun", "time": "Closed"}], "id": "7611600058", "name": "USPS COLLECTION BOX - BLUE BOX", "address": {"city": "FORT WORTH", "state": "TX", "street": "6777 CAMP BOWIE BLVD", "postcode": "76116"}}},
{"geometry": {"type": "Point", "coordinates": [-97.421627173, 32.7260102313]}, "type": "Feature", "properties": {"collection_times": [{"days": "Mon-Fri", "time": "2:15pm"}, {"days": "Sat", "time": "1:25pm"}, {"days": "Sun", "time": "Closed"}], "id": "7611600068", "name": "USPS COLLECTION BOX - BLUE BOX", "address": {"city": "FORT WORTH", "state": "TX", "street": "6377 CAMP BOWIE BLVD", "postcode": "76116"}}},
{"geometry": {"type": "Point", "coordinates": [-97.4508082395, 32.7299101731]}, "type": "Feature", "properties": {"collection_times": [{"days": "Mon-Fri", "time": "5:00pm"}, {"days": "Sat", "time": "1:00pm"}, {"days": "Sun", "time": "Closed"}], "id": "7611600080", "name": "USPS COLLECTION BOX - APC", "address": {"city": "FORT WORTH", "state": "TX", "street": "3020 CHERRY LN", "postcode": "76116"}}},
{"geometry": {"type": "Point", "coordinates": [-97.4249973198, 32.7390376054]}, "type": "Feature", "properties": {"collection_times": [{"days": "Mon-Fri", "time": "2:30pm"}, {"days": "Sat-Sun", "time": "Closed"}], "id": "7611600098", "name": "USPS COLLECTION BOX - BLUE BOX", "address": {"city": "FORT WORTH", "state": "TX", "street": "2120 RIDGMAR BLVD", "postcode": "76116"}}},
{"geometry": {"type": "Point", "coordinates": [-97.4242780188, 32.7249654046]}, "type": "Feature", "properties": {"collection_times": [{"days": "Mon-Fri", "time": "3:15pm"}, {"days": "Sat", "time": "1:15pm"}, {"days": "Sun", "time": "Closed"}], "id": "7611600099", "name": "USPS COLLECTION BOX - BLUE BOX", "address": {"city": "FORT WORTH", "state": "TX", "street": "6421 CAMP BOWIE BLVD", "postcode": "76116"}}},
{"geometry": {"type": "Point", "coordinates": [-97.2661034676, 32.824134947]}, "type": "Feature", "properties": {"collection_times": [{"days": "Mon-Fri", "time": "12:15pm"}, {"days": "Sat", "time": "12:00pm"}, {"days": "Sun", "time": "Closed"}], "id": "7611700011", "name": "USPS COLLECTION BOX - BLUE BOX", "address": {"city": "FORT WORTH", "state": "TX", "street": "5429 STANLEY KELLER RD", "postcode": "76117"}}},
{"geometry": {"type": "Point", "coordinates": [-97.2743001699, 32.8095946545]}, "type": "Feature", "properties": {"collection_times": [{"days": "Mon-Fri", "time": "12:15pm"}, {"days": "Sat", "time": "12:00pm"}, {"days": "Sun", "time": "Closed"}], "id": "7611700018", "name": "USPS COLLECTION BOX - BLUE BOX", "address": {"city": "FORT WORTH", "state": "TX", "street": "5024 BROADWAY AVE", "postcode": "76117"}}},
{"geometry": {"type": "Point", "coordinates": [-97.2620079887, 32.8084527336]}, "type": "Feature", "properties": {"collection_times": [{"days": "Mon-Fri", "time": "5:00pm"}, {"days": "Sat-Sun", "time": "Closed"}], "id": "7611700023", "name": "USPS COLLECTION BOX - PO LOBBY", "address": {"city": "FORT WORTH", "state": "TX", "street": "5709 BROADWAY AVE", "postcode": "76117"}}},
{"geometry": {"type": "Point", "coordinates": [-97.2855204811, 32.7756078779]}, "type": "Feature", "properties": {"collection_times": [{"days": "Mon-Fri", "time": "1:00pm"}, {"days": "Sat", "time": "12:30pm"}, {"days": "Sun", "time": "Closed"}], "id": "7611700025", "name": "USPS COLLECTION BOX - BLUE BOX", "address": {"city": "FORT WORTH", "state": "TX", "street": "4200 AIRPORT FWY", "postcode": "76117"}}},
{"geometry": {"type": "Point", "coordinates": [-97.261980608, 32.8084584334]}, "type": "Feature", "properties": {"collection_times": [{"days": "Mon-Fri", "time": "5:00pm"}, {"days": "Sat", "time": "4:00pm"}, {"days": "Sun", "time": "Closed"}], "id": "7611700032", "name": "USPS COLLECTION BOX - BLUE BOX", "address": {"city": "FORT WORTH", "state": "TX", "street": "5709 BROADWAY AVE", "postcode": "76117"}}},
{"geometry": {"type": "Point", "coordinates": [-97.2620079887, 32.8084527336]}, "type": "Feature", "properties": {"collection_times": [{"days": "Mon-Fri", "time": "5:00pm"}, {"days": "Sat-Sun", "time": "Closed"}], "id": "7611700034", "name": "USPS COLLECTION BOX - PO LOBBY", "address": {"city": "FORT WORTH", "state": "TX", "street": "5709 BROADWAY AVE", "postcode": "76117"}}},
{"geometry": {"type": "Point", "coordinates": [-97.2737481929, 32.7811749577]}, "type": "Feature", "properties": {"collection_times": [{"days": "Mon-Fri", "time": "1:00pm"}, {"days": "Sat", "time": "12:30pm"}, {"days": "Sun", "time": "Closed"}], "id": "7611700041", "name": "USPS COLLECTION BOX - BLUE BOX", "address": {"city": "FORT WORTH", "state": "TX", "street": "5050 AIRPORT FWY", "postcode": "76117"}}},
{"geometry": {"type": "Point", "coordinates": [-97.2121878492, 32.820086389]}, "type": "Feature", "properties": {"collection_times": [{"days": "Mon-Sat", "time": "9:05am"}, {"days": "Sun", "time": "Closed"}], "id": "7611800002", "name": "USPS COLLECTION BOX - BLUE BOX", "address": {"city": "RICHLAND HILLS", "state": "TX", "street": "3800 BOOTH CALLOWAY RD", "postcode": "76118"}}},
{"geometry": {"type": "Point", "coordinates": [-97.2284904186, 32.809256905]}, "type": "Feature", "properties": {"collection_times": [{"days": "Mon-Sat", "time": "8:35am"}, {"days": "Sun", "time": "Closed"}], "id": "7611800003", "name": "USPS COLLECTION BOX - BLUE BOX", "address": {"city": "RICHLAND HILLS", "state": "TX", "street": "7085 BAKER BLVD", "postcode": "76118"}}},
{"geometry": {"type": "Point", "coordinates": [-97.2375219211, 32.8077346775]}, "type": "Feature", "properties": {"collection_times": [{"days": "Mon-Fri", "time": "4:15pm"}, {"days": "Sat", "time": "3:45pm"}, {"days": "Sun", "time": "Closed"}], "id": "7611800004", "name": "USPS COLLECTION BOX - BLUE BOX", "address": {"city": "RICHLAND HILLS", "state": "TX", "street": "3201 DIANA DR STE A", "postcode": "76118"}}},
{"geometry": {"type": "Point", "coordinates": [-97.2177215191, 32.8043646799]}, "type": "Feature", "properties": {"collection_times": [{"days": "Mon-Sat", "time": "1:40pm"}, {"days": "Sun", "time": "Closed"}], "id": "7611800009", "name": "USPS COLLECTION BOX - BLUE BOX", "address": {"city": "RICHLAND HILLS", "state": "TX", "street": "7430 DOGWOOD PARK DR", "postcode": "76118"}}},
{"geometry": {"type": "Point", "coordinates": [-97.2375219211, 32.8077595196]}, "type": "Feature", "properties": {"collection_times": [{"days": "Mon-Fri", "time": "4:15pm"}, {"days": "Sat", "time": "3:45pm"}, {"days": "Sun", "time": "Closed"}], "id": "7611800010", "name": "USPS COLLECTION BOX - BLUE BOX", "address": {"city": "RICHLAND HILLS", "state": "TX", "street": "3200 DIANA DR", "postcode": "76118"}}},
{"geometry": {"type": "Point", "coordinates": [-97.2375219211, 32.8077346775]}, "type": "Feature", "properties": {"collection_times": [{"days": "Mon-Fri", "time": "4:15pm"}, {"days": "Sat-Sun", "time": "Closed"}], "id": "7611800012", "name": "USPS COLLECTION BOX - PO LOBBY", "address": {"city": "RICHLAND HILLS", "state": "TX", "street": "3201 DIANA DR STE A", "postcode": "76118"}}},
{"geometry": {"type": "Point", "coordinates": [-97.2375219211, 32.8077346775]}, "type": "Feature", "properties": {"collection_times": [{"days": "Mon-Fri", "time": "4:15pm"}, {"days": "Sat-Sun", "time": "Closed"}], "id": "7611800013", "name": "USPS COLLECTION BOX - PO LOBBY", "address": {"city": "RICHLAND HILLS", "state": "TX", "street": "3201 DIANA DR STE A", "postcode": "76118"}}},
{"geometry": {"type": "Point", "coordinates": [-97.2170156003, 32.7932328046]}, "type": "Feature", "properties": {"collection_times": [{"days": "Mon-Fri", "time": "4:00pm"}, {"days": "Sat", "time": "3:30pm"}, {"days": "Sun", "time": "Closed"}], "id": "7611800016", "name": "USPS COLLECTION BOX - BLUE BOX", "address": {"city": "RICHLAND HILLS", "state": "TX", "street": "2415 GRAVEL DR", "postcode": "76118"}}},
{"geometry": {"type": "Point", "coordinates": [-97.2170156003, 32.7932328046]}, "type": "Feature", "properties": {"collection_times": [{"days": "Mon-Fri", "time": "4:00pm"}, {"days": "Sat", "time": "3:30pm"}, {"days": "Sun", "time": "Closed"}], "id": "7611800017", "name": "USPS COLLECTION BOX - BLUE BOX", "address": {"city": "RICHLAND HILLS", "state": "TX", "street": "2415 GRAVEL DR", "postcode": "76118"}}},
{"geometry": {"type": "Point", "coordinates": [-97.2170156003, 32.7932328046]}, "type": "Feature", "properties": {"collection_times": [{"days": "Mon-Fri", "time": "4:00pm"}, {"days": "Sat", "time": "3:30pm"}, {"days": "Sun", "time": "Closed"}], "id": "7611800018", "name": "USPS COLLECTION BOX - BLUE BOX", "address": {"city": "RICHLAND HILLS", "state": "TX", "street": "2415 GRAVEL DR", "postcode": "76118"}}},
{"geometry": {"type": "Point", "coordinates": [-97.2170156003, 32.7932328046]}, "type": "Feature", "properties": {"collection_times": [{"days": "Mon-Fri", "time": "4:00pm"}, {"days": "Sat", "time": "3:30pm"}, {"days": "Sun", "time": "Closed"}], "id": "7611800019", "name": "USPS COLLECTION BOX - BLUE BOX", "address": {"city": "RICHLAND HILLS", "state": "TX", "street": "2415 GRAVEL DR", "postcode": "76118"}}},
{"geometry": {"type": "Point", "coordinates": [-97.2170156003, 32.7932328046]}, "type": "Feature", "properties": {"collection_times": [{"days": "Mon-Fri", "time": "4:00pm"}, {"days": "Sat-Sun", "time": "Closed"}], "id": "7611800020", "name": "USPS COLLECTION BOX - PO LOBBY", "address": {"city": "RICHLAND HILLS", "state": "TX", "street": "2414 GRAVEL DR", "postcode": "76118"}}},
{"geometry": {"type": "Point", "coordinates": [-97.2170156003, 32.7932328046]}, "type": "Feature", "properties": {"collection_times": [{"days": "Mon-Fri", "time": "4:00pm"}, {"days": "Sat-Sun", "time": "Closed"}], "id": "7611800021", "name": "USPS COLLECTION BOX - PO LOBBY", "address": {"city": "RICHLAND HILLS", "state": "TX", "street": "2414 GRAVEL DR", "postcode": "76118"}}},
{"geometry": {"type": "Point", "coordinates": [-97.2630052632, 32.7021303405]}, "type": "Feature", "properties": {"collection_times": [{"days": "Mon-Fri", "time": "1:30pm"}, {"days": "Sat", "time": "12:35pm"}, {"days": "Sun", "time": "Closed"}], "id": "7611900005", "name": "USPS COLLECTION BOX - BLUE BOX", "address": {"city": "FORT WORTH", "state": "TX", "street": "4208 MILLER AVE", "postcode": "76119"}}},
{"geometry": {"type": "Point", "coordinates": [-97.2803462186, 32.6856261043]}, "type": "Feature", "properties": {"collection_times": [{"days": "Mon-Fri", "time": "5:00pm"}, {"days": "Sat", "time": "3:15pm"}, {"days": "Sun", "time": "Closed"}], "id": "7611900017", "name": "USPS COLLECTION BOX - BLUE BOX", "address": {"city": "FORT WORTH", "state": "TX", "street": "5125 WICHITA ST", "postcode": "76119"}}},
{"geometry": {"type": "Point", "coordinates": [-97.2803462186, 32.6856261043]}, "type": "Feature", "properties": {"collection_times": [{"days": "Mon-Fri", "time": "5:00pm"}, {"days": "Sat", "time": "3:15pm"}, {"days": "Sun", "time": "Closed"}], "id": "7611900022", "name": "USPS COLLECTION BOX - PO LOBBY", "address": {"city": "FORT WORTH", "state": "TX", "street": "5125 WICHITA ST", "postcode": "76119"}}},
{"geometry": {"type": "Point", "coordinates": [-97.2803462186, 32.6856261043]}, "type": "Feature", "properties": {"collection_times": [{"days": "Mon-Fri", "time": "5:00pm"}, {"days": "Sat", "time": "3:15pm"}, {"days": "Sun", "time": "Closed"}], "id": "7611900024", "name": "USPS COLLECTION BOX - PO LOBBY", "address": {"city": "FORT WORTH", "state": "TX", "street": "5125 WICHITA ST", "postcode": "76119"}}},
{"geometry": {"type": "Point", "coordinates": [-97.2121356116, 32.77511477]}, "type": "Feature", "properties": {"collection_times": [{"days": "Mon-Fri", "time": "2:15pm"}, {"days": "Sat", "time": "9:30am"}, {"days": "Sun", "time": "Closed"}], "id": "7612000015", "name": "USPS COLLECTION BOX - BLUE BOX", "address": {"city": "FT WORTH", "state": "TX", "street": "6801 MANHATTAN BLVD", "postcode": "76120"}}},
{"geometry": {"type": "Point", "coordinates": [-97.2162802824, 32.7472993342]}, "type": "Feature", "properties": {"collection_times": [{"days": "Mon-Fri", "time": "5:00pm"}, {"days": "Sat", "time": "11:30am"}, {"days": "Sun", "time": "Closed"}], "id": "7612400005", "name": "USPS COLLECTION BOX - BLUE BOX", "address": {"city": "FT WORTH", "state": "TX", "street": "1475 HANDLEY DR", "postcode": "76124"}}},
{"geometry": {"type": "Point", "coordinates": [-97.2162802824, 32.7472993342]}, "type": "Feature", "properties": {"collection_times": [{"days": "Mon-Fri", "time": "5:00pm"}, {"days": "Sat", "time": "11:30am"}, {"days": "Sun", "time": "Closed"}], "id": "7612400007", "name": "USPS COLLECTION BOX - PO LOBBY", "address": {"city": "FT WORTH", "state": "TX", "street": "1475 HANDLEY DR", "postcode": "76124"}}},
{"geometry": {"type": "Point", "coordinates": [-97.2162802824, 32.7472993342]}, "type": "Feature", "properties": {"collection_times": [{"days": "Mon-Fri", "time": "5:00pm"}, {"days": "Sat", "time": "11:30am"}, {"days": "Sun", "time": "Closed"}], "id": "7612400008", "name": "USPS COLLECTION BOX - PO LOBBY", "address": {"city": "FT WORTH", "state": "TX", "street": "1475 HANDLEY DR", "postcode": "76124"}}},
{"geometry": {"type": "Point", "coordinates": [-97.4717989794, 32.6706748963]}, "type": "Feature", "properties": {"collection_times": [{"days": "Mon-Fri", "time": "5:00pm"}, {"days": "Sat", "time": "3:00pm"}, {"days": "Sun", "time": "Closed"}], "id": "7612600000", "name": "USPS COLLECTION BOX - BLUE BOX", "address": {"city": "BENBROOK", "state": "TX", "street": "9415 BENBROOK BLVD", "postcode": "76126"}}},
{"geometry": {"type": "Point", "coordinates": [-97.4861174972, 32.6585510081]}, "type": "Feature", "properties": {"collection_times": [{"days": "Mon-Fri", "time": "5:00pm"}, {"days": "Sat", "time": "3:00pm"}, {"days": "Sun", "time": "Closed"}], "id": "7612600001", "name": "USPS COLLECTION BOX - BLUE BOX", "address": {"city": "BENBROOK", "state": "TX", "street": "9415 BENBROOK BLVD", "postcode": "76126"}}},
{"geometry": {"type": "Point", "coordinates": [-97.4721332468, 32.6702977969]}, "type": "Feature", "properties": {"collection_times": [{"days": "Mon-Fri", "time": "5:00pm"}, {"days": "Sat", "time": "3:00pm"}, {"days": "Sun", "time": "Closed"}], "id": "7612600002", "name": "USPS COLLECTION BOX - PO LOBBY", "address": {"city": "BENBROOK", "state": "TX", "street": "9415 BENBROOK BLVD", "postcode": "76126"}}},
{"geometry": {"type": "Point", "coordinates": [-97.4721332468, 32.6702977969]}, "type": "Feature", "properties": {"collection_times": [{"days": "Mon-Fri", "time": "5:00pm"}, {"days": "Sat", "time": "3:00pm"}, {"days": "Sun", "time": "Closed"}], "id": "7612600003", "name": "USPS COLLECTION BOX - PO LOBBY", "address": {"city": "BENBROOK", "state": "TX", "street": "9415 BENBROOK BLVD", "postcode": "76126"}}},
{"geometry": {"type": "Point", "coordinates": [-97.4525378891, 32.6780085364]}, "type": "Feature", "properties": {"collection_times": [{"days": "Mon-Fri", "time": "2:40pm"}, {"days": "Sat", "time": "2:00pm"}, {"days": "Sun", "time": "Closed"}], "id": "7612600004", "name": "USPS COLLECTION BOX - BLUE BOX", "address": {"city": "BENBROOK", "state": "TX", "street": "949 WINSCOTT RD", "postcode": "76126"}}},
{"geometry": {"type": "Point", "coordinates": [-97.424506059, 32.771332333]}, "type": "Feature", "properties": {"collection_times": [{"days": "Mon-Fri", "time": "1:30pm"}, {"days": "Sat", "time": "12:25pm"}, {"days": "Sun", "time": "Closed"}], "id": "7612700001", "name": "USPS COLLECTION BOX - BLUE BOX", "address": {"city": "FORT WORTH", "state": "TX", "street": "1501 ARNOLD AVE", "postcode": "76127"}}},
{"geometry": {"type": "Point", "coordinates": [-97.424506059, 32.771332333]}, "type": "Feature", "properties": {"collection_times": [{"days": "Mon-Fri", "time": "1:30pm"}, {"days": "Sat-Sun", "time": "Closed"}], "id": "7612700004", "name": "USPS COLLECTION BOX - PO LOBBY", "address": {"city": "FORT WORTH", "state": "TX", "street": "1501 ARNOLD AVE", "postcode": "76127"}}},
{"geometry": {"type": "Point", "coordinates": [-97.423646253, 32.784491601]}, "type": "Feature", "properties": {"collection_times": [{"days": "Mon-Fri", "time": "1:15pm"}, {"days": "Sat", "time": "12:15pm"}, {"days": "Sun", "time": "Closed"}], "id": "7612700006", "name": "USPS COLLECTION BOX - BLUE BOX", "address": {"city": "FORT WORTH", "state": "TX", "street": "1880 VANDENBERG AVE", "postcode": "76127"}}},
{"geometry": {"type": "Point", "coordinates": [-97.3655269233, 32.7121200719]}, "type": "Feature", "properties": {"collection_times": [{"days": "Mon-Fri", "time": "1:05pm"}, {"days": "Sat", "time": "12:45pm"}, {"days": "Sun", "time": "Closed"}], "id": "7612900001", "name": "USPS COLLECTION BOX - BLUE BOX", "address": {"city": "FT WORTH", "state": "TX", "street": "2800 STADIUM DR", "postcode": "76129"}}},
{"geometry": {"type": "Point", "coordinates": [-97.3430212069, 32.8597130263]}, "type": "Feature", "properties": {"collection_times": [{"days": "Mon-Sat", "time": "8:10am"}, {"days": "Sun", "time": "Closed"}], "id": "7613100003", "name": "USPS COLLECTION BOX - BLUE BOX", "address": {"city": "BLUE MOUND", "state": "TX", "street": "1601 BELL AVE", "postcode": "76131"}}},
{"geometry": {"type": "Point", "coordinates": [-97.4041434376, 32.659759221]}, "type": "Feature", "properties": {"collection_times": [{"days": "Mon-Fri", "time": "2:10pm"}, {"days": "Sat", "time": "1:15pm"}, {"days": "Sun", "time": "Closed"}], "id": "7613200005", "name": "USPS COLLECTION BOX - BLUE BOX", "address": {"city": "FORT WORTH", "state": "TX", "street": "6320 HULEN BEND BLVD", "postcode": "76132"}}},
{"geometry": {"type": "Point", "coordinates": [-97.4200442087, 32.666059963]}, "type": "Feature", "properties": {"collection_times": [{"days": "Mon-Fri", "time": "2:20pm"}, {"days": "Sat", "time": "1:30pm"}, {"days": "Sun", "time": "Closed"}], "id": "7613200008", "name": "USPS COLLECTION BOX - BLUE BOX", "address": {"city": "FORT WORTH", "state": "TX", "street": "5701 BRYANT IRVIN RD", "postcode": "76132"}}},
{"geometry": {"type": "Point", "coordinates": [-97.4182107731, 32.6673474992]}, "type": "Feature", "properties": {"collection_times": [{"days": "Mon-Fri", "time": "2:15pm"}, {"days": "Sat", "time": "1:15pm"}, {"days": "Sun", "time": "Closed"}], "id": "7613200010", "name": "USPS COLLECTION BOX - BLUE BOX", "address": {"city": "FORT WORTH", "state": "TX", "street": "4916 ROCK QUARRY RD", "postcode": "76132"}}},
{"geometry": {"type": "Point", "coordinates": [-97.4284455833, 32.6477714174]}, "type": "Feature", "properties": {"collection_times": [{"days": "Mon-Fri", "time": "5:00pm"}, {"days": "Sat", "time": "3:15pm"}, {"days": "Sun", "time": "Closed"}], "id": "7613200022", "name": "USPS COLLECTION BOX - BLUE BOX", "address": {"city": "FORT WORTH", "state": "TX", "street": "7101 BRYANT IRVIN RD", "postcode": "76132"}}},
{"geometry": {"type": "Point", "coordinates": [-97.4284455833, 32.6477714174]}, "type": "Feature", "properties": {"collection_times": [{"days": "Mon-Fri", "time": "5:00pm"}, {"days": "Sat", "time": "4:00pm"}, {"days": "Sun", "time": "Closed"}], "id": "7613200023", "name": "USPS COLLECTION BOX - PO LOBBY", "address": {"city": "FORT WORTH", "state": "TX", "street": "7101 BRYANT IRVIN RD", "postcode": "76132"}}},
{"geometry": {"type": "Point", "coordinates": [-97.4284455833, 32.6477714174]}, "type": "Feature", "properties": {"collection_times": [{"days": "Mon-Fri", "time": "5:00pm"}, {"days": "Sat", "time": "4:00pm"}, {"days": "Sun", "time": "Closed"}], "id": "7613200025", "name": "USPS COLLECTION BOX - PO LOBBY", "address": {"city": "FORT WORTH", "state": "TX", "street": "7101 BRYANT IRVIN RD", "postcode": "76132"}}},
{"geometry": {"type": "Point", "coordinates": [-97.4284455833, 32.6477714174]}, "type": "Feature", "properties": {"collection_times": [{"days": "Mon-Fri", "time": "5:00pm"}, {"days": "Sat", "time": "4:00pm"}, {"days": "Sun", "time": "Closed"}], "id": "7613200026", "name": "USPS COLLECTION BOX - APC", "address": {"city": "FORT WORTH", "state": "TX", "street": "7101 BRYANT IRVIN RD", "postcode": "76132"}}},
{"geometry": {"type": "Point", "coordinates": [-97.4211636868, 32.6930271015]}, "type": "Feature", "properties": {"collection_times": [{"days": "Mon-Sat", "time": "1:30pm"}, {"days": "Sun", "time": "Closed"}], "id": "7613200031", "name": "USPS COLLECTION BOX - BLUE BOX", "address": {"city": "FORT WORTH", "state": "TX", "street": "6495 SOUTHWEST BLVD", "postcode": "76132"}}},
{"geometry": {"type": "Point", "coordinates": [-97.3568256987, 32.6845886492]}, "type": "Feature", "properties": {"collection_times": [{"days": "Mon-Sat", "time": "8:10am"}, {"days": "Sun", "time": "Closed"}], "id": "7613300003", "name": "USPS COLLECTION BOX - BLUE BOX", "address": {"city": "FORT WORTH", "state": "TX", "street": "2708 W SEMINARY DR", "postcode": "76133"}}},
{"geometry": {"type": "Point", "coordinates": [-97.3608185857, 32.6628918249]}, "type": "Feature", "properties": {"collection_times": [{"days": "Mon-Fri", "time": "1:50pm"}, {"days": "Sat", "time": "12:45pm"}, {"days": "Sun", "time": "Closed"}], "id": "7613300005", "name": "USPS COLLECTION BOX - BLUE BOX", "address": {"city": "FORT WORTH", "state": "TX", "street": "3001 WALTON AVE", "postcode": "76133"}}},
{"geometry": {"type": "Point", "coordinates": [-97.4003113159, 32.6586078517]}, "type": "Feature", "properties": {"collection_times": [{"days": "Mon-Fri", "time": "2:00pm"}, {"days": "Sat", "time": "1:00pm"}, {"days": "Sun", "time": "Closed"}], "id": "7613300009", "name": "USPS COLLECTION BOX - BLUE BOX", "address": {"city": "FORT WORTH", "state": "TX", "street": "6221 GRANBURY RD", "postcode": "76133"}}},
{"geometry": {"type": "Point", "coordinates": [-97.3900621137, 32.634202878]}, "type": "Feature", "properties": {"collection_times": [{"days": "Mon-Fri", "time": "1:30pm"}, {"days": "Sat", "time": "12:30pm"}, {"days": "Sun", "time": "Closed"}], "id": "7613300013", "name": "USPS COLLECTION BOX - BLUE BOX", "address": {"city": "FORT WORTH", "state": "TX", "street": "4500 SYCAMORE SCHOOL RD", "postcode": "76133"}}},
{"geometry": {"type": "Point", "coordinates": [-97.3834367698, 32.6694804862]}, "type": "Feature", "properties": {"collection_times": [{"days": "Mon-Fri", "time": "1:55pm"}, {"days": "Sat", "time": "1:00pm"}, {"days": "Sun", "time": "Closed"}], "id": "7613300023", "name": "USPS COLLECTION BOX - BLUE BOX", "address": {"city": "FORT WORTH", "state": "TX", "street": "5300 TRAIL LAKE DR", "postcode": "76133"}}},
{"geometry": {"type": "Point", "coordinates": [-97.3834367698, 32.6694804862]}, "type": "Feature", "properties": {"collection_times": [{"days": "Mon-Fri", "time": "1:55pm"}, {"days": "Sat", "time": "1:00pm"}, {"days": "Sun", "time": "Closed"}], "id": "7613300024", "name": "USPS COLLECTION BOX - BLUE BOX", "address": {"city": "FORT WORTH", "state": "TX", "street": "5300 TRAIL LAKE DR", "postcode": "76133"}}},
{"geometry": {"type": "Point", "coordinates": [-97.3834367698, 32.6694804862]}, "type": "Feature", "properties": {"collection_times": [{"days": "Mon-Fri", "time": "1:55pm"}, {"days": "Sat", "time": "1:00pm"}, {"days": "Sun", "time": "Closed"}], "id": "7613300025", "name": "USPS COLLECTION BOX - BLUE BOX", "address": {"city": "FORT WORTH", "state": "TX", "street": "5300 TRAIL LAKE DR", "postcode": "76133"}}},
{"geometry": {"type": "Point", "coordinates": [-97.3734228747, 32.6501628201]}, "type": "Feature", "properties": {"collection_times": [{"days": "Mon-Fri", "time": "5:00pm"}, {"days": "Sat", "time": "3:30pm"}, {"days": "Sun", "time": "Closed"}], "id": "7613300029", "name": "USPS COLLECTION BOX - PO LOBBY", "address": {"city": "FORT WORTH", "state": "TX", "street": "3701 ALTAMESA BLVD", "postcode": "76133"}}},
{"geometry": {"type": "Point", "coordinates": [-97.3767059138, 32.6531110612]}, "type": "Feature", "properties": {"collection_times": [{"days": "Mon-Fri", "time": "5:00pm"}, {"days": "Sat", "time": "3:30pm"}, {"days": "Sun", "time": "Closed"}], "id": "7613300030", "name": "USPS COLLECTION BOX - BLUE BOX", "address": {"city": "FORT WORTH", "state": "TX", "street": "3701 ALTAMESA BLVD", "postcode": "76133"}}},
{"geometry": {"type": "Point", "coordinates": [-97.3767059138, 32.6531110612]}, "type": "Feature", "properties": {"collection_times": [{"days": "Mon-Fri", "time": "5:00pm"}, {"days": "Sat", "time": "3:30pm"}, {"days": "Sun", "time": "Closed"}], "id": "7613300031", "name": "USPS COLLECTION BOX - BLUE BOX", "address": {"city": "FORT WORTH", "state": "TX", "street": "3701 ALTAMESA BLVD", "postcode": "76133"}}},
{"geometry": {"type": "Point", "coordinates": [-97.3734228747, 32.6501628201]}, "type": "Feature", "properties": {"collection_times": [{"days": "Mon-Fri", "time": "5:00pm"}, {"days": "Sat", "time": "3:30pm"}, {"days": "Sun", "time": "Closed"}], "id": "7613300032", "name": "USPS COLLECTION BOX - PO LOBBY", "address": {"city": "FORT WORTH", "state": "TX", "street": "3701 ALTAMESA BLVD", "postcode": "76133"}}},
{"geometry": {"type": "Point", "coordinates": [-97.3734228747, 32.6501628201]}, "type": "Feature", "properties": {"collection_times": [{"days": "Mon-Fri", "time": "5:00pm"}, {"days": "Sat-Sun", "time": "Closed"}], "id": "7613300033", "name": "USPS COLLECTION BOX - APC", "address": {"city": "FORT WORTH", "state": "TX", "street": "3701 ALTAMESA BLVD", "postcode": "76133"}}},
{"geometry": {"type": "Point", "coordinates": [-97.3964654706, 32.6479204702]}, "type": "Feature", "properties": {"collection_times": [{"days": "Mon-Sat", "time": "9:35am"}, {"days": "Sun", "time": "Closed"}], "id": "7613300036", "name": "USPS COLLECTION BOX - BLUE BOX", "address": {"city": "FORT WORTH", "state": "TX", "street": "4701 ALTAMESA BLVD", "postcode": "76133"}}},
{"geometry": {"type": "Point", "coordinates": [-97.3661830876, 32.671075583]}, "type": "Feature", "properties": {"collection_times": [{"days": "Mon-Fri", "time": "1:45pm"}, {"days": "Sat", "time": "12:45pm"}, {"days": "Sun", "time": "Closed"}], "id": "7613300038", "name": "USPS COLLECTION BOX - BLUE BOX", "address": {"city": "FORT WORTH", "state": "TX", "street": "5112 WESTCREEK DR", "postcode": "76133"}}},
{"geometry": {"type": "Point", "coordinates": [-97.3439929598, 32.6614783629]}, "type": "Feature", "properties": {"collection_times": [{"days": "Mon-Fri", "time": "12:55pm"}, {"days": "Sat", "time": "11:45am"}, {"days": "Sun", "time": "Closed"}], "id": "7613400003", "name": "USPS COLLECTION BOX - BLUE BOX", "address": {"city": "FT WORTH", "state": "TX", "street": "1605 EDGECLIFF RD", "postcode": "76134"}}},
{"geometry": {"type": "Point", "coordinates": [-97.3229606466, 32.6435966324]}, "type": "Feature", "properties": {"collection_times": [{"days": "Mon-Fri", "time": "1:10pm"}, {"days": "Sat", "time": "12:15pm"}, {"days": "Sun", "time": "Closed"}], "id": "7613400004", "name": "USPS COLLECTION BOX - BLUE BOX", "address": {"city": "FT WORTH", "state": "TX", "street": "141 SHEFFIELD DR", "postcode": "76134"}}},
{"geometry": {"type": "Point", "coordinates": [-97.3386104969, 32.6352060269]}, "type": "Feature", "properties": {"collection_times": [{"days": "Mon-Fri", "time": "1:15pm"}, {"days": "Sat", "time": "12:15pm"}, {"days": "Sun", "time": "Closed"}], "id": "7613400005", "name": "USPS COLLECTION BOX - BLUE BOX", "address": {"city": "FT WORTH", "state": "TX", "street": "1312 SYCAMORE SCHOOL RD", "postcode": "76134"}}},
{"geometry": {"type": "Point", "coordinates": [-97.3476213261, 32.623843815]}, "type": "Feature", "properties": {"collection_times": [{"days": "Mon-Sat", "time": "12:00pm"}, {"days": "Sun", "time": "Closed"}], "id": "7613400007", "name": "USPS COLLECTION BOX - BLUE BOX", "address": {"city": "FT WORTH", "state": "TX", "street": "1900 LINCOLNSHIRE WAY", "postcode": "76134"}}},
{"geometry": {"type": "Point", "coordinates": [-97.3369664934, 32.6414838265]}, "type": "Feature", "properties": {"collection_times": [{"days": "Mon-Fri", "time": "5:00pm"}, {"days": "Sat", "time": "3:45pm"}, {"days": "Sun", "time": "Closed"}], "id": "7613400009", "name": "USPS COLLECTION BOX - BLUE BOX", "address": {"city": "FT WORTH", "state": "TX", "street": "1001 ALTAMESA BLVD", "postcode": "76134"}}},
{"geometry": {"type": "Point", "coordinates": [-97.3339345223, 32.649074215]}, "type": "Feature", "properties": {"collection_times": [{"days": "Mon-Fri", "time": "5:00pm"}, {"days": "Sat", "time": "3:45pm"}, {"days": "Sun", "time": "Closed"}], "id": "7613400011", "name": "USPS COLLECTION BOX - PO LOBBY", "address": {"city": "FT WORTH", "state": "TX", "street": "1001 ALTAMESA BLVD", "postcode": "76134"}}},
{"geometry": {"type": "Point", "coordinates": [-97.3339345223, 32.649074215]}, "type": "Feature", "properties": {"collection_times": [{"days": "Mon-Fri", "time": "5:00pm"}, {"days": "Sat", "time": "3:45pm"}, {"days": "Sun", "time": "Closed"}], "id": "7613400012", "name": "USPS COLLECTION BOX - PO LOBBY", "address": {"city": "FT WORTH", "state": "TX", "street": "1001 ALTAMESA BLVD", "postcode": "76134"}}},
{"geometry": {"type": "Point", "coordinates": [-97.4321671722, 32.814638426]}, "type": "Feature", "properties": {"collection_times": [{"days": "Mon-Fri", "time": "5:15pm"}, {"days": "Sat", "time": "2:40pm"}, {"days": "Sun", "time": "Closed"}], "id": "7613500005", "name": "USPS COLLECTION BOX - BLUE BOX", "address": {"city": "FORT WORTH", "state": "TX", "street": "3930 TELEPHONE RD", "postcode": "76135"}}},
{"geometry": {"type": "Point", "coordinates": [-97.4361895158, 32.8121385133]}, "type": "Feature", "properties": {"collection_times": [{"days": "Mon-Sat", "time": "9:10am"}, {"days": "Sun", "time": "Closed"}], "id": "7613500006", "name": "USPS COLLECTION BOX - BLUE BOX", "address": {"city": "FORT WORTH", "state": "TX", "street": "3806 ADAM GRUBB", "postcode": "76135"}}},
{"geometry": {"type": "Point", "coordinates": [-97.4186242993, 32.8220304592]}, "type": "Feature", "properties": {"collection_times": [{"days": "Mon-Sat", "time": "2:30pm"}, {"days": "Sun", "time": "Closed"}], "id": "7613500007", "name": "USPS COLLECTION BOX - BLUE BOX", "address": {"city": "FORT WORTH", "state": "TX", "street": "6012 SHADYDELL DR", "postcode": "76135"}}},
{"geometry": {"type": "Point", "coordinates": [-97.4321671722, 32.814638426]}, "type": "Feature", "properties": {"collection_times": [{"days": "Mon-Fri", "time": "5:00pm"}, {"days": "Sat", "time": "2:40pm"}, {"days": "Sun", "time": "Closed"}], "id": "7613500008", "name": "USPS COLLECTION BOX - PO LOBBY", "address": {"city": "FORT WORTH", "state": "TX", "street": "3930 TELEPHONE RD", "postcode": "76135"}}},
{"geometry": {"type": "Point", "coordinates": [-97.4321671722, 32.814638426]}, "type": "Feature", "properties": {"collection_times": [{"days": "Mon-Fri", "time": "5:00pm"}, {"days": "Sat", "time": "2:40pm"}, {"days": "Sun", "time": "Closed"}], "id": "7613500009", "name": "USPS COLLECTION BOX - PO LOBBY", "address": {"city": "FORT WORTH", "state": "TX", "street": "3930 TELEPHONE RD", "postcode": "76135"}}},
{"geometry": {"type": "Point", "coordinates": [-97.4321671722, 32.814638426]}, "type": "Feature", "properties": {"collection_times": [{"days": "Mon-Fri", "time": "5:15pm"}, {"days": "Sat", "time": "2:40pm"}, {"days": "Sun", "time": "Closed"}], "id": "7613500012", "name": "USPS COLLECTION BOX - BLUE BOX", "address": {"city": "FORT WORTH", "state": "TX", "street": "3930 TELEPHONE RD", "postcode": "76135"}}},
{"geometry": {"type": "Point", "coordinates": [-97.2914127998, 32.8609985882]}, "type": "Feature", "properties": {"collection_times": [{"days": "Mon-Fri", "time": "3:15pm"}, {"days": "Sat", "time": "2:45pm"}, {"days": "Sun", "time": "Closed"}], "id": "7613700010", "name": "USPS COLLECTION BOX - BLUE BOX", "address": {"city": "FORT WORTH", "state": "TX", "street": "4400 WESTERN CENTER BLVD", "postcode": "76137"}}},
{"geometry": {"type": "Point", "coordinates": [-97.304230956, 32.861267509]}, "type": "Feature", "properties": {"collection_times": [{"days": "Mon-Sat", "time": "1:55pm"}, {"days": "Sun", "time": "Closed"}], "id": "7613700021", "name": "USPS COLLECTION BOX - BLUE BOX", "address": {"city": "FORT WORTH", "state": "TX", "street": "3605 WESTERN CENTER BLVD", "postcode": "76137"}}},
{"geometry": {"type": "Point", "coordinates": [-97.3205656405, 32.6275309896]}, "type": "Feature", "properties": {"collection_times": [{"days": "Mon-Fri", "time": "1:00pm"}, {"days": "Sat", "time": "12:00pm"}, {"days": "Sun", "time": "Closed"}], "id": "7614000002", "name": "USPS COLLECTION BOX - BLUE BOX", "address": {"city": "FOREST HILL", "state": "TX", "street": "1000 EVERMAN PKWY", "postcode": "76140"}}},
{"geometry": {"type": "Point", "coordinates": [-97.2871848681, 32.6321379963]}, "type": "Feature", "properties": {"collection_times": [{"days": "Mon-Fri", "time": "1:00pm"}, {"days": "Sat", "time": "12:10pm"}, {"days": "Sun", "time": "Closed"}], "id": "7614000003", "name": "USPS COLLECTION BOX - BLUE BOX", "address": {"city": "FOREST HILL", "state": "TX", "street": "213 N RACE ST", "postcode": "76140"}}},
{"geometry": {"type": "Point", "coordinates": [-97.2699148865, 32.6596518743]}, "type": "Feature", "properties": {"collection_times": [{"days": "Mon-Fri", "time": "1:15pm"}, {"days": "Sat", "time": "12:15pm"}, {"days": "Sun", "time": "Closed"}], "id": "7614000005", "name": "USPS COLLECTION BOX - BLUE BOX", "address": {"city": "FOREST HILL", "state": "TX", "street": "6605 FOREST HILL DR", "postcode": "76140"}}},
{"geometry": {"type": "Point", "coordinates": [-97.2827017916, 32.6610503167]}, "type": "Feature", "properties": {"collection_times": [{"days": "Mon-Fri", "time": "4:00pm"}, {"days": "Sat", "time": "2:55pm"}, {"days": "Sun", "time": "Closed"}], "id": "7614000007", "name": "USPS COLLECTION BOX - BLUE BOX", "address": {"city": "FOREST HILL", "state": "TX", "street": "2920 SE LOOP 820", "postcode": "76140"}}},
{"geometry": {"type": "Point", "coordinates": [-97.2700522373, 32.6250446452]}, "type": "Feature", "properties": {"collection_times": [{"days": "Mon-Fri", "time": "5:00pm"}, {"days": "Sat", "time": "3:00pm"}, {"days": "Sun", "time": "Closed"}], "id": "7614000010", "name": "USPS COLLECTION BOX - BLUE BOX", "address": {"city": "FOREST HILL", "state": "TX", "street": "500 S FOREST HILL DR", "postcode": "76140"}}},
{"geometry": {"type": "Point", "coordinates": [-97.2700522373, 32.6250446452]}, "type": "Feature", "properties": {"collection_times": [{"days": "Mon-Fri", "time": "5:00pm"}, {"days": "Sat", "time": "12:00pm"}, {"days": "Sun", "time": "Closed"}], "id": "7614000016", "name": "USPS COLLECTION BOX - PO LOBBY", "address": {"city": "FOREST HILL", "state": "TX", "street": "500 S FOREST HILL DR", "postcode": "76140"}}},
{"geometry": {"type": "Point", "coordinates": [-97.2700522373, 32.6250446452]}, "type": "Feature", "properties": {"collection_times": [{"days": "Mon-Fri", "time": "5:00pm"}, {"days": "Sat", "time": "12:00pm"}, {"days": "Sun", "time": "Closed"}], "id": "7614000017", "name": "USPS COLLECTION BOX - PO LOBBY", "address": {"city": "FOREST HILL", "state": "TX", "street": "500 S FOREST HILL DR", "postcode": "76140"}}},
{"geometry": {"type": "Point", "coordinates": [-97.2827017916, 32.6610503167]}, "type": "Feature", "properties": {"collection_times": [{"days": "Mon-Fri", "time": "4:00pm"}, {"days": "Sat", "time": "2:55pm"}, {"days": "Sun", "time": "Closed"}], "id": "7614000020", "name": "USPS COLLECTION BOX - BLUE BOX", "address": {"city": "FOREST HILL", "state": "TX", "street": "2920 SE LOOP 820", "postcode": "76140"}}},
{"geometry": {"type": "Point", "coordinates": [-97.2700522373, 32.6250446452]}, "type": "Feature", "properties": {"collection_times": [{"days": "Mon-Fri", "time": "5:00pm"}, {"days": "Sat", "time": "3:00pm"}, {"days": "Sun", "time": "Closed"}], "id": "7614000023", "name": "USPS COLLECTION BOX - BLUE BOX", "address": {"city": "FOREST HILL", "state": "TX", "street": "500 S FOREST HILL DR", "postcode": "76140"}}},
{"geometry": {"type": "Point", "coordinates": [-97.3643601796, 32.7512690075]}, "type": "Feature", "properties": {"collection_times": [{"days": "Mon-Fri", "time": "4:30pm"}, {"days": "Sat", "time": "3:30pm"}, {"days": "Sun", "time": "Closed"}], "id": "7614700003", "name": "USPS COLLECTION BOX - BLUE BOX", "address": {"city": "FT WORTH", "state": "TX", "street": "3101 W 6TH ST", "postcode": "76147"}}},
{"geometry": {"type": "Point", "coordinates": [-97.3643601796, 32.7512690075]}, "type": "Feature", "properties": {"collection_times": [{"days": "Mon-Fri", "time": "4:30pm"}, {"days": "Sat-Sun", "time": "Closed"}], "id": "7614700005", "name": "USPS COLLECTION BOX - PO LOBBY", "address": {"city": "FT WORTH", "state": "TX", "street": "3101 W 6TH ST", "postcode": "76147"}}},
{"geometry": {"type": "Point", "coordinates": [-97.3643601796, 32.7512690075]}, "type": "Feature", "properties": {"collection_times": [{"days": "Mon-Fri", "time": "4:30pm"}, {"days": "Sat-Sun", "time": "Closed"}], "id": "7614700006", "name": "USPS COLLECTION BOX - PO LOBBY", "address": {"city": "FT WORTH", "state": "TX", "street": "3101 W 6TH ST", "postcode": "76147"}}},
{"geometry": {"type": "Point", "coordinates": [-97.2391461238, 32.8604425971]}, "type": "Feature", "properties": {"collection_times": [{"days": "Mon-Fri", "time": "3:30pm"}, {"days": "Sat", "time": "3:15pm"}, {"days": "Sun", "time": "Closed"}], "id": "7614800005", "name": "USPS COLLECTION BOX - BLUE BOX", "address": {"city": "WATAUGA", "state": "TX", "street": "6531 WATAUGA RD STE 110", "postcode": "76148"}}},
{"geometry": {"type": "Point", "coordinates": [-97.2391461238, 32.8604425971]}, "type": "Feature", "properties": {"collection_times": [{"days": "Mon-Fri", "time": "3:30pm"}, {"days": "Sat", "time": "3:15pm"}, {"days": "Sun", "time": "Closed"}], "id": "7614800010", "name": "USPS COLLECTION BOX - BLUE BOX", "address": {"city": "WATAUGA", "state": "TX", "street": "6651 WATAUGA RD", "postcode": "76148"}}},
{"geometry": {"type": "Point", "coordinates": [-97.2391461238, 32.8604425971]}, "type": "Feature", "properties": {"collection_times": [{"days": "Mon-Fri", "time": "3:30pm"}, {"days": "Sat", "time": "3:15pm"}, {"days": "Sun", "time": "Closed"}], "id": "7614800011", "name": "USPS COLLECTION BOX - BLUE BOX", "address": {"city": "WATAUGA", "state": "TX", "street": "6651 WATAUGA RD", "postcode": "76148"}}},
{"geometry": {"type": "Point", "coordinates": [-97.2391461238, 32.8604425971]}, "type": "Feature", "properties": {"collection_times": [{"days": "Mon-Fri", "time": "3:30pm"}, {"days": "Sat-Sun", "time": "Closed"}], "id": "7614800012", "name": "USPS COLLECTION BOX - PO LOBBY", "address": {"city": "WATAUGA", "state": "TX", "street": "6651 WATAUGA RD", "postcode": "76148"}}},
{"geometry": {"type": "Point", "coordinates": [-97.2391461238, 32.8604425971]}, "type": "Feature", "properties": {"collection_times": [{"days": "Mon-Fri", "time": "3:30pm"}, {"days": "Sat-Sun", "time": "Closed"}], "id": "7614800013", "name": "USPS COLLECTION BOX - PO LOBBY", "address": {"city": "WATAUGA", "state": "TX", "street": "6651 WATAUGA RD", "postcode": "76148"}}},
{"geometry": {"type": "Point", "coordinates": [-97.2576417576, 32.8742063326]}, "type": "Feature", "properties": {"collection_times": [{"days": "Mon-Fri", "time": "3:30pm"}, {"days": "Sat", "time": "3:00pm"}, {"days": "Sun", "time": "Closed"}], "id": "7614800019", "name": "USPS COLLECTION BOX - BLUE BOX", "address": {"city": "WATAUGA", "state": "TX", "street": "5837 HIGHTOWER DR", "postcode": "76148"}}},
{"geometry": {"type": "Point", "coordinates": [-97.0489925679, 32.8282247097]}, "type": "Feature", "properties": {"collection_times": [{"days": "Mon-Fri", "time": "5:00pm"}, {"days": "Sat", "time": "10:30am"}, {"days": "Sun", "time": "Closed"}], "id": "7615500001", "name": "USPS COLLECTION BOX - BLUE BOX", "address": {"city": "FT WORTH", "state": "TX", "street": "4400 AMON CARTER BLVD", "postcode": "76155"}}},
{"geometry": {"type": "Point", "coordinates": [-97.0489925679, 32.8282247097]}, "type": "Feature", "properties": {"collection_times": [{"days": "Mon-Fri", "time": "5:00pm"}, {"days": "Sat", "time": "10:30am"}, {"days": "Sun", "time": "Closed"}], "id": "7615500004", "name": "USPS COLLECTION BOX - BLUE BOX", "address": {"city": "FT WORTH", "state": "TX", "street": "4400 AMON CARTER BLVD", "postcode": "76155"}}},
{"geometry": {"type": "Point", "coordinates": [-97.0489925679, 32.8282247097]}, "type": "Feature", "properties": {"collection_times": [{"days": "Mon-Fri", "time": "5:00pm"}, {"days": "Sat", "time": "10:30am"}, {"days": "Sun", "time": "Closed"}], "id": "7615500005", "name": "USPS COLLECTION BOX - PO LOBBY", "address": {"city": "FT WORTH", "state": "TX", "street": "4400 AMON CARTER BLVD", "postcode": "76155"}}},
{"geometry": {"type": "Point", "coordinates": [-97.0489925679, 32.8282247097]}, "type": "Feature", "properties": {"collection_times": [{"days": "Mon-Fri", "time": "5:00pm"}, {"days": "Sat", "time": "10:30am"}, {"days": "Sun", "time": "Closed"}], "id": "7615500006", "name": "USPS COLLECTION BOX - PO LOBBY", "address": {"city": "FT WORTH", "state": "TX", "street": "4400 AMON CARTER BLVD", "postcode": "76155"}}},
{"geometry": {"type": "Point", "coordinates": [-97.3210743128, 32.8267649384]}, "type": "Feature", "properties": {"collection_times": [{"days": "Mon-Fri", "time": "7:00pm"}, {"days": "Sat", "time": "6:00pm"}, {"days": "Sun", "time": "Closed"}], "id": "7616100001", "name": "USPS COLLECTION BOX - BLUE BOX", "address": {"city": "FORT WORTH", "state": "TX", "street": "4600 MARK IV PKWY", "postcode": "76161"}}},
{"geometry": {"type": "Point", "coordinates": [-97.3210743128, 32.8267649384]}, "type": "Feature", "properties": {"collection_times": [{"days": "Mon-Fri", "time": "7:00pm"}, {"days": "Sat", "time": "6:00pm"}, {"days": "Sun", "time": "Closed"}], "id": "7616100002", "name": "USPS COLLECTION BOX - BLUE BOX", "address": {"city": "FORT WORTH", "state": "TX", "street": "4600 MARK IV PKWY", "postcode": "76161"}}},
{"geometry": {"type": "Point", "coordinates": [-97.3210743128, 32.8267649384]}, "type": "Feature", "properties": {"collection_times": [{"days": "Mon-Fri", "time": "7:00pm"}, {"days": "Sat", "time": "6:00pm"}, {"days": "Sun", "time": "Closed"}], "id": "7616100003", "name": "USPS COLLECTION BOX - BLUE BOX", "address": {"city": "FORT WORTH", "state": "TX", "street": "4600 MARK IV PKWY", "postcode": "76161"}}},
{"geometry": {"type": "Point", "coordinates": [-97.3210743128, 32.8267649384]}, "type": "Feature", "properties": {"collection_times": [{"days": "Mon-Fri", "time": "7:00pm"}, {"days": "Sat", "time": "6:00pm"}, {"days": "Sun", "time": "Closed"}], "id": "7616100004", "name": "USPS COLLECTION BOX - BLUE BOX", "address": {"city": "FORT WORTH", "state": "TX", "street": "4600 MARK IV PKWY", "postcode": "76161"}}},
{"geometry": {"type": "Point", "coordinates": [-97.3210290133, 32.8261031102]}, "type": "Feature", "properties": {"collection_times": [{"days": "Mon-Fri", "time": "7:00pm"}, {"days": "Sat", "time": "6:00pm"}, {"days": "Sun", "time": "Closed"}], "id": "7616100006", "name": "USPS COLLECTION BOX - EXPRESS", "address": {"city": "FORT WORTH", "state": "TX", "street": "4600 MARK IV PKWY", "postcode": "76161"}}},
{"geometry": {"type": "Point", "coordinates": [-97.3210653038, 32.8260619601]}, "type": "Feature", "properties": {"collection_times": [{"days": "Mon-Fri", "time": "7:00pm"}, {"days": "Sat", "time": "6:00pm"}, {"days": "Sun", "time": "Closed"}], "id": "7616100008", "name": "USPS COLLECTION BOX - APC", "address": {"city": "FORT WORTH", "state": "TX", "street": "4600 MARK IV PKWY", "postcode": "76161"}}},
{"geometry": {"type": "Point", "coordinates": [-97.3210743128, 32.8267649384]}, "type": "Feature", "properties": {"collection_times": [{"days": "Mon-Fri", "time": "7:00pm"}, {"days": "Sat", "time": "6:00pm"}, {"days": "Sun", "time": "Closed"}], "id": "7616100009", "name": "USPS COLLECTION BOX - PO LOBBY", "address": {"city": "FORT WORTH", "state": "TX", "street": "4600 MARK IV PKWY", "postcode": "76161"}}},
{"geometry": {"type": "Point", "coordinates": [-97.3210743128, 32.8267649384]}, "type": "Feature", "properties": {"collection_times": [{"days": "Mon-Fri", "time": "7:00pm"}, {"days": "Sat", "time": "6:00pm"}, {"days": "Sun", "time": "Closed"}], "id": "7616100010", "name": "USPS COLLECTION BOX - PO LOBBY", "address": {"city": "FORT WORTH", "state": "TX", "street": "4600 MARK IV PKWY", "postcode": "76161"}}},
{"geometry": {"type": "Point", "coordinates": [-97.3210743128, 32.8267649384]}, "type": "Feature", "properties": {"collection_times": [{"days": "Mon-Fri", "time": "7:00pm"}, {"days": "Sat", "time": "6:00pm"}, {"days": "Sun", "time": "Closed"}], "id": "7616100011", "name": "USPS COLLECTION BOX - PO LOBBY", "address": {"city": "FORT WORTH", "state": "TX", "street": "4600 MARK IV PKWY", "postcode": "76161"}}},
{"geometry": {"type": "Point", "coordinates": [-97.3504211588, 32.784282516]}, "type": "Feature", "properties": {"collection_times": [{"days": "Mon-Fri", "time": "4:30pm"}, {"days": "Sat-Sun", "time": "Closed"}], "id": "7616400005", "name": "USPS COLLECTION BOX - PO LOBBY", "address": {"city": "FORT WORTH", "state": "TX", "street": "2120 ELLIS AVE", "postcode": "76164"}}},
{"geometry": {"type": "Point", "coordinates": [-97.3504211588, 32.784282516]}, "type": "Feature", "properties": {"collection_times": [{"days": "Mon-Fri", "time": "4:30pm"}, {"days": "Sat-Sun", "time": "Closed"}], "id": "7616400006", "name": "USPS COLLECTION BOX - PO LOBBY", "address": {"city": "FORT WORTH", "state": "TX", "street": "2120 ELLIS AVE", "postcode": "76164"}}},
{"geometry": {"type": "Point", "coordinates": [-97.3504211588, 32.784282516]}, "type": "Feature", "properties": {"collection_times": [{"days": "Mon-Fri", "time": "4:30pm"}, {"days": "Sat", "time": "3:30pm"}, {"days": "Sun", "time": "Closed"}], "id": "7616400009", "name": "USPS COLLECTION BOX - BLUE BOX", "address": {"city": "FORT WORTH", "state": "TX", "street": "2120 ELLIS AVE", "postcode": "76164"}}},
{"geometry": {"type": "Point", "coordinates": [-97.3504211588, 32.784282516]}, "type": "Feature", "properties": {"collection_times": [{"days": "Mon-Fri", "time": "4:30pm"}, {"days": "Sat", "time": "3:30pm"}, {"days": "Sun", "time": "Closed"}], "id": "7616400010", "name": "USPS COLLECTION BOX - BLUE BOX", "address": {"city": "FORT WORTH", "state": "TX", "street": "2120 ELLIS AVE", "postcode": "76164"}}},
{"geometry": {"type": "Point", "coordinates": [-97.3466403887, 32.7888883322]}, "type": "Feature", "properties": {"collection_times": [{"days": "Mon-Sat", "time": "1:00pm"}, {"days": "Sun", "time": "Closed"}], "id": "7616400013", "name": "USPS COLLECTION BOX - BLUE BOX", "address": {"city": "FORT WORTH", "state": "TX", "street": "131 E EXCHANGE AVE", "postcode": "76164"}}},
{"geometry": {"type": "Point", "coordinates": [-97.3120850076, 32.9721588759]}, "type": "Feature", "properties": {"collection_times": [{"days": "Mon-Fri", "time": "5:30pm"}, {"days": "Sat-Sun", "time": "Closed"}], "id": "7617700001", "name": "USPS COLLECTION BOX - PO LOBBY", "address": {"city": "FORT WORTH", "state": "TX", "street": "2400 WESTPORT PKWY", "postcode": "76177"}}},
{"geometry": {"type": "Point", "coordinates": [-97.3120850076, 32.9721588759]}, "type": "Feature", "properties": {"collection_times": [{"days": "Mon-Fri", "time": "5:30pm"}, {"days": "Sat-Sun", "time": "Closed"}], "id": "7617700003", "name": "USPS COLLECTION BOX - PO LOBBY", "address": {"city": "FORT WORTH", "state": "TX", "street": "2400 WESTPORT PKWY", "postcode": "76177"}}},
{"geometry": {"type": "Point", "coordinates": [-97.3649325164, 32.8595920496]}, "type": "Feature", "properties": {"collection_times": [{"days": "Mon-Fri", "time": "4:00pm"}, {"days": "Sat", "time": "3:15pm"}, {"days": "Sun", "time": "Closed"}], "id": "7617900001", "name": "USPS COLLECTION BOX - BLUE BOX", "address": {"city": "SAGINAW", "state": "TX", "street": "101 BELMONT ST", "postcode": "76179"}}},
{"geometry": {"type": "Point", "coordinates": [-97.4260637329, 32.8715212443]}, "type": "Feature", "properties": {"collection_times": [{"days": "Mon-Sat", "time": "2:45pm"}, {"days": "Sun", "time": "Closed"}], "id": "7617900003", "name": "USPS COLLECTION BOX - BLUE BOX", "address": {"city": "SAGINAW", "state": "TX", "street": "8101 BOAT CLUB RD", "postcode": "76179"}}},
{"geometry": {"type": "Point", "coordinates": [-97.3649325164, 32.8595920496]}, "type": "Feature", "properties": {"collection_times": [{"days": "Mon-Fri", "time": "4:00pm"}, {"days": "Sat", "time": "3:15pm"}, {"days": "Sun", "time": "Closed"}], "id": "7617900004", "name": "USPS COLLECTION BOX - BLUE BOX", "address": {"city": "SAGINAW", "state": "TX", "street": "101 BELMONT ST", "postcode": "76179"}}},
{"geometry": {"type": "Point", "coordinates": [-97.3649325164, 32.8595920496]}, "type": "Feature", "properties": {"collection_times": [{"days": "Mon-Fri", "time": "4:00pm"}, {"days": "Sat-Sun", "time": "Closed"}], "id": "7617900007", "name": "USPS COLLECTION BOX - PO LOBBY", "address": {"city": "SAGINAW", "state": "TX", "street": "101 BELMONT ST", "postcode": "76179"}}},
{"geometry": {"type": "Point", "coordinates": [-97.3610701554, 32.8551689661]}, "type": "Feature", "properties": {"collection_times": [{"days": "Mon-Fri", "time": "4:00pm"}, {"days": "Sat-Sun", "time": "Closed"}], "id": "7617900009", "name": "USPS COLLECTION BOX - BLUE BOX", "address": {"city": "SAGINAW", "state": "TX", "street": "500 S SAGINAW BLVD", "postcode": "76179"}}},
{"geometry": {"type": "Point", "coordinates": [-97.4116180329, 32.8809023196]}, "type": "Feature", "properties": {"collection_times": [{"days": "Mon-Fri", "time": "1:30pm"}, {"days": "Sat-Sun", "time": "Closed"}], "id": "7617900010", "name": "USPS COLLECTION BOX - BLUE BOX", "address": {"city": "SAGINAW", "state": "TX", "street": "1209 W BAILEY BOSWELL RD", "postcode": "76179"}}},
{"geometry": {"type": "Point", "coordinates": [-97.420811007, 32.959105556]}, "type": "Feature", "properties": {"collection_times": [{"days": "Mon-Sat", "time": "12:00pm"}, {"days": "Sun", "time": "Closed"}], "id": "7617900013", "name": "USPS COLLECTION BOX - BLUE BOX", "address": {"city": "SAGINAW", "state": "TX", "street": "13075 N SAGINAW BLVD", "postcode": "76179"}}},
{"geometry": {"type": "Point", "coordinates": [-97.2264092046, 32.8383283622]}, "type": "Feature", "properties": {"collection_times": [{"days": "Mon-Fri", "time": "12:00pm"}, {"days": "Sat", "time": "12:05pm"}, {"days": "Sun", "time": "Closed"}], "id": "7618000002", "name": "USPS COLLECTION BOX - BLUE BOX", "address": {"city": "FORT WORTH", "state": "TX", "street": "7301 NE LOOP 820", "postcode": "76180"}}},
{"geometry": {"type": "Point", "coordinates": [-97.2334371638, 32.8404754328]}, "type": "Feature", "properties": {"collection_times": [{"days": "Mon-Sat", "time": "8:35am"}, {"days": "Sun", "time": "Closed"}], "id": "7618000007", "name": "USPS COLLECTION BOX - BLUE BOX", "address": {"city": "FORT WORTH", "state": "TX", "street": "6851 NE LOOP 820", "postcode": "76180"}}},
{"geometry": {"type": "Point", "coordinates": [-97.2266138565, 32.8247337978]}, "type": "Feature", "properties": {"collection_times": [{"days": "Mon-Fri", "time": "12:20pm"}, {"days": "Sat", "time": "1:00pm"}, {"days": "Sun", "time": "Closed"}], "id": "7618000020", "name": "USPS COLLECTION BOX - BLUE BOX", "address": {"city": "FORT WORTH", "state": "TX", "street": "7201 GRAPEVINE HWY", "postcode": "76180"}}},
{"geometry": {"type": "Point", "coordinates": [-97.2307112609, 32.8196630008]}, "type": "Feature", "properties": {"collection_times": [{"days": "Mon-Fri", "time": "12:20pm"}, {"days": "Sat", "time": "1:00pm"}, {"days": "Sun", "time": "Closed"}], "id": "7618000022", "name": "USPS COLLECTION BOX - BLUE BOX", "address": {"city": "FORT WORTH", "state": "TX", "street": "3900 VANCE RD", "postcode": "76180"}}},
{"geometry": {"type": "Point", "coordinates": [-97.1948504032, 32.8407615344]}, "type": "Feature", "properties": {"collection_times": [{"days": "Mon-Fri", "time": "1:00pm"}, {"days": "Sat", "time": "1:25pm"}, {"days": "Sun", "time": "Closed"}], "id": "7618000025", "name": "USPS COLLECTION BOX - BLUE BOX", "address": {"city": "FORT WORTH", "state": "TX", "street": "1600 WEYLAND DR", "postcode": "76180"}}},
{"geometry": {"type": "Point", "coordinates": [-97.2373728683, 32.8477754725]}, "type": "Feature", "properties": {"collection_times": [{"days": "Mon-Sat", "time": "9:20am"}, {"days": "Sun", "time": "Closed"}], "id": "7618000027", "name": "USPS COLLECTION BOX - BLUE BOX", "address": {"city": "FORT WORTH", "state": "TX", "street": "6700 BUENOS AIRES DR", "postcode": "76180"}}},
{"geometry": {"type": "Point", "coordinates": [-97.1872355185, 32.8548909707]}, "type": "Feature", "properties": {"collection_times": [{"days": "Mon-Fri", "time": "11:20am"}, {"days": "Sat-Sun", "time": "Closed"}], "id": "7618000040", "name": "USPS COLLECTION BOX - BLUE BOX", "address": {"city": "FORT WORTH", "state": "TX", "street": "9151 GRAPEVINE HWY", "postcode": "76180"}}},
{"geometry": {"type": "Point", "coordinates": [-97.2125217304, 32.8555156505]}, "type": "Feature", "properties": {"collection_times": [{"days": "Mon-Fri", "time": "5:00pm"}, {"days": "Sat", "time": "4:00pm"}, {"days": "Sun", "time": "Closed"}], "id": "7618000050", "name": "USPS COLLECTION BOX - BLUE BOX", "address": {"city": "FORT WORTH", "state": "TX", "street": "6051 DAVIS BLVD", "postcode": "76180"}}},
{"geometry": {"type": "Point", "coordinates": [-97.2125217304, 32.8555156505]}, "type": "Feature", "properties": {"collection_times": [{"days": "Mon-Fri", "time": "5:00pm"}, {"days": "Sat", "time": "4:00pm"}, {"days": "Sun", "time": "Closed"}], "id": "7618000051", "name": "USPS COLLECTION BOX - BLUE BOX", "address": {"city": "FORT WORTH", "state": "TX", "street": "6051 DAVIS BLVD", "postcode": "76180"}}},
{"geometry": {"type": "Point", "coordinates": [-97.2125217304, 32.8555156505]}, "type": "Feature", "properties": {"collection_times": [{"days": "Mon-Fri", "time": "5:00pm"}, {"days": "Sat", "time": "4:00pm"}, {"days": "Sun", "time": "Closed"}], "id": "7618000054", "name": "USPS COLLECTION BOX - PO LOBBY", "address": {"city": "FORT WORTH", "state": "TX", "street": "6051 DAVIS BLVD", "postcode": "76180"}}},
{"geometry": {"type": "Point", "coordinates": [-97.2125217304, 32.8555156505]}, "type": "Feature", "properties": {"collection_times": [{"days": "Mon-Fri", "time": "5:00pm"}, {"days": "Sat", "time": "4:00pm"}, {"days": "Sun", "time": "Closed"}], "id": "7618000055", "name": "USPS COLLECTION BOX - PO LOBBY", "address": {"city": "FORT WORTH", "state": "TX", "street": "6051 DAVIS BLVD", "postcode": "76180"}}},
{"geometry": {"type": "Point", "coordinates": [-97.2386516469, 32.846811361]}, "type": "Feature", "properties": {"collection_times": [{"days": "Mon-Sat", "time": "9:10am"}, {"days": "Sun", "time": "Closed"}], "id": "7618000060", "name": "USPS COLLECTION BOX - BLUE BOX", "address": {"city": "FORT WORTH", "state": "TX", "street": "5424 RUFE SNOW DR", "postcode": "76180"}}},
{"geometry": {"type": "Point", "coordinates": [-97.1975465155, 32.8397856784]}, "type": "Feature", "properties": {"collection_times": [{"days": "Mon-Fri", "time": "1:00pm"}, {"days": "Sat", "time": "1:30pm"}, {"days": "Sun", "time": "Closed"}], "id": "7618000063", "name": "USPS COLLECTION BOX - BLUE BOX", "address": {"city": "FORT WORTH", "state": "TX", "street": "8500 THOUSAND OAKS DR", "postcode": "76180"}}},
{"geometry": {"type": "Point", "coordinates": [-97.2125217304, 32.8555156505]}, "type": "Feature", "properties": {"collection_times": [{"days": "Mon-Fri", "time": "5:00pm"}, {"days": "Sat", "time": "2:00pm"}, {"days": "Sun", "time": "Closed"}], "id": "7618000065", "name": "USPS COLLECTION BOX - APC", "address": {"city": "FORT WORTH", "state": "TX", "street": "6051 DAVIS BLVD", "postcode": "76180"}}},
{"geometry": {"type": "Point", "coordinates": [-97.2386137922, 32.8518342048]}, "type": "Feature", "properties": {"collection_times": [{"days": "Mon-Fri", "time": "12:05pm"}, {"days": "Sat", "time": "12:15pm"}, {"days": "Sun", "time": "Closed"}], "id": "7618000066", "name": "USPS COLLECTION BOX - BLUE BOX", "address": {"city": "FORT WORTH", "state": "TX", "street": "5750 RUFE SNOW DR", "postcode": "76180"}}},
{"geometry": {"type": "Point", "coordinates": [-97.2122361732, 32.8293035683]}, "type": "Feature", "properties": {"collection_times": [{"days": "Mon-Fri", "time": "12:40pm"}, {"days": "Sat", "time": "1:00pm"}, {"days": "Sun", "time": "Closed"}], "id": "7618000070", "name": "USPS COLLECTION BOX - BLUE BOX", "address": {"city": "FORT WORTH", "state": "TX", "street": "4401 BOOTH CALLOWAY RD", "postcode": "76180"}}},
{"geometry": {"type": "Point", "coordinates": [-97.247349686, 32.8242748453]}, "type": "Feature", "properties": {"collection_times": [{"days": "Mon-Sat", "time": "12:15pm"}, {"days": "Sun", "time": "Closed"}], "id": "7618000082", "name": "USPS COLLECTION BOX - BLUE BOX", "address": {"city": "FORT WORTH", "state": "TX", "street": "6350 GLENVIEW DR STE 101", "postcode": "76180"}}}
]}
