{"type": "FeatureCollection", "features": [
{"geometry": {"type": "Point", "coordinates": [-97.1638235776, 33.2296819448]}, "type": "Feature", "properties": {"collection_times": [{"days": "Mon-Sat", "time": "12:45pm"}, {"days": "Sun", "time": "Closed"}], "id": "7620100018", "name": "USPS COLLECTION BOX - BLUE BOX", "address": {"city": "DENTON", "state": "TX", "street": "2321 W UNIVERSITY DR", "postcode": "76201"}}},
{"geometry": {"type": "Point", "coordinates": [-97.1337373822, 33.2113200557]}, "type": "Feature", "properties": {"collection_times": [{"days": "Mon-Fri", "time": "4:00pm"}, {"days": "Sat", "time": "3:15pm"}, {"days": "Sun", "time": "Closed"}], "id": "7620100029", "name": "USPS COLLECTION BOX - BLUE BOX", "address": {"city": "DENTON", "state": "TX", "street": "400 N ELM ST", "postcode": "76201"}}},
{"geometry": {"type": "Point", "coordinates": [-97.1400717883, 33.2305296103]}, "type": "Feature", "properties": {"collection_times": [{"days": "Mon-Sat", "time": "12:30pm"}, {"days": "Sun", "time": "Closed"}], "id": "7620100038", "name": "USPS COLLECTION BOX - BLUE BOX", "address": {"city": "DENTON", "state": "TX", "street": "800 W UNIVERSITY DR", "postcode": "76201"}}},
{"geometry": {"type": "Point", "coordinates": [-97.1508052768, 33.2051778124]}, "type": "Feature", "properties": {"collection_times": [{"days": "Mon-Fri", "time": "1:45pm"}, {"days": "Sat", "time": "3:00pm"}, {"days": "Sun", "time": "Closed"}], "id": "7620100049", "name": "USPS COLLECTION BOX - BLUE BOX", "address": {"city": "DENTON", "state": "TX", "street": "1000 AVENUE C", "postcode": "76201"}}},
{"geometry": {"type": "Point", "coordinates": [-97.1638235776, 33.2296819448]}, "type": "Feature", "properties": {"collection_times": [{"days": "Mon-Sat", "time": "12:45pm"}, {"days": "Sun", "time": "Closed"}], "id": "7620100062", "name": "USPS COLLECTION BOX - BLUE BOX", "address": {"city": "DENTON", "state": "TX", "street": "2321 W UNIVERSITY DR", "postcode": "76201"}}},
{"geometry": {"type": "Point", "coordinates": [-97.1337373822, 33.2113200557]}, "type": "Feature", "properties": {"collection_times": [{"days": "Mon-Fri", "time": "4:00pm"}, {"days": "Sat", "time": "3:15pm"}, {"days": "Sun", "time": "Closed"}], "id": "7620100073", "name": "USPS COLLECTION BOX - BLUE BOX", "address": {"city": "DENTON", "state": "TX", "street": "400 N ELM ST", "postcode": "76201"}}},
{"geometry": {"type": "Point", "coordinates": [-97.1376565253, 33.2145779247]}, "type": "Feature", "properties": {"collection_times": [{"days": "Mon-Fri", "time": "1:45pm"}, {"days": "Sat", "time": "3:30pm"}, {"days": "Sun", "time": "Closed"}], "id": "7620100076", "name": "USPS COLLECTION BOX - BLUE BOX", "address": {"city": "DENTON", "state": "TX", "street": "512 W HICKORY ST", "postcode": "76201"}}},
{"geometry": {"type": "Point", "coordinates": [-97.1400717883, 33.2305296103]}, "type": "Feature", "properties": {"collection_times": [{"days": "Mon-Sat", "time": "12:30pm"}, {"days": "Sun", "time": "Closed"}], "id": "7620100082", "name": "USPS COLLECTION BOX - BLUE BOX", "address": {"city": "DENTON", "state": "TX", "street": "800 W UNIVERSITY DR", "postcode": "76201"}}},
{"geometry": {"type": "Point", "coordinates": [-97.144367044, 33.213649452]}, "type": "Feature", "properties": {"collection_times": [{"days": "Mon-Sat", "time": "11:00am"}, {"days": "Sun", "time": "Closed"}], "id": "7620100085", "name": "USPS COLLECTION BOX - BLUE BOX", "address": {"city": "DENTON", "state": "TX", "street": "1100 W MULBERRY ST", "postcode": "76201"}}},
{"geometry": {"type": "Point", "coordinates": [-97.1323984024, 33.2166769051]}, "type": "Feature", "properties": {"collection_times": [{"days": "Mon-Fri", "time": "5:30pm"}, {"days": "Sat", "time": "3:45pm"}, {"days": "Sun", "time": "Closed"}], "id": "7620100122", "name": "USPS COLLECTION BOX - BLUE BOX", "address": {"city": "DENTON", "state": "TX", "street": "101 E MCKINNEY ST", "postcode": "76201"}}},
{"geometry": {"type": "Point", "coordinates": [-97.1448390402, 33.2177401809]}, "type": "Feature", "properties": {"collection_times": [{"days": "Mon-Fri", "time": "5:30pm"}, {"days": "Sat", "time": "3:45pm"}, {"days": "Sun", "time": "Closed"}], "id": "7620100123", "name": "USPS COLLECTION BOX - EXPRESS", "address": {"city": "DENTON", "state": "TX", "street": "101 E MCKINNEY ST", "postcode": "76201"}}},
{"geometry": {"type": "Point", "coordinates": [-97.1323984024, 33.2166769051]}, "type": "Feature", "properties": {"collection_times": [{"days": "Mon-Fri", "time": "5:30pm"}, {"days": "Sat", "time": "3:45pm"}, {"days": "Sun", "time": "Closed"}], "id": "7620100126", "name": "USPS COLLECTION BOX - PO LOBBY", "address": {"city": "DENTON", "state": "TX", "street": "101 E MCKINNEY ST", "postcode": "76201"}}},
{"geometry": {"type": "Point", "coordinates": [-97.1323984024, 33.2166769051]}, "type": "Feature", "properties": {"collection_times": [{"days": "Mon-Fri", "time": "5:30pm"}, {"days": "Sat", "time": "3:45pm"}, {"days": "Sun", "time": "Closed"}], "id": "7620100127", "name": "USPS COLLECTION BOX - PO LOBBY", "address": {"city": "DENTON", "state": "TX", "street": "101 E MCKINNEY ST", "postcode": "76201"}}},
{"geometry": {"type": "Point", "coordinates": [-97.1323984024, 33.2166769051]}, "type": "Feature", "properties": {"collection_times": [{"days": "Mon-Fri", "time": "5:30pm"}, {"days": "Sat", "time": "3:45pm"}, {"days": "Sun", "time": "Closed"}], "id": "7620100128", "name": "USPS COLLECTION BOX - PO LOBBY", "address": {"city": "DENTON", "state": "TX", "street": "101 E MCKINNEY ST", "postcode": "76201"}}},
{"geometry": {"type": "Point", "coordinates": [-97.1323984024, 33.2166769051]}, "type": "Feature", "properties": {"collection_times": [{"days": "Mon-Fri", "time": "5:30pm"}, {"days": "Sat", "time": "3:45pm"}, {"days": "Sun", "time": "Closed"}], "id": "7620100129", "name": "USPS COLLECTION BOX - PO LOBBY", "address": {"city": "DENTON", "state": "TX", "street": "101 E MCKINNEY ST", "postcode": "76201"}}},
{"geometry": {"type": "Point", "coordinates": [-97.1337373822, 33.2113200557]}, "type": "Feature", "properties": {"collection_times": [{"days": "Mon-Fri", "time": "4:00pm"}, {"days": "Sat", "time": "3:15pm"}, {"days": "Sun", "time": "Closed"}], "id": "7620100131", "name": "USPS COLLECTION BOX - BLUE BOX", "address": {"city": "DENTON", "state": "TX", "street": "400 N ELM ST", "postcode": "76201"}}},
{"geometry": {"type": "Point", "coordinates": [-97.1337373822, 33.2113200557]}, "type": "Feature", "properties": {"collection_times": [{"days": "Mon-Fri", "time": "4:00pm"}, {"days": "Sat", "time": "3:15pm"}, {"days": "Sun", "time": "Closed"}], "id": "7620100132", "name": "USPS COLLECTION BOX - BLUE BOX", "address": {"city": "DENTON", "state": "TX", "street": "400 N ELM ST", "postcode": "76201"}}},
{"geometry": {"type": "Point", "coordinates": [-97.1323984024, 33.2166769051]}, "type": "Feature", "properties": {"collection_times": [{"days": "Mon-Fri", "time": "5:30pm"}, {"days": "Sat", "time": "3:45pm"}, {"days": "Sun", "time": "Closed"}], "id": "7620100133", "name": "USPS COLLECTION BOX - APC", "address": {"city": "DENTON", "state": "TX", "street": "101 E MCKINNEY ST", "postcode": "76201"}}},
{"geometry": {"type": "Point", "coordinates": [-97.1147214874, 33.2158315976]}, "type": "Feature", "properties": {"collection_times": [{"days": "Mon-Fri", "time": "5:30pm"}, {"days": "Sat", "time": "2:15pm"}, {"days": "Sun", "time": "Closed"}], "id": "7620100135", "name": "USPS COLLECTION BOX - BLUE BOX", "address": {"city": "DENTON", "state": "TX", "street": "1450 E MCKINNEY ST", "postcode": "76201"}}},
{"geometry": {"type": "Point", "coordinates": [-97.1323984024, 33.2166769051]}, "type": "Feature", "properties": {"collection_times": [{"days": "Mon-Fri", "time": "5:30pm"}, {"days": "Sat", "time": "3:45pm"}, {"days": "Sun", "time": "Closed"}], "id": "7620100137", "name": "USPS COLLECTION BOX - BLUE BOX", "address": {"city": "DENTON", "state": "TX", "street": "101 E MCKINNEY ST", "postcode": "76201"}}},
{"geometry": {"type": "Point", "coordinates": [-97.1227045338, 33.1979560605]}, "type": "Feature", "properties": {"collection_times": [{"days": "Mon-Sat", "time": "1:00pm"}, {"days": "Sun", "time": "Closed"}], "id": "7620500000", "name": "USPS COLLECTION BOX - BLUE BOX", "address": {"city": "DENTON", "state": "TX", "street": "1112 DALLAS DR", "postcode": "76205"}}},
{"geometry": {"type": "Point", "coordinates": [-97.124057229, 33.1899333406]}, "type": "Feature", "properties": {"collection_times": [{"days": "Mon-Sat", "time": "1:00pm"}, {"days": "Sun", "time": "Closed"}], "id": "7620500008", "name": "USPS COLLECTION BOX - BLUE BOX", "address": {"city": "DENTON", "state": "TX", "street": "701 LONDONDERRY LN", "postcode": "76205"}}},
{"geometry": {"type": "Point", "coordinates": [-97.1067054071, 33.1943989803]}, "type": "Feature", "properties": {"collection_times": [{"days": "Mon-Fri", "time": "5:30pm"}, {"days": "Sat", "time": "2:15pm"}, {"days": "Sun", "time": "Closed"}], "id": "7620500018", "name": "USPS COLLECTION BOX - PO LOBBY", "address": {"city": "DENTON", "state": "TX", "street": "2101 COLORADO BLVD", "postcode": "76205"}}},
{"geometry": {"type": "Point", "coordinates": [-97.094683175, 33.1937294559]}, "type": "Feature", "properties": {"collection_times": [{"days": "Mon-Fri", "time": "1:30pm"}, {"days": "Sat", "time": "2:30pm"}, {"days": "Sun", "time": "Closed"}], "id": "7620500021", "name": "USPS COLLECTION BOX - BLUE BOX", "address": {"city": "DENTON", "state": "TX", "street": "1515 S LOOP 288", "postcode": "76205"}}},
{"geometry": {"type": "Point", "coordinates": [-97.1067054071, 33.1943989803]}, "type": "Feature", "properties": {"collection_times": [{"days": "Mon-Fri", "time": "5:30pm"}, {"days": "Sat", "time": "2:15pm"}, {"days": "Sun", "time": "Closed"}], "id": "7620500023", "name": "USPS COLLECTION BOX - PO LOBBY", "address": {"city": "DENTON", "state": "TX", "street": "2101 COLORADO BLVD", "postcode": "76205"}}},
{"geometry": {"type": "Point", "coordinates": [-97.1067054071, 33.1943989803]}, "type": "Feature", "properties": {"collection_times": [{"days": "Mon-Fri", "time": "5:30pm"}, {"days": "Sat", "time": "2:15pm"}, {"days": "Sun", "time": "Closed"}], "id": "7620500024", "name": "USPS COLLECTION BOX - BLUE BOX", "address": {"city": "DENTON", "state": "TX", "street": "2101 COLORADO BLVD", "postcode": "76205"}}},
{"geometry": {"type": "Point", "coordinates": [-97.1067054071, 33.1943989803]}, "type": "Feature", "properties": {"collection_times": [{"days": "Mon-Fri", "time": "5:30pm"}, {"days": "Sat", "time": "2:15pm"}, {"days": "Sun", "time": "Closed"}], "id": "7620500025", "name": "USPS COLLECTION BOX - BLUE BOX", "address": {"city": "DENTON", "state": "TX", "street": "2101 COLORADO BLVD", "postcode": "76205"}}},
{"geometry": {"type": "Point", "coordinates": [-97.1067054071, 33.1943989803]}, "type": "Feature", "properties": {"collection_times": [{"days": "Mon-Fri", "time": "5:30pm"}, {"days": "Sat", "time": "2:15pm"}, {"days": "Sun", "time": "Closed"}], "id": "7620500026", "name": "USPS COLLECTION BOX - BLUE BOX", "address": {"city": "DENTON", "state": "TX", "street": "2101 COLORADO BLVD", "postcode": "76205"}}},
{"geometry": {"type": "Point", "coordinates": [-97.1067054071, 33.1943989803]}, "type": "Feature", "properties": {"collection_times": [{"days": "Mon-Fri", "time": "5:30pm"}, {"days": "Sat", "time": "2:15pm"}, {"days": "Sun", "time": "Closed"}], "id": "7620500027", "name": "USPS COLLECTION BOX - BLUE BOX", "address": {"city": "DENTON", "state": "TX", "street": "2101 COLORADO BLVD", "postcode": "76205"}}},
{"geometry": {"type": "Point", "coordinates": [-97.1742158721, 33.2351342027]}, "type": "Feature", "properties": {"collection_times": [{"days": "Mon-Sat", "time": "12:45pm"}, {"days": "Sun", "time": "Closed"}], "id": "7620700000", "name": "USPS COLLECTION BOX - BLUE BOX", "address": {"city": "DENTON", "state": "TX", "street": "3015 THUNDERBIRD DR", "postcode": "76207"}}},
{"geometry": {"type": "Point", "coordinates": [-97.0864403169, 33.2047546335]}, "type": "Feature", "properties": {"collection_times": [{"days": "Mon-Fri", "time": "3:15pm"}, {"days": "Sat", "time": "2:45pm"}, {"days": "Sun", "time": "Closed"}], "id": "7620800001", "name": "USPS COLLECTION BOX - BLUE BOX", "address": {"city": "DENTON", "state": "TX", "street": "3900 MORSE ST", "postcode": "76208"}}},
{"geometry": {"type": "Point", "coordinates": [-97.1251147943, 33.2353672456]}, "type": "Feature", "properties": {"collection_times": [{"days": "Mon-Sat", "time": "12:30pm"}, {"days": "Sun", "time": "Closed"}], "id": "7620900006", "name": "USPS COLLECTION BOX - BLUE BOX", "address": {"city": "DENTON", "state": "TX", "street": "619 E SHERMAN DR", "postcode": "76209"}}},
{"geometry": {"type": "Point", "coordinates": [-97.0931323158, 33.1761956382]}, "type": "Feature", "properties": {"collection_times": [{"days": "Mon-Fri", "time": "1:15pm"}, {"days": "Sat", "time": "2:00pm"}, {"days": "Sun", "time": "Closed"}], "id": "7621000000", "name": "USPS COLLECTION BOX - BLUE BOX", "address": {"city": "CORINTH", "state": "TX", "street": "3535 S INTERSTATE 35 E", "postcode": "76210"}}},
{"geometry": {"type": "Point", "coordinates": [-97.0880359648, 33.1427009616]}, "type": "Feature", "properties": {"collection_times": [{"days": "Mon-Fri", "time": "2:45pm"}, {"days": "Sat", "time": "1:30pm"}, {"days": "Sun", "time": "Closed"}], "id": "7621000001", "name": "USPS COLLECTION BOX - BLUE BOX", "address": {"city": "CORINTH", "state": "TX", "street": "1200 POST OAK DR", "postcode": "76210"}}},
{"geometry": {"type": "Point", "coordinates": [-97.6961259328, 33.3589309746]}, "type": "Feature", "properties": {"collection_times": [{"days": "Mon-Fri", "time": "4:00pm"}, {"days": "Sat", "time": "7:30am"}, {"days": "Sun", "time": "Closed"}], "id": "7622500001", "name": "USPS COLLECTION BOX - BLUE BOX", "address": {"city": "ALVORD", "state": "TX", "street": "105 N ONEIL ST", "postcode": "76225"}}},
{"geometry": {"type": "Point", "coordinates": [-97.6961259328, 33.3589309746]}, "type": "Feature", "properties": {"collection_times": [{"days": "Mon-Fri", "time": "4:00pm"}, {"days": "Sat", "time": "7:30am"}, {"days": "Sun", "time": "Closed"}], "id": "7622500002", "name": "USPS COLLECTION BOX - PO LOBBY", "address": {"city": "ALVORD", "state": "TX", "street": "105 N ONEIL ST", "postcode": "76225"}}},
{"geometry": {"type": "Point", "coordinates": [-97.1856893911, 33.1208852088]}, "type": "Feature", "properties": {"collection_times": [{"days": "Mon-Fri", "time": "4:30pm"}, {"days": "Sat", "time": "8:00am"}, {"days": "Sun", "time": "Closed"}], "id": "7622600001", "name": "USPS COLLECTION BOX - BLUE BOX", "address": {"city": "BARTONVILLE", "state": "TX", "street": "440 HIGHWAY 377 N", "postcode": "76226"}}},
{"geometry": {"type": "Point", "coordinates": [-97.1856893911, 33.1208852088]}, "type": "Feature", "properties": {"collection_times": [{"days": "Mon-Fri", "time": "4:30pm"}, {"days": "Sat", "time": "8:00am"}, {"days": "Sun", "time": "Closed"}], "id": "7622600002", "name": "USPS COLLECTION BOX - BLUE BOX", "address": {"city": "BARTONVILLE", "state": "TX", "street": "440 HIGHWAY 377 N", "postcode": "76226"}}},
{"geometry": {"type": "Point", "coordinates": [-97.1856893911, 33.1208852088]}, "type": "Feature", "properties": {"collection_times": [{"days": "Mon-Fri", "time": "4:30pm"}, {"days": "Sat", "time": "8:00am"}, {"days": "Sun", "time": "Closed"}], "id": "7622600003", "name": "USPS COLLECTION BOX - PO LOBBY", "address": {"city": "BARTONVILLE", "state": "TX", "street": "440 HIGHWAY 377 N", "postcode": "76226"}}},
{"geometry": {"type": "Point", "coordinates": [-97.1856893911, 33.1208852088]}, "type": "Feature", "properties": {"collection_times": [{"days": "Mon-Fri", "time": "4:30pm"}, {"days": "Sat", "time": "8:00am"}, {"days": "Sun", "time": "Closed"}], "id": "7622600004", "name": "USPS COLLECTION BOX - PO LOBBY", "address": {"city": "BARTONVILLE", "state": "TX", "street": "440 HIGHWAY 377 N", "postcode": "76226"}}},
{"geometry": {"type": "Point", "coordinates": [-97.1319207305, 33.0739227924]}, "type": "Feature", "properties": {"collection_times": [{"days": "Mon-Fri", "time": "2:00pm"}, {"days": "Sat", "time": "11:00am"}, {"days": "Sun", "time": "Closed"}], "id": "7622600005", "name": "USPS COLLECTION BOX - BLUE BOX", "address": {"city": "BARTONVILLE", "state": "TX", "street": "1941 E JETER RD", "postcode": "76226"}}},
{"geometry": {"type": "Point", "coordinates": [-96.9857039243, 33.2741619364]}, "type": "Feature", "properties": {"collection_times": [{"days": "Mon-Fri", "time": "4:00pm"}, {"days": "Sat", "time": "10:30am"}, {"days": "Sun", "time": "Closed"}], "id": "7622700002", "name": "USPS COLLECTION BOX - PO LOBBY", "address": {"city": "AUBREY", "state": "TX", "street": "120 STANLEY DR", "postcode": "76227"}}},
{"geometry": {"type": "Point", "coordinates": [-96.9857039243, 33.2741619364]}, "type": "Feature", "properties": {"collection_times": [{"days": "Mon-Fri", "time": "4:00pm"}, {"days": "Sat", "time": "10:30am"}, {"days": "Sun", "time": "Closed"}], "id": "7622700004", "name": "USPS COLLECTION BOX - BLUE BOX", "address": {"city": "AUBREY", "state": "TX", "street": "120 STANLEY DR", "postcode": "76227"}}},
{"geometry": {"type": "Point", "coordinates": [-96.9647599961, 33.2269610695]}, "type": "Feature", "properties": {"collection_times": [{"days": "Mon-Fri", "time": "12:00pm"}, {"days": "Sat", "time": "11:00am"}, {"days": "Sun", "time": "Closed"}], "id": "7622700005", "name": "USPS COLLECTION BOX - BLUE BOX", "address": {"city": "AUBREY", "state": "TX", "street": "1190 FM 2931", "postcode": "76227"}}},
{"geometry": {"type": "Point", "coordinates": [-96.9857039243, 33.2741619364]}, "type": "Feature", "properties": {"collection_times": [{"days": "Mon-Fri", "time": "4:00pm"}, {"days": "Sat", "time": "10:30am"}, {"days": "Sun", "time": "Closed"}], "id": "7622700006", "name": "USPS COLLECTION BOX - BLUE BOX", "address": {"city": "AUBREY", "state": "TX", "street": "120 STANLEY DR", "postcode": "76227"}}},
{"geometry": {"type": "Point", "coordinates": [-98.0641596489, 33.586731083]}, "type": "Feature", "properties": {"collection_times": [{"days": "Mon-Fri", "time": "3:45pm"}, {"days": "Sat", "time": "10:45am"}, {"days": "Sun", "time": "Closed"}], "id": "7622800001", "name": "USPS COLLECTION BOX - BLUE BOX", "address": {"city": "BELLEVUE", "state": "TX", "street": "621 4TH ST", "postcode": "76228"}}},
{"geometry": {"type": "Point", "coordinates": [-98.0162338101, 33.6331707269]}, "type": "Feature", "properties": {"collection_times": [{"days": "Mon-Sat", "time": "10:45am"}, {"days": "Sun", "time": "Closed"}], "id": "7622800002", "name": "USPS COLLECTION BOX - PO LOBBY", "address": {"city": "BELLEVUE", "state": "TX", "street": "501 FRANKLIN ST", "postcode": "76228"}}},
{"geometry": {"type": "Point", "coordinates": [-97.8491516429, 33.5582250727]}, "type": "Feature", "properties": {"collection_times": [{"days": "Mon-Fri", "time": "4:30pm"}, {"days": "Sat", "time": "3:00pm"}, {"days": "Sun", "time": "Closed"}], "id": "7623000008", "name": "USPS COLLECTION BOX - BLUE BOX", "address": {"city": "BOWIE", "state": "TX", "street": "113 N MASON ST", "postcode": "76230"}}},
{"geometry": {"type": "Point", "coordinates": [-97.8491516429, 33.5582250727]}, "type": "Feature", "properties": {"collection_times": [{"days": "Mon-Fri", "time": "4:30pm"}, {"days": "Sat", "time": "3:00pm"}, {"days": "Sun", "time": "Closed"}], "id": "7623000010", "name": "USPS COLLECTION BOX - PO LOBBY", "address": {"city": "BOWIE", "state": "TX", "street": "113 N MASON ST", "postcode": "76230"}}},
{"geometry": {"type": "Point", "coordinates": [-97.8491516429, 33.5582250727]}, "type": "Feature", "properties": {"collection_times": [{"days": "Mon-Fri", "time": "4:30pm"}, {"days": "Sat", "time": "3:00pm"}, {"days": "Sun", "time": "Closed"}], "id": "7623000011", "name": "USPS COLLECTION BOX - PO LOBBY", "address": {"city": "BOWIE", "state": "TX", "street": "113 N MASON ST", "postcode": "76230"}}},
{"geometry": {"type": "Point", "coordinates": [-96.9112445474, 33.5612336328]}, "type": "Feature", "properties": {"collection_times": [{"days": "Mon-Fri", "time": "4:00pm"}, {"days": "Sat", "time": "9:00am"}, {"days": "Sun", "time": "Closed"}], "id": "7623300001", "name": "USPS COLLECTION BOX - PO LOBBY", "address": {"city": "COLLINSVILLE", "state": "TX", "street": "200 N MAIN ST", "postcode": "76233"}}},
{"geometry": {"type": "Point", "coordinates": [-96.9112445474, 33.5612336328]}, "type": "Feature", "properties": {"collection_times": [{"days": "Mon-Fri", "time": "4:00pm"}, {"days": "Sat", "time": "9:00am"}, {"days": "Sun", "time": "Closed"}], "id": "7623300002", "name": "USPS COLLECTION BOX - BLUE BOX", "address": {"city": "COLLINSVILLE", "state": "TX", "street": "200 N MAIN ST", "postcode": "76233"}}},
{"geometry": {"type": "Point", "coordinates": [-97.5853708335, 33.2348214301]}, "type": "Feature", "properties": {"collection_times": [{"days": "Mon-Fri", "time": "4:30pm"}, {"days": "Sat", "time": "11:30am"}, {"days": "Sun", "time": "Closed"}], "id": "7623400002", "name": "USPS COLLECTION BOX - PO LOBBY", "address": {"city": "DECATUR", "state": "TX", "street": "206 E WALNUT ST", "postcode": "76234"}}},
{"geometry": {"type": "Point", "coordinates": [-97.5853708335, 33.2348214301]}, "type": "Feature", "properties": {"collection_times": [{"days": "Mon-Fri", "time": "4:30pm"}, {"days": "Sat", "time": "11:30am"}, {"days": "Sun", "time": "Closed"}], "id": "7623400005", "name": "USPS COLLECTION BOX - BLUE BOX", "address": {"city": "DECATUR", "state": "TX", "street": "206 E WALNUT ST", "postcode": "76234"}}},
{"geometry": {"type": "Point", "coordinates": [-97.5853708335, 33.2348214301]}, "type": "Feature", "properties": {"collection_times": [{"days": "Mon-Fri", "time": "4:30pm"}, {"days": "Sat", "time": "11:30am"}, {"days": "Sun", "time": "Closed"}], "id": "7623400006", "name": "USPS COLLECTION BOX - PO LOBBY", "address": {"city": "DECATUR", "state": "TX", "street": "206 E WALNUT ST", "postcode": "76234"}}},
{"geometry": {"type": "Point", "coordinates": [-97.5771279822, 33.2408904165]}, "type": "Feature", "properties": {"collection_times": [{"days": "Mon-Sat", "time": "9:45am"}, {"days": "Sun", "time": "Closed"}], "id": "7623400008", "name": "USPS COLLECTION BOX - BLUE BOX", "address": {"city": "DECATUR", "state": "TX", "street": "137 COUNTY ROAD 2640", "postcode": "76234"}}},
{"geometry": {"type": "Point", "coordinates": [-97.2732811686, 33.4951577645]}, "type": "Feature", "properties": {"collection_times": [{"days": "Mon-Sat", "time": "11:30am"}, {"days": "Sun", "time": "Closed"}], "id": "7623800001", "name": "USPS COLLECTION BOX - BLUE BOX", "address": {"city": "ERA", "state": "TX", "street": "7210 W FM 922", "postcode": "76238"}}},
{"geometry": {"type": "Point", "coordinates": [-97.2732811686, 33.4951577645]}, "type": "Feature", "properties": {"collection_times": [{"days": "Mon-Sat", "time": "11:30am"}, {"days": "Sun", "time": "Closed"}], "id": "7623800003", "name": "USPS COLLECTION BOX - PO LOBBY", "address": {"city": "ERA", "state": "TX", "street": "7210 W FM 922", "postcode": "76238"}}},
{"geometry": {"type": "Point", "coordinates": [-97.5241999143, 33.5049741448]}, "type": "Feature", "properties": {"collection_times": [{"days": "Mon-Fri", "time": "2:45pm"}, {"days": "Sat", "time": "11:45am"}, {"days": "Sun", "time": "Closed"}], "id": "7623900001", "name": "USPS COLLECTION BOX - BLUE BOX", "address": {"city": "FORESTBURG", "state": "TX", "street": "16928 FM 455", "postcode": "76239"}}},
{"geometry": {"type": "Point", "coordinates": [-97.5241999143, 33.5049741448]}, "type": "Feature", "properties": {"collection_times": [{"days": "Mon-Fri", "time": "2:45pm"}, {"days": "Sat", "time": "11:45am"}, {"days": "Sun", "time": "Closed"}], "id": "7623900002", "name": "USPS COLLECTION BOX - PO LOBBY", "address": {"city": "FORESTBURG", "state": "TX", "street": "16928 FM 455", "postcode": "76239"}}},
{"geometry": {"type": "Point", "coordinates": [-97.1460924384, 33.624280532]}, "type": "Feature", "properties": {"collection_times": [{"days": "Mon-Fri", "time": "4:45pm"}, {"days": "Sat-Sun", "time": "Closed"}], "id": "7624000002", "name": "USPS COLLECTION BOX - BLUE BOX", "address": {"city": "GAINESVILLE", "state": "TX", "street": "100 S COMMERCE ST", "postcode": "76240"}}},
{"geometry": {"type": "Point", "coordinates": [-97.1298990563, 33.6419546675]}, "type": "Feature", "properties": {"collection_times": [{"days": "Mon-Sat", "time": "11:30am"}, {"days": "Sun", "time": "Closed"}], "id": "7624000008", "name": "USPS COLLECTION BOX - BLUE BOX", "address": {"city": "GAINESVILLE", "state": "TX", "street": "1012 E HIGHWAY 82", "postcode": "76240"}}},
{"geometry": {"type": "Point", "coordinates": [-97.0163092532, 33.5603572869]}, "type": "Feature", "properties": {"collection_times": [{"days": "Mon-Sat", "time": "11:00am"}, {"days": "Sun", "time": "Closed"}], "id": "7624000014", "name": "USPS COLLECTION BOX - BLUE BOX", "address": {"city": "GAINESVILLE", "state": "TX", "street": "100 KIOWA DR W", "postcode": "76240"}}},
{"geometry": {"type": "Point", "coordinates": [-97.1460924384, 33.624280532]}, "type": "Feature", "properties": {"collection_times": [{"days": "Mon-Fri", "time": "4:45pm"}, {"days": "Sat-Sun", "time": "Closed"}], "id": "7624000017", "name": "USPS COLLECTION BOX - BLUE BOX", "address": {"city": "GAINESVILLE", "state": "TX", "street": "100 S COMMERCE ST", "postcode": "76240"}}},
{"geometry": {"type": "Point", "coordinates": [-97.1433687581, 33.6243532088]}, "type": "Feature", "properties": {"collection_times": [{"days": "Mon-Fri", "time": "4:45pm"}, {"days": "Sat", "time": "3:00pm"}, {"days": "Sun", "time": "Closed"}], "id": "7624000018", "name": "USPS COLLECTION BOX - BLUE BOX", "address": {"city": "GAINESVILLE", "state": "TX", "street": "321 E CALIFORNIA ST", "postcode": "76240"}}},
{"geometry": {"type": "Point", "coordinates": [-97.1433687581, 33.6243532088]}, "type": "Feature", "properties": {"collection_times": [{"days": "Mon-Fri", "time": "4:45pm"}, {"days": "Sat", "time": "3:00pm"}, {"days": "Sun", "time": "Closed"}], "id": "7624000019", "name": "USPS COLLECTION BOX - BLUE BOX", "address": {"city": "GAINESVILLE", "state": "TX", "street": "321 E CALIFORNIA ST", "postcode": "76240"}}},
{"geometry": {"type": "Point", "coordinates": [-97.1433687581, 33.6243532088]}, "type": "Feature", "properties": {"collection_times": [{"days": "Mon-Fri", "time": "4:45pm"}, {"days": "Sat", "time": "3:00pm"}, {"days": "Sun", "time": "Closed"}], "id": "7624000021", "name": "USPS COLLECTION BOX - PO LOBBY", "address": {"city": "GAINESVILLE", "state": "TX", "street": "321 E CALIFORNIA ST", "postcode": "76240"}}},
{"geometry": {"type": "Point", "coordinates": [-97.1370568838, 33.624307493]}, "type": "Feature", "properties": {"collection_times": [{"days": "Mon-Sat", "time": "3:15pm"}, {"days": "Sun", "time": "Closed"}], "id": "7624000023", "name": "USPS COLLECTION BOX - BLUE BOX", "address": {"city": "GAINESVILLE", "state": "TX", "street": "801 E CALIFORNIA ST", "postcode": "76240"}}},
{"geometry": {"type": "Point", "coordinates": [-97.0412972302, 33.6500127302]}, "type": "Feature", "properties": {"collection_times": [{"days": "Mon-Sat", "time": "9:30am"}, {"days": "Sun", "time": "Closed"}], "id": "7624000024", "name": "USPS COLLECTION BOX - BLUE BOX", "address": {"city": "GAINESVILLE", "state": "TX", "street": "7520 E US HIGHWAY 82", "postcode": "76240"}}},
{"geometry": {"type": "Point", "coordinates": [-96.853708519, 33.7959987072]}, "type": "Feature", "properties": {"collection_times": [{"days": "Mon-Fri", "time": "3:30pm"}, {"days": "Sat", "time": "10:00am"}, {"days": "Sun", "time": "Closed"}], "id": "7624500001", "name": "USPS COLLECTION BOX - BLUE BOX", "address": {"city": "GORDONVILLE", "state": "TX", "street": "17371 FM 901", "postcode": "76245"}}},
{"geometry": {"type": "Point", "coordinates": [-96.853708519, 33.7959987072]}, "type": "Feature", "properties": {"collection_times": [{"days": "Mon-Fri", "time": "3:30pm"}, {"days": "Sat", "time": "10:00am"}, {"days": "Sun", "time": "Closed"}], "id": "7624500003", "name": "USPS COLLECTION BOX - PO LOBBY", "address": {"city": "GORDONVILLE", "state": "TX", "street": "17371 FM 901", "postcode": "76245"}}},
{"geometry": {"type": "Point", "coordinates": [-96.8328324641, 33.8621125881]}, "type": "Feature", "properties": {"collection_times": [{"days": "Mon-Sat", "time": "10:00am"}, {"days": "Sun", "time": "Closed"}], "id": "7624500004", "name": "USPS COLLECTION BOX - BLUE BOX", "address": {"city": "GORDONVILLE", "state": "TX", "street": "32210 US HIGHWAY 377", "postcode": "76245"}}},
{"geometry": {"type": "Point", "coordinates": [-97.2958035213, 33.0885197442]}, "type": "Feature", "properties": {"collection_times": [{"days": "Mon-Fri", "time": "4:15pm"}, {"days": "Sat", "time": "10:00am"}, {"days": "Sun", "time": "Closed"}], "id": "7624700001", "name": "USPS COLLECTION BOX - PO LOBBY", "address": {"city": "JUSTIN", "state": "TX", "street": "120 W 5TH ST", "postcode": "76247"}}},
{"geometry": {"type": "Point", "coordinates": [-97.2958035213, 33.0885197442]}, "type": "Feature", "properties": {"collection_times": [{"days": "Mon-Fri", "time": "4:15pm"}, {"days": "Sat", "time": "10:00am"}, {"days": "Sun", "time": "Closed"}], "id": "7624700002", "name": "USPS COLLECTION BOX - PO LOBBY", "address": {"city": "JUSTIN", "state": "TX", "street": "120 W 5TH ST", "postcode": "76247"}}},
{"geometry": {"type": "Point", "coordinates": [-97.2958035213, 33.0885197442]}, "type": "Feature", "properties": {"collection_times": [{"days": "Mon-Fri", "time": "4:15pm"}, {"days": "Sat", "time": "10:00am"}, {"days": "Sun", "time": "Closed"}], "id": "7624700003", "name": "USPS COLLECTION BOX - BLUE BOX", "address": {"city": "JUSTIN", "state": "TX", "street": "120 W 5TH ST", "postcode": "76247"}}},
{"geometry": {"type": "Point", "coordinates": [-97.253495416, 32.9375005441]}, "type": "Feature", "properties": {"collection_times": [{"days": "Mon-Fri", "time": "12:00pm"}, {"days": "Sat", "time": "11:00am"}, {"days": "Sun", "time": "Closed"}], "id": "7624800001", "name": "USPS COLLECTION BOX - BLUE BOX", "address": {"city": "KELLER", "state": "TX", "street": "301 N MAIN ST", "postcode": "76248"}}},
{"geometry": {"type": "Point", "coordinates": [-97.2339967034, 32.934390545]}, "type": "Feature", "properties": {"collection_times": [{"days": "Mon-Fri", "time": "12:00pm"}, {"days": "Sat", "time": "11:00am"}, {"days": "Sun", "time": "Closed"}], "id": "7624800002", "name": "USPS COLLECTION BOX - BLUE BOX", "address": {"city": "KELLER", "state": "TX", "street": "891 KELLER PKWY", "postcode": "76248"}}},
{"geometry": {"type": "Point", "coordinates": [-97.2428993048, 32.9316927765]}, "type": "Feature", "properties": {"collection_times": [{"days": "Mon-Fri", "time": "6:00pm"}, {"days": "Sat", "time": "2:45pm"}, {"days": "Sun", "time": "Closed"}], "id": "7624800004", "name": "USPS COLLECTION BOX - PO LOBBY", "address": {"city": "KELLER", "state": "TX", "street": "520 E VINE ST", "postcode": "76248"}}},
{"geometry": {"type": "Point", "coordinates": [-97.2428993048, 32.9316927765]}, "type": "Feature", "properties": {"collection_times": [{"days": "Mon-Fri", "time": "6:00pm"}, {"days": "Sat", "time": "2:45pm"}, {"days": "Sun", "time": "Closed"}], "id": "7624800005", "name": "USPS COLLECTION BOX - BLUE BOX", "address": {"city": "KELLER", "state": "TX", "street": "520 E VINE ST", "postcode": "76248"}}},
{"geometry": {"type": "Point", "coordinates": [-97.2386185241, 32.8929893471]}, "type": "Feature", "properties": {"collection_times": [{"days": "Mon-Fri", "time": "12:00pm"}, {"days": "Sat", "time": "11:00am"}, {"days": "Sun", "time": "Closed"}], "id": "7624800007", "name": "USPS COLLECTION BOX - BLUE BOX", "address": {"city": "KELLER", "state": "TX", "street": "2130 RUFE SNOW DR", "postcode": "76248"}}},
{"geometry": {"type": "Point", "coordinates": [-97.2534409999, 32.926262434]}, "type": "Feature", "properties": {"collection_times": [{"days": "Mon-Fri", "time": "12:00pm"}, {"days": "Sat", "time": "11:00am"}, {"days": "Sun", "time": "Closed"}], "id": "7624800008", "name": "USPS COLLECTION BOX - BLUE BOX", "address": {"city": "KELLER", "state": "TX", "street": "125 BEAR CREEK PKWY", "postcode": "76248"}}},
{"geometry": {"type": "Point", "coordinates": [-97.2428993048, 32.9316927765]}, "type": "Feature", "properties": {"collection_times": [{"days": "Mon-Fri", "time": "6:00pm"}, {"days": "Sat", "time": "2:45pm"}, {"days": "Sun", "time": "Closed"}], "id": "7624800009", "name": "USPS COLLECTION BOX - APC", "address": {"city": "KELLER", "state": "TX", "street": "520 E VINE ST", "postcode": "76248"}}},
{"geometry": {"type": "Point", "coordinates": [-97.2269853056, 32.9309481344]}, "type": "Feature", "properties": {"collection_times": [{"days": "Mon-Fri", "time": "11:00am"}, {"days": "Sat", "time": "10:30am"}, {"days": "Sun", "time": "Closed"}], "id": "7624800010", "name": "USPS COLLECTION BOX - BLUE BOX", "address": {"city": "KELLER", "state": "TX", "street": "1100 BEAR CREEK PKWY", "postcode": "76248"}}},
{"geometry": {"type": "Point", "coordinates": [-97.2835320047, 32.9530762892]}, "type": "Feature", "properties": {"collection_times": [{"days": "Mon-Fri", "time": "12:00pm"}, {"days": "Sat", "time": "11:00am"}, {"days": "Sun", "time": "Closed"}], "id": "7624800012", "name": "USPS COLLECTION BOX - BLUE BOX", "address": {"city": "KELLER", "state": "TX", "street": "12400 TIMBERLAND BLVD", "postcode": "76248"}}},
{"geometry": {"type": "Point", "coordinates": [-97.217414533, 32.93444777]}, "type": "Feature", "properties": {"collection_times": [{"days": "Mon-Fri", "time": "12:00pm"}, {"days": "Sat", "time": "11:00am"}, {"days": "Sun", "time": "Closed"}], "id": "7624800013", "name": "USPS COLLECTION BOX - BLUE BOX", "address": {"city": "KELLER", "state": "TX", "street": "1540 KELLER PKWY STE 100", "postcode": "76248"}}},
{"geometry": {"type": "Point", "coordinates": [-97.292959507, 32.914975211]}, "type": "Feature", "properties": {"collection_times": [{"days": "Mon-Fri", "time": "12:00pm"}, {"days": "Sat", "time": "11:00am"}, {"days": "Sun", "time": "Closed"}], "id": "7624800014", "name": "USPS COLLECTION BOX - BLUE BOX", "address": {"city": "KELLER", "state": "TX", "street": "4312 HERITAGE TRACE PKWY STE 700", "postcode": "76248"}}},
{"geometry": {"type": "Point", "coordinates": [-97.2395203715, 33.262291291]}, "type": "Feature", "properties": {"collection_times": [{"days": "Mon-Fri", "time": "4:00pm"}, {"days": "Sat", "time": "11:30am"}, {"days": "Sun", "time": "Closed"}], "id": "7624900001", "name": "USPS COLLECTION BOX - BLUE BOX", "address": {"city": "KRUM", "state": "TX", "street": "121 N 2ND ST", "postcode": "76249"}}},
{"geometry": {"type": "Point", "coordinates": [-97.2395203715, 33.262291291]}, "type": "Feature", "properties": {"collection_times": [{"days": "Mon-Fri", "time": "4:00pm"}, {"days": "Sat", "time": "11:30am"}, {"days": "Sun", "time": "Closed"}], "id": "7624900003", "name": "USPS COLLECTION BOX - PO LOBBY", "address": {"city": "KRUM", "state": "TX", "street": "121 N 2ND ST", "postcode": "76249"}}},
{"geometry": {"type": "Point", "coordinates": [-97.2254682566, 33.6372371595]}, "type": "Feature", "properties": {"collection_times": [{"days": "Mon-Fri", "time": "3:15pm"}, {"days": "Sat", "time": "9:15am"}, {"days": "Sun", "time": "Closed"}], "id": "7625000001", "name": "USPS COLLECTION BOX - PO LOBBY", "address": {"city": "LINDSAY", "state": "TX", "street": "625 N ASH ST", "postcode": "76250"}}},
{"geometry": {"type": "Point", "coordinates": [-97.2254682566, 33.6372371595]}, "type": "Feature", "properties": {"collection_times": [{"days": "Mon-Fri", "time": "3:15pm"}, {"days": "Sat", "time": "9:15am"}, {"days": "Sun", "time": "Closed"}], "id": "7625000002", "name": "USPS COLLECTION BOX - BLUE BOX", "address": {"city": "LINDSAY", "state": "TX", "street": "625 N ASH ST", "postcode": "76250"}}},
{"geometry": {"type": "Point", "coordinates": [-97.7246773973, 33.664107406]}, "type": "Feature", "properties": {"collection_times": [{"days": "Mon-Fri", "time": "3:00pm"}, {"days": "Sat", "time": "9:30am"}, {"days": "Sun", "time": "Closed"}], "id": "7625100001", "name": "USPS COLLECTION BOX - BLUE BOX", "address": {"city": "MONTAGUE", "state": "TX", "street": "104 FRANKLIN ST", "postcode": "76251"}}},
{"geometry": {"type": "Point", "coordinates": [-97.3784484863, 33.6503841397]}, "type": "Feature", "properties": {"collection_times": [{"days": "Mon-Fri", "time": "4:30pm"}, {"days": "Sat", "time": "9:00am"}, {"days": "Sun", "time": "Closed"}], "id": "7625200001", "name": "USPS COLLECTION BOX - PO LOBBY", "address": {"city": "MUENSTER", "state": "TX", "street": "235 W 2ND ST", "postcode": "76252"}}},
{"geometry": {"type": "Point", "coordinates": [-97.3784484863, 33.6503841397]}, "type": "Feature", "properties": {"collection_times": [{"days": "Mon-Fri", "time": "4:30pm"}, {"days": "Sat", "time": "9:00am"}, {"days": "Sun", "time": "Closed"}], "id": "7625200002", "name": "USPS COLLECTION BOX - BLUE BOX", "address": {"city": "MUENSTER", "state": "TX", "street": "235 W 2ND ST", "postcode": "76252"}}},
{"geometry": {"type": "Point", "coordinates": [-97.7283787063, 33.7912304107]}, "type": "Feature", "properties": {"collection_times": [{"days": "Mon-Fri", "time": "4:15pm"}, {"days": "Sat", "time": "2:00pm"}, {"days": "Sun", "time": "Closed"}], "id": "7625500010", "name": "USPS COLLECTION BOX - BLUE BOX", "address": {"city": "NOCONA", "state": "TX", "street": "400 CLAY ST", "postcode": "76255"}}},
{"geometry": {"type": "Point", "coordinates": [-97.7283787063, 33.7912304107]}, "type": "Feature", "properties": {"collection_times": [{"days": "Mon-Fri", "time": "4:15pm"}, {"days": "Sat", "time": "2:00pm"}, {"days": "Sun", "time": "Closed"}], "id": "7625500011", "name": "USPS COLLECTION BOX - BLUE BOX", "address": {"city": "NOCONA", "state": "TX", "street": "400 CLAY ST", "postcode": "76255"}}},
{"geometry": {"type": "Point", "coordinates": [-97.7283787063, 33.7912304107]}, "type": "Feature", "properties": {"collection_times": [{"days": "Mon-Fri", "time": "4:15pm"}, {"days": "Sat", "time": "2:00pm"}, {"days": "Sun", "time": "Closed"}], "id": "7625500012", "name": "USPS COLLECTION BOX - PO LOBBY", "address": {"city": "NOCONA", "state": "TX", "street": "400 CLAY ST", "postcode": "76255"}}},
{"geometry": {"type": "Point", "coordinates": [-97.7283787063, 33.7912304107]}, "type": "Feature", "properties": {"collection_times": [{"days": "Mon-Fri", "time": "4:15pm"}, {"days": "Sat", "time": "2:00pm"}, {"days": "Sun", "time": "Closed"}], "id": "7625500013", "name": "USPS COLLECTION BOX - PO LOBBY", "address": {"city": "NOCONA", "state": "TX", "street": "400 CLAY ST", "postcode": "76255"}}},
{"geometry": {"type": "Point", "coordinates": [-96.9613593269, 33.3997772358]}, "type": "Feature", "properties": {"collection_times": [{"days": "Mon-Fri", "time": "4:15pm"}, {"days": "Sat", "time": "9:30am"}, {"days": "Sun", "time": "Closed"}], "id": "7625800001", "name": "USPS COLLECTION BOX - PO LOBBY", "address": {"city": "PILOT POINT", "state": "TX", "street": "401 N WASHINGTON ST", "postcode": "76258"}}},
{"geometry": {"type": "Point", "coordinates": [-96.9613593269, 33.3997772358]}, "type": "Feature", "properties": {"collection_times": [{"days": "Mon-Fri", "time": "4:15pm"}, {"days": "Sat", "time": "9:30am"}, {"days": "Sun", "time": "Closed"}], "id": "7625800002", "name": "USPS COLLECTION BOX - BLUE BOX", "address": {"city": "PILOT POINT", "state": "TX", "street": "401 N WASHINGTON ST", "postcode": "76258"}}},
{"geometry": {"type": "Point", "coordinates": [-96.9613593269, 33.3997772358]}, "type": "Feature", "properties": {"collection_times": [{"days": "Mon-Fri", "time": "4:15pm"}, {"days": "Sat", "time": "9:30am"}, {"days": "Sun", "time": "Closed"}], "id": "7625800003", "name": "USPS COLLECTION BOX - PO LOBBY", "address": {"city": "PILOT POINT", "state": "TX", "street": "401 N WASHINGTON ST", "postcode": "76258"}}},
{"geometry": {"type": "Point", "coordinates": [-96.9613593269, 33.3997772358]}, "type": "Feature", "properties": {"collection_times": [{"days": "Mon-Fri", "time": "4:15pm"}, {"days": "Sat", "time": "9:30am"}, {"days": "Sun", "time": "Closed"}], "id": "7625800004", "name": "USPS COLLECTION BOX - BLUE BOX", "address": {"city": "PILOT POINT", "state": "TX", "street": "401 N WASHINGTON ST", "postcode": "76258"}}},
{"geometry": {"type": "Point", "coordinates": [-97.2849124402, 33.1829538827]}, "type": "Feature", "properties": {"collection_times": [{"days": "Mon-Fri", "time": "4:15pm"}, {"days": "Sat", "time": "9:30am"}, {"days": "Sun", "time": "Closed"}], "id": "7625900001", "name": "USPS COLLECTION BOX - BLUE BOX", "address": {"city": "PONDER", "state": "TX", "street": "201 W BAILEY ST", "postcode": "76259"}}},
{"geometry": {"type": "Point", "coordinates": [-97.2849124402, 33.1829538827]}, "type": "Feature", "properties": {"collection_times": [{"days": "Mon-Fri", "time": "4:15pm"}, {"days": "Sat", "time": "9:30am"}, {"days": "Sun", "time": "Closed"}], "id": "7625900002", "name": "USPS COLLECTION BOX - PO LOBBY", "address": {"city": "PONDER", "state": "TX", "street": "201 W BAILEY ST", "postcode": "76259"}}},
{"geometry": {"type": "Point", "coordinates": [-97.1900983644, 32.9944409725]}, "type": "Feature", "properties": {"collection_times": [{"days": "Mon-Sat", "time": "10:40am"}, {"days": "Sun", "time": "Closed"}], "id": "7626200005", "name": "USPS COLLECTION BOX - BLUE BOX", "address": {"city": "ROANOKE", "state": "TX", "street": "100 TROPHY CLUB DR", "postcode": "76262"}}},
{"geometry": {"type": "Point", "coordinates": [-97.2215902296, 33.0025669485]}, "type": "Feature", "properties": {"collection_times": [{"days": "Mon-Fri", "time": "5:00pm"}, {"days": "Sat", "time": "11:45am"}, {"days": "Sun", "time": "Closed"}], "id": "7626200008", "name": "USPS COLLECTION BOX - BLUE BOX", "address": {"city": "ROANOKE", "state": "TX", "street": "516 E BYRON NELSON BLVD", "postcode": "76262"}}},
{"geometry": {"type": "Point", "coordinates": [-97.2214611559, 33.0025595234]}, "type": "Feature", "properties": {"collection_times": [{"days": "Mon-Fri", "time": "5:00pm"}, {"days": "Sat", "time": "11:45am"}, {"days": "Sun", "time": "Closed"}], "id": "7626200012", "name": "USPS COLLECTION BOX - BLUE BOX", "address": {"city": "ROANOKE", "state": "TX", "street": "516 E BYRON NELSON BLVD", "postcode": "76262"}}},
{"geometry": {"type": "Point", "coordinates": [-97.2215902296, 33.0025669485]}, "type": "Feature", "properties": {"collection_times": [{"days": "Mon-Fri", "time": "5:00pm"}, {"days": "Sat", "time": "11:45am"}, {"days": "Sun", "time": "Closed"}], "id": "7626200013", "name": "USPS COLLECTION BOX - BLUE BOX", "address": {"city": "ROANOKE", "state": "TX", "street": "516 E BYRON NELSON BLVD", "postcode": "76262"}}},
{"geometry": {"type": "Point", "coordinates": [-97.2215902296, 33.0025669485]}, "type": "Feature", "properties": {"collection_times": [{"days": "Mon-Fri", "time": "5:00pm"}, {"days": "Sat", "time": "11:45am"}, {"days": "Sun", "time": "Closed"}], "id": "7626200018", "name": "USPS COLLECTION BOX - PO LOBBY", "address": {"city": "ROANOKE", "state": "TX", "street": "516 E BYRON NELSON BLVD", "postcode": "76262"}}},
{"geometry": {"type": "Point", "coordinates": [-97.2215902296, 33.0025669485]}, "type": "Feature", "properties": {"collection_times": [{"days": "Mon-Fri", "time": "5:00pm"}, {"days": "Sat", "time": "11:45am"}, {"days": "Sun", "time": "Closed"}], "id": "7626200019", "name": "USPS COLLECTION BOX - PO LOBBY", "address": {"city": "ROANOKE", "state": "TX", "street": "516 E BYRON NELSON BLVD", "postcode": "76262"}}},
{"geometry": {"type": "Point", "coordinates": [-97.2215902296, 33.0025669485]}, "type": "Feature", "properties": {"collection_times": [{"days": "Mon-Fri", "time": "5:00pm"}, {"days": "Sat", "time": "11:45am"}, {"days": "Sun", "time": "Closed"}], "id": "7626200022", "name": "USPS COLLECTION BOX - PO LOBBY", "address": {"city": "ROANOKE", "state": "TX", "street": "516 E BYRON NELSON BLVD", "postcode": "76262"}}},
{"geometry": {"type": "Point", "coordinates": [-96.8480863545, 33.6821075831]}, "type": "Feature", "properties": {"collection_times": [{"days": "Mon-Fri", "time": "2:45pm"}, {"days": "Sat", "time": "10:00am"}, {"days": "Sun", "time": "Closed"}], "id": "7626400001", "name": "USPS COLLECTION BOX - BLUE BOX", "address": {"city": "SADLER", "state": "TX", "street": "102 S MAIN ST", "postcode": "76264"}}},
{"geometry": {"type": "Point", "coordinates": [-96.8480863545, 33.6821075831]}, "type": "Feature", "properties": {"collection_times": [{"days": "Mon-Fri", "time": "2:45pm"}, {"days": "Sat", "time": "10:00am"}, {"days": "Sun", "time": "Closed"}], "id": "7626400003", "name": "USPS COLLECTION BOX - PO LOBBY", "address": {"city": "SADLER", "state": "TX", "street": "102 S MAIN ST", "postcode": "76264"}}},
{"geometry": {"type": "Point", "coordinates": [-97.5224728338, 33.6945614117]}, "type": "Feature", "properties": {"collection_times": [{"days": "Mon-Fri", "time": "4:15pm"}, {"days": "Sat", "time": "9:30am"}, {"days": "Sun", "time": "Closed"}], "id": "7626500001", "name": "USPS COLLECTION BOX - BLUE BOX", "address": {"city": "SAINT JO", "state": "TX", "street": "210 S BROAD ST", "postcode": "76265"}}},
{"geometry": {"type": "Point", "coordinates": [-97.5224728338, 33.6945614117]}, "type": "Feature", "properties": {"collection_times": [{"days": "Mon-Fri", "time": "4:15pm"}, {"days": "Sat", "time": "9:30am"}, {"days": "Sun", "time": "Closed"}], "id": "7626500003", "name": "USPS COLLECTION BOX - PO LOBBY", "address": {"city": "SAINT JO", "state": "TX", "street": "210 S BROAD ST", "postcode": "76265"}}},
{"geometry": {"type": "Point", "coordinates": [-97.1804249422, 33.3653543192]}, "type": "Feature", "properties": {"collection_times": [{"days": "Mon-Sat", "time": "12:00pm"}, {"days": "Sun", "time": "Closed"}], "id": "7626600001", "name": "USPS COLLECTION BOX - BLUE BOX", "address": {"city": "SANGER", "state": "TX", "street": "701 N STEMMONS ST", "postcode": "76266"}}},
{"geometry": {"type": "Point", "coordinates": [-97.1749147925, 33.368416269]}, "type": "Feature", "properties": {"collection_times": [{"days": "Mon-Fri", "time": "4:00pm"}, {"days": "Sat", "time": "9:45am"}, {"days": "Sun", "time": "Closed"}], "id": "7626600002", "name": "USPS COLLECTION BOX - PO LOBBY", "address": {"city": "SANGER", "state": "TX", "street": "1008 N 5TH ST", "postcode": "76266"}}},
{"geometry": {"type": "Point", "coordinates": [-97.1749147925, 33.368416269]}, "type": "Feature", "properties": {"collection_times": [{"days": "Mon-Fri", "time": "4:00pm"}, {"days": "Sat", "time": "9:45am"}, {"days": "Sun", "time": "Closed"}], "id": "7626600003", "name": "USPS COLLECTION BOX - BLUE BOX", "address": {"city": "SANGER", "state": "TX", "street": "1008 N 5TH ST", "postcode": "76266"}}},
{"geometry": {"type": "Point", "coordinates": [-97.1749147925, 33.368416269]}, "type": "Feature", "properties": {"collection_times": [{"days": "Mon-Fri", "time": "4:00pm"}, {"days": "Sat", "time": "9:45am"}, {"days": "Sun", "time": "Closed"}], "id": "7626600004", "name": "USPS COLLECTION BOX - PO LOBBY", "address": {"city": "SANGER", "state": "TX", "street": "1008 N 5TH ST", "postcode": "76266"}}},
{"geometry": {"type": "Point", "coordinates": [-97.3898192262, 33.3614180272]}, "type": "Feature", "properties": {"collection_times": [{"days": "Mon-Fri", "time": "3:30pm"}, {"days": "Sat", "time": "10:00am"}, {"days": "Sun", "time": "Closed"}], "id": "7626700001", "name": "USPS COLLECTION BOX - BLUE BOX", "address": {"city": "SLIDELL", "state": "TX", "street": "112 COUNTY ROAD 2820", "postcode": "76267"}}},
{"geometry": {"type": "Point", "coordinates": [-97.3898192262, 33.3614180272]}, "type": "Feature", "properties": {"collection_times": [{"days": "Mon-Fri", "time": "3:30pm"}, {"days": "Sat", "time": "10:00am"}, {"days": "Sun", "time": "Closed"}], "id": "7626700002", "name": "USPS COLLECTION BOX - PO LOBBY", "address": {"city": "SLIDELL", "state": "TX", "street": "112 COUNTY ROAD 2820", "postcode": "76267"}}},
{"geometry": {"type": "Point", "coordinates": [-96.7610491616, 33.6241755686]}, "type": "Feature", "properties": {"collection_times": [{"days": "Mon-Fri", "time": "4:15pm"}, {"days": "Sat", "time": "10:00am"}, {"days": "Sun", "time": "Closed"}], "id": "7626800001", "name": "USPS COLLECTION BOX - BLUE BOX", "address": {"city": "SOUTHMAYD", "state": "TX", "street": "102 CHRISTI LN", "postcode": "76268"}}},
{"geometry": {"type": "Point", "coordinates": [-96.7610491616, 33.6241755686]}, "type": "Feature", "properties": {"collection_times": [{"days": "Mon-Fri", "time": "4:15pm"}, {"days": "Sat", "time": "10:00am"}, {"days": "Sun", "time": "Closed"}], "id": "7626800002", "name": "USPS COLLECTION BOX - PO LOBBY", "address": {"city": "SOUTHMAYD", "state": "TX", "street": "102 CHRISTI LN", "postcode": "76268"}}},
{"geometry": {"type": "Point", "coordinates": [-97.7853217294, 33.4297918851]}, "type": "Feature", "properties": {"collection_times": [{"days": "Mon-Fri", "time": "3:45pm"}, {"days": "Sat", "time": "8:00am"}, {"days": "Sun", "time": "Closed"}], "id": "7627000001", "name": "USPS COLLECTION BOX - BLUE BOX", "address": {"city": "SUNSET", "state": "TX", "street": "107 HIGHWAY 101 W", "postcode": "76270"}}},
{"geometry": {"type": "Point", "coordinates": [-97.7853217294, 33.4297918851]}, "type": "Feature", "properties": {"collection_times": [{"days": "Mon-Fri", "time": "3:45pm"}, {"days": "Sat", "time": "8:00am"}, {"days": "Sun", "time": "Closed"}], "id": "7627000002", "name": "USPS COLLECTION BOX - PO LOBBY", "address": {"city": "SUNSET", "state": "TX", "street": "107 HIGHWAY 101 W", "postcode": "76270"}}},
{"geometry": {"type": "Point", "coordinates": [-96.9190553467, 33.4684773172]}, "type": "Feature", "properties": {"collection_times": [{"days": "Mon-Fri", "time": "4:00pm"}, {"days": "Sat", "time": "9:00am"}, {"days": "Sun", "time": "Closed"}], "id": "7627100001", "name": "USPS COLLECTION BOX - BLUE BOX", "address": {"city": "TIOGA", "state": "TX", "street": "301 N RAY ROBERTS PKWY", "postcode": "76271"}}},
{"geometry": {"type": "Point", "coordinates": [-96.9190553467, 33.4684773172]}, "type": "Feature", "properties": {"collection_times": [{"days": "Mon-Fri", "time": "4:00pm"}, {"days": "Sat", "time": "9:00am"}, {"days": "Sun", "time": "Closed"}], "id": "7627100003", "name": "USPS COLLECTION BOX - PO LOBBY", "address": {"city": "TIOGA", "state": "TX", "street": "301 N RAY ROBERTS PKWY", "postcode": "76271"}}},
{"geometry": {"type": "Point", "coordinates": [-97.1636942715, 33.4961115678]}, "type": "Feature", "properties": {"collection_times": [{"days": "Mon-Fri", "time": "4:00pm"}, {"days": "Sat", "time": "10:00am"}, {"days": "Sun", "time": "Closed"}], "id": "7627200001", "name": "USPS COLLECTION BOX - BLUE BOX", "address": {"city": "VALLEY VIEW", "state": "TX", "street": "409 N FRONTAGE RD", "postcode": "76272"}}},
{"geometry": {"type": "Point", "coordinates": [-97.1636942715, 33.4961115678]}, "type": "Feature", "properties": {"collection_times": [{"days": "Mon-Fri", "time": "4:00pm"}, {"days": "Sat", "time": "10:00am"}, {"days": "Sun", "time": "Closed"}], "id": "7627200002", "name": "USPS COLLECTION BOX - PO LOBBY", "address": {"city": "VALLEY VIEW", "state": "TX", "street": "409 N FRONTAGE RD", "postcode": "76272"}}},
{"geometry": {"type": "Point", "coordinates": [-97.1636942715, 33.4961115678]}, "type": "Feature", "properties": {"collection_times": [{"days": "Mon-Fri", "time": "4:00pm"}, {"days": "Sat", "time": "10:00am"}, {"days": "Sun", "time": "Closed"}], "id": "7627200005", "name": "USPS COLLECTION BOX - PO LOBBY", "address": {"city": "VALLEY VIEW", "state": "TX", "street": "409 N FRONTAGE RD", "postcode": "76272"}}},
{"geometry": {"type": "Point", "coordinates": [-96.8966425497, 33.6744124991]}, "type": "Feature", "properties": {"collection_times": [{"days": "Mon-Fri", "time": "11:30am"}, {"days": "Sat", "time": "10:45am"}, {"days": "Sun", "time": "Closed"}], "id": "7627300006", "name": "USPS COLLECTION BOX - BLUE BOX", "address": {"city": "WHITESBORO", "state": "TX", "street": "2535 HIGHWAY 82 E", "postcode": "76273"}}},
{"geometry": {"type": "Point", "coordinates": [-96.9069788569, 33.6557518252]}, "type": "Feature", "properties": {"collection_times": [{"days": "Mon-Fri", "time": "4:30pm"}, {"days": "Sat", "time": "12:00pm"}, {"days": "Sun", "time": "Closed"}], "id": "7627300007", "name": "USPS COLLECTION BOX - BLUE BOX", "address": {"city": "WHITESBORO", "state": "TX", "street": "110 W MAIN ST", "postcode": "76273"}}},
{"geometry": {"type": "Point", "coordinates": [-96.9069788569, 33.6557518252]}, "type": "Feature", "properties": {"collection_times": [{"days": "Mon-Fri", "time": "4:30pm"}, {"days": "Sat", "time": "12:00pm"}, {"days": "Sun", "time": "Closed"}], "id": "7627300008", "name": "USPS COLLECTION BOX - BLUE BOX", "address": {"city": "WHITESBORO", "state": "TX", "street": "110 W MAIN ST", "postcode": "76273"}}},
{"geometry": {"type": "Point", "coordinates": [-96.9069788569, 33.6557518252]}, "type": "Feature", "properties": {"collection_times": [{"days": "Mon-Fri", "time": "4:30pm"}, {"days": "Sat", "time": "12:00pm"}, {"days": "Sun", "time": "Closed"}], "id": "7627300009", "name": "USPS COLLECTION BOX - PO LOBBY", "address": {"city": "WHITESBORO", "state": "TX", "street": "110 W MAIN ST", "postcode": "76273"}}},
{"geometry": {"type": "Point", "coordinates": [-96.9069788569, 33.6557518252]}, "type": "Feature", "properties": {"collection_times": [{"days": "Mon-Fri", "time": "4:30pm"}, {"days": "Sat", "time": "12:00pm"}, {"days": "Sun", "time": "Closed"}], "id": "7627300010", "name": "USPS COLLECTION BOX - PO LOBBY", "address": {"city": "WHITESBORO", "state": "TX", "street": "110 W MAIN ST", "postcode": "76273"}}}
]}
