{"type": "FeatureCollection", "features": [
{"geometry": {"type": "Point", "coordinates": [-98.4985186892, 33.9098306118]}, "type": "Feature", "properties": {"collection_times": [{"days": "Mon-Fri", "time": "3:45pm"}, {"days": "Sat-Sun", "time": "Closed"}], "id": "7630100000", "name": "USPS COLLECTION BOX - BLUE BOX", "address": {"city": "WICHITA FALLS", "state": "TX", "street": "1300 7TH ST", "postcode": "76301"}}},
{"geometry": {"type": "Point", "coordinates": [-98.5297843344, 33.9084915767]}, "type": "Feature", "properties": {"collection_times": [{"days": "Mon-Fri", "time": "5:30pm"}, {"days": "Sat", "time": "2:45pm"}, {"days": "Sun", "time": "Closed"}], "id": "7630100026", "name": "USPS COLLECTION BOX - PO LOBBY", "address": {"city": "WICHITA FALLS", "state": "TX", "street": "3107 5TH ST", "postcode": "76301"}}},
{"geometry": {"type": "Point", "coordinates": [-98.5297843344, 33.9084915767]}, "type": "Feature", "properties": {"collection_times": [{"days": "Mon-Fri", "time": "5:30pm"}, {"days": "Sat", "time": "2:45pm"}, {"days": "Sun", "time": "Closed"}], "id": "7630100027", "name": "USPS COLLECTION BOX - PO LOBBY", "address": {"city": "WICHITA FALLS", "state": "TX", "street": "3107 5TH ST", "postcode": "76301"}}},
{"geometry": {"type": "Point", "coordinates": [-98.5297843344, 33.9084915767]}, "type": "Feature", "properties": {"collection_times": [{"days": "Mon-Fri", "time": "4:45pm"}, {"days": "Sat", "time": "2:45pm"}, {"days": "Sun", "time": "Closed"}], "id": "7630100029", "name": "USPS COLLECTION BOX - BLUE BOX", "address": {"city": "WICHITA FALLS", "state": "TX", "street": "3107 5TH ST", "postcode": "76301"}}},
{"geometry": {"type": "Point", "coordinates": [-98.4940771451, 33.9123293081]}, "type": "Feature", "properties": {"collection_times": [{"days": "Mon-Fri", "time": "3:45pm"}, {"days": "Sat-Sun", "time": "Closed"}], "id": "7630100039", "name": "USPS COLLECTION BOX - BLUE BOX", "address": {"city": "WICHITA FALLS", "state": "TX", "street": "900 7TH ST", "postcode": "76301"}}},
{"geometry": {"type": "Point", "coordinates": [-98.4936747701, 33.9138750283]}, "type": "Feature", "properties": {"collection_times": [{"days": "Mon-Fri", "time": "4:00pm"}, {"days": "Sat-Sun", "time": "Closed"}], "id": "7630100042", "name": "USPS COLLECTION BOX - BLUE BOX", "address": {"city": "WICHITA FALLS", "state": "TX", "street": "600 SCOTT AVE", "postcode": "76301"}}},
{"geometry": {"type": "Point", "coordinates": [-98.4961539408, 33.9009857141]}, "type": "Feature", "properties": {"collection_times": [{"days": "Mon-Fri", "time": "3:45pm"}, {"days": "Sat", "time": "1:45pm"}, {"days": "Sun", "time": "Closed"}], "id": "7630100049", "name": "USPS COLLECTION BOX - BLUE BOX", "address": {"city": "WICHITA FALLS", "state": "TX", "street": "1401 HOLLIDAY ST", "postcode": "76301"}}},
{"geometry": {"type": "Point", "coordinates": [-98.4907479439, 33.9054633065]}, "type": "Feature", "properties": {"collection_times": [{"days": "Mon-Fri", "time": "4:45pm"}, {"days": "Sat", "time": "1:45pm"}, {"days": "Sun", "time": "Closed"}], "id": "7630100060", "name": "USPS COLLECTION BOX - EXPRESS", "address": {"city": "WICHITA FALLS", "state": "TX", "street": "1000 LAMAR ST", "postcode": "76301"}}},
{"geometry": {"type": "Point", "coordinates": [-98.4916306484, 33.9092834596]}, "type": "Feature", "properties": {"collection_times": [{"days": "Mon-Fri", "time": "4:45pm"}, {"days": "Sat", "time": "1:45pm"}, {"days": "Sun", "time": "Closed"}], "id": "7630100061", "name": "USPS COLLECTION BOX - PO LOBBY", "address": {"city": "WICHITA FALLS", "state": "TX", "street": "1000 LAMAR ST", "postcode": "76301"}}},
{"geometry": {"type": "Point", "coordinates": [-98.4916306484, 33.9092834596]}, "type": "Feature", "properties": {"collection_times": [{"days": "Mon-Fri", "time": "4:45pm"}, {"days": "Sat", "time": "1:45pm"}, {"days": "Sun", "time": "Closed"}], "id": "7630100064", "name": "USPS COLLECTION BOX - BLUE BOX", "address": {"city": "WICHITA FALLS", "state": "TX", "street": "1000 LAMAR ST", "postcode": "76301"}}},
{"geometry": {"type": "Point", "coordinates": [-98.5063473464, 33.9038356847]}, "type": "Feature", "properties": {"collection_times": [{"days": "Mon-Fri", "time": "3:30pm"}, {"days": "Sat", "time": "1:30pm"}, {"days": "Sun", "time": "Closed"}], "id": "7630100068", "name": "USPS COLLECTION BOX - BLUE BOX", "address": {"city": "WICHITA FALLS", "state": "TX", "street": "1818 9TH ST", "postcode": "76301"}}},
{"geometry": {"type": "Point", "coordinates": [-98.5297843344, 33.9084915767]}, "type": "Feature", "properties": {"collection_times": [{"days": "Mon-Fri", "time": "5:30pm"}, {"days": "Sat", "time": "2:45pm"}, {"days": "Sun", "time": "Closed"}], "id": "7630100078", "name": "USPS COLLECTION BOX - PO LOBBY", "address": {"city": "WICHITA FALLS", "state": "TX", "street": "3107 5TH ST", "postcode": "76301"}}},
{"geometry": {"type": "Point", "coordinates": [-98.4899990121, 33.9116439057]}, "type": "Feature", "properties": {"collection_times": [{"days": "Mon-Fri", "time": "4:30pm"}, {"days": "Sat-Sun", "time": "Closed"}], "id": "7630100080", "name": "USPS COLLECTION BOX - BLUE BOX", "address": {"city": "WICHITA FALLS", "state": "TX", "street": "901 INDIANA AVE", "postcode": "76301"}}},
{"geometry": {"type": "Point", "coordinates": [-98.4909569925, 33.9125785391]}, "type": "Feature", "properties": {"collection_times": [{"days": "Mon-Fri", "time": "12:00pm"}, {"days": "Sat-Sun", "time": "Closed"}], "id": "7630100082", "name": "USPS COLLECTION BOX - BLUE BOX", "address": {"city": "WICHITA FALLS", "state": "TX", "street": "705 8TH ST", "postcode": "76301"}}},
{"geometry": {"type": "Point", "coordinates": [-98.4926194349, 33.9127994901]}, "type": "Feature", "properties": {"collection_times": [{"days": "Mon-Fri", "time": "12:15pm"}, {"days": "Sat-Sun", "time": "Closed"}], "id": "7630100083", "name": "USPS COLLECTION BOX - BLUE BOX", "address": {"city": "WICHITA FALLS", "state": "TX", "street": "719 SCOTT AVE", "postcode": "76301"}}},
{"geometry": {"type": "Point", "coordinates": [-98.4985186892, 33.9098306118]}, "type": "Feature", "properties": {"collection_times": [{"days": "Mon-Fri", "time": "3:45pm"}, {"days": "Sat-Sun", "time": "Closed"}], "id": "7630100086", "name": "USPS COLLECTION BOX - BLUE BOX", "address": {"city": "WICHITA FALLS", "state": "TX", "street": "1300 7TH ST", "postcode": "76301"}}},
{"geometry": {"type": "Point", "coordinates": [-98.5063473464, 33.9038356847]}, "type": "Feature", "properties": {"collection_times": [{"days": "Mon-Fri", "time": "3:30pm"}, {"days": "Sat", "time": "1:30pm"}, {"days": "Sun", "time": "Closed"}], "id": "7630100087", "name": "USPS COLLECTION BOX - BLUE BOX", "address": {"city": "WICHITA FALLS", "state": "TX", "street": "1818 9TH ST", "postcode": "76301"}}},
{"geometry": {"type": "Point", "coordinates": [-98.4907479439, 33.9054633065]}, "type": "Feature", "properties": {"collection_times": [{"days": "Mon-Fri", "time": "4:45pm"}, {"days": "Sat", "time": "2:45pm"}, {"days": "Sun", "time": "Closed"}], "id": "7630100088", "name": "USPS COLLECTION BOX - EXPRESS", "address": {"city": "WICHITA FALLS", "state": "TX", "street": "3107 5TH ST", "postcode": "76301"}}},
{"geometry": {"type": "Point", "coordinates": [-98.4813336024, 33.876157886]}, "type": "Feature", "properties": {"collection_times": [{"days": "Mon-Fri", "time": "4:30pm"}, {"days": "Sat-Sun", "time": "Closed"}], "id": "7630200003", "name": "USPS COLLECTION BOX - BLUE BOX", "address": {"city": "WICHITA FALLS", "state": "TX", "street": "900 MIDWESTERN PKWY", "postcode": "76302"}}},
{"geometry": {"type": "Point", "coordinates": [-98.4943328017, 33.8686843708]}, "type": "Feature", "properties": {"collection_times": [{"days": "Mon-Fri", "time": "5:30pm"}, {"days": "Sat", "time": "3:15pm"}, {"days": "Sun", "time": "Closed"}], "id": "7630200015", "name": "USPS COLLECTION BOX - BLUE BOX", "address": {"city": "WICHITA FALLS", "state": "TX", "street": "4309 OLD JACKSBORO HWY", "postcode": "76302"}}},
{"geometry": {"type": "Point", "coordinates": [-98.4964725576, 33.8772996198]}, "type": "Feature", "properties": {"collection_times": [{"days": "Mon-Fri", "time": "4:30pm"}, {"days": "Sat", "time": "1:45pm"}, {"days": "Sun", "time": "Closed"}], "id": "7630200025", "name": "USPS COLLECTION BOX - BLUE BOX", "address": {"city": "WICHITA FALLS", "state": "TX", "street": "1600 MIDWESTERN PKWY", "postcode": "76302"}}},
{"geometry": {"type": "Point", "coordinates": [-98.4944813786, 33.8663946921]}, "type": "Feature", "properties": {"collection_times": [{"days": "Mon-Fri", "time": "5:30pm"}, {"days": "Sat", "time": "3:15pm"}, {"days": "Sun", "time": "Closed"}], "id": "7630200026", "name": "USPS COLLECTION BOX - BLUE BOX", "address": {"city": "WICHITA FALLS", "state": "TX", "street": "4502 OLD JACKSBORO HWY", "postcode": "76302"}}},
{"geometry": {"type": "Point", "coordinates": [-98.4670157991, 34.0170051724]}, "type": "Feature", "properties": {"collection_times": [{"days": "Mon-Sat", "time": "12:00pm"}, {"days": "Sun", "time": "Closed"}], "id": "7630500000", "name": "USPS COLLECTION BOX - BLUE BOX", "address": {"city": "WICHITA FALLS", "state": "TX", "street": "3392 HWY 287 N ACCESS RD S", "postcode": "76305"}}},
{"geometry": {"type": "Point", "coordinates": [-98.5137999145, 33.9648978706]}, "type": "Feature", "properties": {"collection_times": [{"days": "Mon-Fri", "time": "4:15pm"}, {"days": "Sat", "time": "2:30pm"}, {"days": "Sun", "time": "Closed"}], "id": "7630600002", "name": "USPS COLLECTION BOX - BLUE BOX", "address": {"city": "WICHITA FALLS", "state": "TX", "street": "4049 BURKBURNETT RD", "postcode": "76306"}}},
{"geometry": {"type": "Point", "coordinates": [-98.5237400255, 33.9287191645]}, "type": "Feature", "properties": {"collection_times": [{"days": "Mon-Fri", "time": "4:00pm"}, {"days": "Sat", "time": "2:00pm"}, {"days": "Sun", "time": "Closed"}], "id": "7630600003", "name": "USPS COLLECTION BOX - BLUE BOX", "address": {"city": "WICHITA FALLS", "state": "TX", "street": "2712 OLD IOWA PARK RD", "postcode": "76306"}}},
{"geometry": {"type": "Point", "coordinates": [-98.532698972, 33.865580501]}, "type": "Feature", "properties": {"collection_times": [{"days": "Mon-Fri", "time": "4:30pm"}, {"days": "Sat", "time": "2:15pm"}, {"days": "Sun", "time": "Closed"}], "id": "7630800001", "name": "USPS COLLECTION BOX - BLUE BOX", "address": {"city": "WICHITA FALLS", "state": "TX", "street": "4106 CALL FIELD RD", "postcode": "76308"}}},
{"geometry": {"type": "Point", "coordinates": [-98.5157781635, 33.8889751458]}, "type": "Feature", "properties": {"collection_times": [{"days": "Mon-Fri", "time": "4:00pm"}, {"days": "Sat", "time": "2:45pm"}, {"days": "Sun", "time": "Closed"}], "id": "7630800011", "name": "USPS COLLECTION BOX - BLUE BOX", "address": {"city": "WICHITA FALLS", "state": "TX", "street": "2301 KELL BLVD", "postcode": "76308"}}},
{"geometry": {"type": "Point", "coordinates": [-98.5203073648, 33.8874809523]}, "type": "Feature", "properties": {"collection_times": [{"days": "Mon-Sat", "time": "9:00am"}, {"days": "Sun", "time": "Closed"}], "id": "7630800013", "name": "USPS COLLECTION BOX - BLUE BOX", "address": {"city": "WICHITA FALLS", "state": "TX", "street": "2525 KELL BLVD", "postcode": "76308"}}},
{"geometry": {"type": "Point", "coordinates": [-98.5358168509, 33.8662832309]}, "type": "Feature", "properties": {"collection_times": [{"days": "Mon-Fri", "time": "4:45pm"}, {"days": "Sat", "time": "2:15pm"}, {"days": "Sun", "time": "Closed"}], "id": "7630800016", "name": "USPS COLLECTION BOX - BLUE BOX", "address": {"city": "WICHITA FALLS", "state": "TX", "street": "4245 KEMP BLVD", "postcode": "76308"}}},
{"geometry": {"type": "Point", "coordinates": [-98.5167511953, 33.8702750793]}, "type": "Feature", "properties": {"collection_times": [{"days": "Mon-Fri", "time": "4:45pm"}, {"days": "Sat", "time": "2:00pm"}, {"days": "Sun", "time": "Closed"}], "id": "7630800027", "name": "USPS COLLECTION BOX - BLUE BOX", "address": {"city": "WICHITA FALLS", "state": "TX", "street": "2303 MIDWESTERN PKWY", "postcode": "76308"}}},
{"geometry": {"type": "Point", "coordinates": [-98.5283427598, 33.866445233]}, "type": "Feature", "properties": {"collection_times": [{"days": "Mon-Fri", "time": "4:45pm"}, {"days": "Sat", "time": "2:00pm"}, {"days": "Sun", "time": "Closed"}], "id": "7630800030", "name": "USPS COLLECTION BOX - BLUE BOX", "address": {"city": "WICHITA FALLS", "state": "TX", "street": "2617 PLAZA PKWY", "postcode": "76308"}}},
{"geometry": {"type": "Point", "coordinates": [-98.5321498621, 33.8579328779]}, "type": "Feature", "properties": {"collection_times": [{"days": "Mon-Fri", "time": "4:00pm"}, {"days": "Sat", "time": "2:00pm"}, {"days": "Sun", "time": "Closed"}], "id": "7630800035", "name": "USPS COLLECTION BOX - BLUE BOX", "address": {"city": "WICHITA FALLS", "state": "TX", "street": "2720 SOUTHWEST PKWY", "postcode": "76308"}}},
{"geometry": {"type": "Point", "coordinates": [-98.5185092613, 33.8777642825]}, "type": "Feature", "properties": {"collection_times": [{"days": "Mon-Fri", "time": "4:00pm"}, {"days": "Sat-Sun", "time": "Closed"}], "id": "7630800045", "name": "USPS COLLECTION BOX - BLUE BOX", "address": {"city": "WICHITA FALLS", "state": "TX", "street": "3400 TAFT BLVD", "postcode": "76308"}}},
{"geometry": {"type": "Point", "coordinates": [-98.5472378774, 33.8577151988]}, "type": "Feature", "properties": {"collection_times": [{"days": "Mon-Fri", "time": "5:15pm"}, {"days": "Sat", "time": "3:00pm"}, {"days": "Sun", "time": "Closed"}], "id": "7630800054", "name": "USPS COLLECTION BOX - PO LOBBY", "address": {"city": "WICHITA FALLS", "state": "TX", "street": "4001 SOUTHWEST PKWY", "postcode": "76308"}}},
{"geometry": {"type": "Point", "coordinates": [-98.5472378774, 33.8577151988]}, "type": "Feature", "properties": {"collection_times": [{"days": "Mon-Fri", "time": "5:15pm"}, {"days": "Sat", "time": "3:00pm"}, {"days": "Sun", "time": "Closed"}], "id": "7630800055", "name": "USPS COLLECTION BOX - PO LOBBY", "address": {"city": "WICHITA FALLS", "state": "TX", "street": "4001 SOUTHWEST PKWY", "postcode": "76308"}}},
{"geometry": {"type": "Point", "coordinates": [-98.532698972, 33.865580501]}, "type": "Feature", "properties": {"collection_times": [{"days": "Mon-Fri", "time": "5:00pm"}, {"days": "Sat", "time": "3:00pm"}, {"days": "Sun", "time": "Closed"}], "id": "7630800056", "name": "USPS COLLECTION BOX - EXPRESS", "address": {"city": "WICHITA FALLS", "state": "TX", "street": "4001 SOUTHWEST PKWY", "postcode": "76308"}}},
{"geometry": {"type": "Point", "coordinates": [-98.5472378774, 33.8577151988]}, "type": "Feature", "properties": {"collection_times": [{"days": "Mon-Fri", "time": "5:00pm"}, {"days": "Sat", "time": "3:00pm"}, {"days": "Sun", "time": "Closed"}], "id": "7630800057", "name": "USPS COLLECTION BOX - BLUE BOX", "address": {"city": "WICHITA FALLS", "state": "TX", "street": "4001 SOUTHWEST PKWY", "postcode": "76308"}}},
{"geometry": {"type": "Point", "coordinates": [-98.5472378774, 33.8577151988]}, "type": "Feature", "properties": {"collection_times": [{"days": "Mon-Fri", "time": "5:15pm"}, {"days": "Sat", "time": "3:00pm"}, {"days": "Sun", "time": "Closed"}], "id": "7630800059", "name": "USPS COLLECTION BOX - PO LOBBY", "address": {"city": "WICHITA FALLS", "state": "TX", "street": "4001 SOUTHWEST PKWY", "postcode": "76308"}}},
{"geometry": {"type": "Point", "coordinates": [-98.5236316444, 33.8863878184]}, "type": "Feature", "properties": {"collection_times": [{"days": "Mon-Fri", "time": "4:45pm"}, {"days": "Sat", "time": "2:30pm"}, {"days": "Sun", "time": "Closed"}], "id": "7630800064", "name": "USPS COLLECTION BOX - BLUE BOX", "address": {"city": "WICHITA FALLS", "state": "TX", "street": "2701 KELL BLVD", "postcode": "76308"}}},
{"geometry": {"type": "Point", "coordinates": [-98.5321498621, 33.8579328779]}, "type": "Feature", "properties": {"collection_times": [{"days": "Mon-Fri", "time": "4:00pm"}, {"days": "Sat", "time": "2:00pm"}, {"days": "Sun", "time": "Closed"}], "id": "7630800065", "name": "USPS COLLECTION BOX - BLUE BOX", "address": {"city": "WICHITA FALLS", "state": "TX", "street": "2720 SOUTHWEST PKWY", "postcode": "76308"}}},
{"geometry": {"type": "Point", "coordinates": [-98.5157781635, 33.8889751458]}, "type": "Feature", "properties": {"collection_times": [{"days": "Mon-Fri", "time": "4:00pm"}, {"days": "Sat", "time": "2:45pm"}, {"days": "Sun", "time": "Closed"}], "id": "7630800066", "name": "USPS COLLECTION BOX - BLUE BOX", "address": {"city": "WICHITA FALLS", "state": "TX", "street": "2301 KELL BLVD", "postcode": "76308"}}},
{"geometry": {"type": "Point", "coordinates": [-98.5212540403, 33.8570261185]}, "type": "Feature", "properties": {"collection_times": [{"days": "Mon-Fri", "time": "4:45pm"}, {"days": "Sat", "time": "1:45pm"}, {"days": "Sun", "time": "Closed"}], "id": "7630800067", "name": "USPS COLLECTION BOX - BLUE BOX", "address": {"city": "WICHITA FALLS", "state": "TX", "street": "2215 SOUTHWEST PKWY", "postcode": "76308"}}},
{"geometry": {"type": "Point", "coordinates": [-98.532698972, 33.865580501]}, "type": "Feature", "properties": {"collection_times": [{"days": "Mon-Fri", "time": "4:30pm"}, {"days": "Sat", "time": "2:15pm"}, {"days": "Sun", "time": "Closed"}], "id": "7630800068", "name": "USPS COLLECTION BOX - BLUE BOX", "address": {"city": "WICHITA FALLS", "state": "TX", "street": "4106 CALL FIELD RD", "postcode": "76308"}}},
{"geometry": {"type": "Point", "coordinates": [-98.5472378774, 33.8577151988]}, "type": "Feature", "properties": {"collection_times": [{"days": "Mon-Fri", "time": "5:15pm"}, {"days": "Sat", "time": "3:00pm"}, {"days": "Sun", "time": "Closed"}], "id": "7630800069", "name": "USPS COLLECTION BOX - APC", "address": {"city": "WICHITA FALLS", "state": "TX", "street": "4001 SOUTHWEST PKWY", "postcode": "76308"}}},
{"geometry": {"type": "Point", "coordinates": [-98.5539112811, 33.8775296276]}, "type": "Feature", "properties": {"collection_times": [{"days": "Mon-Fri", "time": "3:45pm"}, {"days": "Sat", "time": "2:00pm"}, {"days": "Sun", "time": "Closed"}], "id": "7630900011", "name": "USPS COLLECTION BOX - BLUE BOX", "address": {"city": "WICHITA FALLS", "state": "TX", "street": "4202 KELL BLVD", "postcode": "76309"}}},
{"geometry": {"type": "Point", "coordinates": [-98.5609975587, 33.8670724772]}, "type": "Feature", "properties": {"collection_times": [{"days": "Mon-Fri", "time": "4:30pm"}, {"days": "Sat", "time": "2:15pm"}, {"days": "Sun", "time": "Closed"}], "id": "7631000003", "name": "USPS COLLECTION BOX - BLUE BOX", "address": {"city": "WICHITA FALLS", "state": "TX", "street": "3801 FAIRWAY BLVD", "postcode": "76310"}}},
{"geometry": {"type": "Point", "coordinates": [-98.5614392955, 33.8579436325]}, "type": "Feature", "properties": {"collection_times": [{"days": "Mon-Fri", "time": "4:30pm"}, {"days": "Sat-Sun", "time": "Closed"}], "id": "7631000005", "name": "USPS COLLECTION BOX - BLUE BOX", "address": {"city": "WICHITA FALLS", "state": "TX", "street": "4609 SOUTHWEST PKWY", "postcode": "76310"}}},
{"geometry": {"type": "Point", "coordinates": [-98.5777918932, 33.8675986519]}, "type": "Feature", "properties": {"collection_times": [{"days": "Mon-Fri", "time": "4:30pm"}, {"days": "Sat", "time": "2:30pm"}, {"days": "Sun", "time": "Closed"}], "id": "7631000006", "name": "USPS COLLECTION BOX - BLUE BOX", "address": {"city": "WICHITA FALLS", "state": "TX", "street": "4301 BARNETT RD", "postcode": "76310"}}},
{"geometry": {"type": "Point", "coordinates": [-98.4100046684, 33.7912989237]}, "type": "Feature", "properties": {"collection_times": [{"days": "Mon-Sat", "time": "11:00am"}, {"days": "Sun", "time": "Closed"}], "id": "7631000007", "name": "USPS COLLECTION BOX - BLUE BOX", "address": {"city": "WICHITA FALLS", "state": "TX", "street": "6138 FM 1954", "postcode": "76310"}}},
{"geometry": {"type": "Point", "coordinates": [-98.566238017, 33.794097376]}, "type": "Feature", "properties": {"collection_times": [{"days": "Mon-Sat", "time": "2:00pm"}, {"days": "Sun", "time": "Closed"}], "id": "7631000008", "name": "USPS COLLECTION BOX - BLUE BOX", "address": {"city": "WICHITA FALLS", "state": "TX", "street": "4250 STATE HIGHWAY 79 S", "postcode": "76310"}}},
{"geometry": {"type": "Point", "coordinates": [-98.5120297809, 33.9694435125]}, "type": "Feature", "properties": {"collection_times": [{"days": "Mon-Fri", "time": "4:30pm"}, {"days": "Sat", "time": "2:15pm"}, {"days": "Sun", "time": "Closed"}], "id": "7631100000", "name": "USPS COLLECTION BOX - BLUE BOX", "address": {"city": "WICHITA FALLS", "state": "TX", "street": "220 COMMUNITY CENTER DR", "postcode": "76311"}}},
{"geometry": {"type": "Point", "coordinates": [-98.5051479451, 33.9657716191]}, "type": "Feature", "properties": {"collection_times": [{"days": "Mon-Fri", "time": "4:30pm"}, {"days": "Sat", "time": "2:15pm"}, {"days": "Sun", "time": "Closed"}], "id": "7631100002", "name": "USPS COLLECTION BOX - PO LOBBY", "address": {"city": "WICHITA FALLS", "state": "TX", "street": "527 I AVE", "postcode": "76311"}}},
{"geometry": {"type": "Point", "coordinates": [-98.5120297809, 33.9694435125]}, "type": "Feature", "properties": {"collection_times": [{"days": "Mon-Fri", "time": "4:30pm"}, {"days": "Sat", "time": "2:15pm"}, {"days": "Sun", "time": "Closed"}], "id": "7631100003", "name": "USPS COLLECTION BOX - BLUE BOX", "address": {"city": "WICHITA FALLS", "state": "TX", "street": "527 I AVE", "postcode": "76311"}}},
{"geometry": {"type": "Point", "coordinates": [-98.5120297809, 33.9694435125]}, "type": "Feature", "properties": {"collection_times": [{"days": "Mon-Sat", "time": "8:30am"}, {"days": "Sun", "time": "Closed"}], "id": "7631100004", "name": "USPS COLLECTION BOX - BLUE BOX", "address": {"city": "WICHITA FALLS", "state": "TX", "street": "776 H AVE", "postcode": "76311"}}},
{"geometry": {"type": "Point", "coordinates": [-98.5120297809, 33.9694435125]}, "type": "Feature", "properties": {"collection_times": [{"days": "Mon-Fri", "time": "4:30pm"}, {"days": "Sat", "time": "2:15pm"}, {"days": "Sun", "time": "Closed"}], "id": "7631100009", "name": "USPS COLLECTION BOX - BLUE BOX", "address": {"city": "WICHITA FALLS", "state": "TX", "street": "419 G AVE", "postcode": "76311"}}},
{"geometry": {"type": "Point", "coordinates": [-98.624434043, 33.6016934034]}, "type": "Feature", "properties": {"collection_times": [{"days": "Mon-Fri", "time": "4:15pm"}, {"days": "Sat", "time": "9:30am"}, {"days": "Sun", "time": "Closed"}], "id": "7635100001", "name": "USPS COLLECTION BOX - BLUE BOX", "address": {"city": "ARCHER CITY", "state": "TX", "street": "500 N CENTER", "postcode": "76351"}}},
{"geometry": {"type": "Point", "coordinates": [-98.624434043, 33.6016934034]}, "type": "Feature", "properties": {"collection_times": [{"days": "Mon-Fri", "time": "4:15pm"}, {"days": "Sat-Sun", "time": "Closed"}], "id": "7635100002", "name": "USPS COLLECTION BOX - PO LOBBY", "address": {"city": "ARCHER CITY", "state": "TX", "street": "500 N CENTER", "postcode": "76351"}}},
{"geometry": {"type": "Point", "coordinates": [-98.2301510466, 33.6742208971]}, "type": "Feature", "properties": {"collection_times": [{"days": "Mon-Sat", "time": "11:45am"}, {"days": "Sun", "time": "Closed"}], "id": "7635200000", "name": "USPS COLLECTION BOX - BLUE BOX", "address": {"city": "BLUEGROVE", "state": "TX", "street": "1720 FM 172", "postcode": "76352"}}},
{"geometry": {"type": "Point", "coordinates": [-98.2301510466, 33.6742208971]}, "type": "Feature", "properties": {"collection_times": [{"days": "Mon-Sat", "time": "11:45am"}, {"days": "Sun", "time": "Closed"}], "id": "7635200001", "name": "USPS COLLECTION BOX - PO LOBBY", "address": {"city": "BLUEGROVE", "state": "TX", "street": "1720 FM 172", "postcode": "76352"}}},
{"geometry": {"type": "Point", "coordinates": [-98.5844784026, 34.0898827199]}, "type": "Feature", "properties": {"collection_times": [{"days": "Mon-Fri", "time": "4:30pm"}, {"days": "Sat", "time": "4:00pm"}, {"days": "Sun", "time": "Closed"}], "id": "7635400001", "name": "USPS COLLECTION BOX - BLUE BOX", "address": {"city": "BURKBURNETT", "state": "TX", "street": "501 COUNTY RD", "postcode": "76354"}}},
{"geometry": {"type": "Point", "coordinates": [-98.5712574333, 34.0976704888]}, "type": "Feature", "properties": {"collection_times": [{"days": "Mon-Fri", "time": "2:30pm"}, {"days": "Sat", "time": "9:00am"}, {"days": "Sun", "time": "Closed"}], "id": "7635400005", "name": "USPS COLLECTION BOX - BLUE BOX", "address": {"city": "BURKBURNETT", "state": "TX", "street": "300 E 3RD ST", "postcode": "76354"}}},
{"geometry": {"type": "Point", "coordinates": [-98.5844784026, 34.0898827199]}, "type": "Feature", "properties": {"collection_times": [{"days": "Mon-Fri", "time": "4:30pm"}, {"days": "Sat", "time": "4:00pm"}, {"days": "Sun", "time": "Closed"}], "id": "7635400008", "name": "USPS COLLECTION BOX - PO LOBBY", "address": {"city": "BURKBURNETT", "state": "TX", "street": "501 COUNTY RD", "postcode": "76354"}}},
{"geometry": {"type": "Point", "coordinates": [-98.5844784026, 34.0898827199]}, "type": "Feature", "properties": {"collection_times": [{"days": "Mon-Fri", "time": "4:30pm"}, {"days": "Sat", "time": "4:00pm"}, {"days": "Sun", "time": "Closed"}], "id": "7635400010", "name": "USPS COLLECTION BOX - PO LOBBY", "address": {"city": "BURKBURNETT", "state": "TX", "street": "501 COUNTY RD", "postcode": "76354"}}},
{"geometry": {"type": "Point", "coordinates": [-98.1464014532, 34.0857569591]}, "type": "Feature", "properties": {"collection_times": [{"days": "Mon-Fri", "time": "3:30pm"}, {"days": "Sat", "time": "9:30am"}, {"days": "Sun", "time": "Closed"}], "id": "7635700000", "name": "USPS COLLECTION BOX - BLUE BOX", "address": {"city": "BYERS", "state": "TX", "street": "206 CENTRAL AVE", "postcode": "76357"}}},
{"geometry": {"type": "Point", "coordinates": [-98.1464014532, 34.0857569591]}, "type": "Feature", "properties": {"collection_times": [{"days": "Mon-Fri", "time": "3:30pm"}, {"days": "Sat", "time": "9:30am"}, {"days": "Sun", "time": "Closed"}], "id": "7635700002", "name": "USPS COLLECTION BOX - PO LOBBY", "address": {"city": "BYERS", "state": "TX", "street": "206 CENTRAL AVE", "postcode": "76357"}}},
{"geometry": {"type": "Point", "coordinates": [-98.9201348982, 34.0304520016]}, "type": "Feature", "properties": {"collection_times": [{"days": "Mon-Fri", "time": "4:30pm"}, {"days": "Sat", "time": "12:00pm"}, {"days": "Sun", "time": "Closed"}], "id": "7636000001", "name": "USPS COLLECTION BOX - BLUE BOX", "address": {"city": "ELECTRA", "state": "TX", "street": "200 W CLEVELAND AVE", "postcode": "76360"}}},
{"geometry": {"type": "Point", "coordinates": [-98.9201348982, 34.0304520016]}, "type": "Feature", "properties": {"collection_times": [{"days": "Mon-Fri", "time": "4:30pm"}, {"days": "Sat", "time": "12:00pm"}, {"days": "Sun", "time": "Closed"}], "id": "7636000004", "name": "USPS COLLECTION BOX - PO LOBBY", "address": {"city": "ELECTRA", "state": "TX", "street": "200 W CLEVELAND AVE", "postcode": "76360"}}},
{"geometry": {"type": "Point", "coordinates": [-99.524506297, 33.4672676131]}, "type": "Feature", "properties": {"collection_times": [{"days": "Mon-Fri", "time": "12:45pm"}, {"days": "Sat", "time": "9:30am"}, {"days": "Sun", "time": "Closed"}], "id": "7636300000", "name": "USPS COLLECTION BOX - BLUE BOX", "address": {"city": "GOREE", "state": "TX", "street": "105 N 5TH ST", "postcode": "76363"}}},
{"geometry": {"type": "Point", "coordinates": [-99.524506297, 33.4672676131]}, "type": "Feature", "properties": {"collection_times": [{"days": "Mon-Fri", "time": "12:45pm"}, {"days": "Sat", "time": "9:30am"}, {"days": "Sun", "time": "Closed"}], "id": "7636300001", "name": "USPS COLLECTION BOX - PO LOBBY", "address": {"city": "GOREE", "state": "TX", "street": "105 N 5TH ST", "postcode": "76363"}}},
{"geometry": {"type": "Point", "coordinates": [-98.1964063523, 33.8165419983]}, "type": "Feature", "properties": {"collection_times": [{"days": "Mon-Fri", "time": "4:30pm"}, {"days": "Sat", "time": "10:00am"}, {"days": "Sun", "time": "Closed"}], "id": "7636500003", "name": "USPS COLLECTION BOX - BLUE BOX", "address": {"city": "HENRIETTA", "state": "TX", "street": "202 W IKARD ST", "postcode": "76365"}}},
{"geometry": {"type": "Point", "coordinates": [-98.1964063523, 33.8165419983]}, "type": "Feature", "properties": {"collection_times": [{"days": "Mon-Fri", "time": "4:30pm"}, {"days": "Sat", "time": "10:00am"}, {"days": "Sun", "time": "Closed"}], "id": "7636500004", "name": "USPS COLLECTION BOX - BLUE BOX", "address": {"city": "HENRIETTA", "state": "TX", "street": "202 W IKARD ST", "postcode": "76365"}}},
{"geometry": {"type": "Point", "coordinates": [-98.1964063523, 33.8165419983]}, "type": "Feature", "properties": {"collection_times": [{"days": "Mon-Fri", "time": "4:30pm"}, {"days": "Sat", "time": "10:00am"}, {"days": "Sun", "time": "Closed"}], "id": "7636500005", "name": "USPS COLLECTION BOX - PO LOBBY", "address": {"city": "HENRIETTA", "state": "TX", "street": "202 W IKARD ST", "postcode": "76365"}}},
{"geometry": {"type": "Point", "coordinates": [-98.1964063523, 33.8165419983]}, "type": "Feature", "properties": {"collection_times": [{"days": "Mon-Fri", "time": "4:30pm"}, {"days": "Sat", "time": "10:00am"}, {"days": "Sun", "time": "Closed"}], "id": "7636500006", "name": "USPS COLLECTION BOX - PO LOBBY", "address": {"city": "HENRIETTA", "state": "TX", "street": "202 W IKARD ST", "postcode": "76365"}}},
{"geometry": {"type": "Point", "coordinates": [-98.1964063523, 33.8165419983]}, "type": "Feature", "properties": {"collection_times": [{"days": "Mon-Fri", "time": "4:30pm"}, {"days": "Sat", "time": "10:00am"}, {"days": "Sun", "time": "Closed"}], "id": "7636500007", "name": "USPS COLLECTION BOX - PO LOBBY", "address": {"city": "HENRIETTA", "state": "TX", "street": "202 W IKARD ST", "postcode": "76365"}}},
{"geometry": {"type": "Point", "coordinates": [-98.6939543227, 33.8138595622]}, "type": "Feature", "properties": {"collection_times": [{"days": "Mon-Fri", "time": "4:00pm"}, {"days": "Sat", "time": "8:30am"}, {"days": "Sun", "time": "Closed"}], "id": "7636600000", "name": "USPS COLLECTION BOX - BLUE BOX", "address": {"city": "HOLLIDAY", "state": "TX", "street": "100 E CHESTNUT ST", "postcode": "76366"}}},
{"geometry": {"type": "Point", "coordinates": [-98.6939543227, 33.8138595622]}, "type": "Feature", "properties": {"collection_times": [{"days": "Mon-Fri", "time": "4:00pm"}, {"days": "Sat", "time": "8:30am"}, {"days": "Sun", "time": "Closed"}], "id": "7636600001", "name": "USPS COLLECTION BOX - PO LOBBY", "address": {"city": "HOLLIDAY", "state": "TX", "street": "100 E CHESTNUT ST", "postcode": "76366"}}},
{"geometry": {"type": "Point", "coordinates": [-98.6665392431, 33.9516071893]}, "type": "Feature", "properties": {"collection_times": [{"days": "Mon-Fri", "time": "4:00pm"}, {"days": "Sat", "time": "2:30pm"}, {"days": "Sun", "time": "Closed"}], "id": "7636700002", "name": "USPS COLLECTION BOX - BLUE BOX", "address": {"city": "IOWA PARK", "state": "TX", "street": "211 E CASH ST", "postcode": "76367"}}},
{"geometry": {"type": "Point", "coordinates": [-98.6665392431, 33.9516071893]}, "type": "Feature", "properties": {"collection_times": [{"days": "Mon-Fri", "time": "4:00pm"}, {"days": "Sat", "time": "2:30pm"}, {"days": "Sun", "time": "Closed"}], "id": "7636700004", "name": "USPS COLLECTION BOX - PO LOBBY", "address": {"city": "IOWA PARK", "state": "TX", "street": "211 E CASH ST", "postcode": "76367"}}},
{"geometry": {"type": "Point", "coordinates": [-98.8084162298, 33.8505602082]}, "type": "Feature", "properties": {"collection_times": [{"days": "Mon-Fri", "time": "3:15pm"}, {"days": "Sat", "time": "8:30am"}, {"days": "Sun", "time": "Closed"}], "id": "7636900000", "name": "USPS COLLECTION BOX - BLUE BOX", "address": {"city": "KAMAY", "state": "TX", "street": "8162 STATE HIGHWAY 258", "postcode": "76369"}}},
{"geometry": {"type": "Point", "coordinates": [-98.8084162298, 33.8505602082]}, "type": "Feature", "properties": {"collection_times": [{"days": "Mon-Fri", "time": "12:00pm"}, {"days": "Sat-Sun", "time": "Closed"}], "id": "7636900001", "name": "USPS COLLECTION BOX - PO LOBBY", "address": {"city": "KAMAY", "state": "TX", "street": "8162 STATE HIGHWAY 258", "postcode": "76369"}}},
{"geometry": {"type": "Point", "coordinates": [-98.8084162298, 33.8505602082]}, "type": "Feature", "properties": {"collection_times": [{"days": "Mon-Fri", "time": "12:00pm"}, {"days": "Sat-Sun", "time": "Closed"}], "id": "7636900002", "name": "USPS COLLECTION BOX - PO LOBBY", "address": {"city": "KAMAY", "state": "TX", "street": "8162 STATE HIGHWAY 258", "postcode": "76369"}}},
{"geometry": {"type": "Point", "coordinates": [-98.9252587477, 33.4497752263]}, "type": "Feature", "properties": {"collection_times": [{"days": "Mon-Fri", "time": "3:45pm"}, {"days": "Sat", "time": "9:45am"}, {"days": "Sun", "time": "Closed"}], "id": "7637000000", "name": "USPS COLLECTION BOX - BLUE BOX", "address": {"city": "MEGARGEL", "state": "TX", "street": "421 FM 210", "postcode": "76370"}}},
{"geometry": {"type": "Point", "coordinates": [-98.9252587477, 33.4497752263]}, "type": "Feature", "properties": {"collection_times": [{"days": "Mon-Fri", "time": "3:45pm"}, {"days": "Sat", "time": "9:45am"}, {"days": "Sun", "time": "Closed"}], "id": "7637000001", "name": "USPS COLLECTION BOX - PO LOBBY", "address": {"city": "MEGARGEL", "state": "TX", "street": "421 FM 210", "postcode": "76370"}}},
{"geometry": {"type": "Point", "coordinates": [-99.6251051737, 33.4498462764]}, "type": "Feature", "properties": {"collection_times": [{"days": "Mon-Fri", "time": "3:30pm"}, {"days": "Sat", "time": "9:30am"}, {"days": "Sun", "time": "Closed"}], "id": "7637100000", "name": "USPS COLLECTION BOX - BLUE BOX", "address": {"city": "MUNDAY", "state": "TX", "street": "241 W B ST", "postcode": "76371"}}},
{"geometry": {"type": "Point", "coordinates": [-99.6251051737, 33.4498462764]}, "type": "Feature", "properties": {"collection_times": [{"days": "Mon-Fri", "time": "3:30pm"}, {"days": "Sat", "time": "9:30am"}, {"days": "Sun", "time": "Closed"}], "id": "7637100001", "name": "USPS COLLECTION BOX - PO LOBBY", "address": {"city": "MUNDAY", "state": "TX", "street": "241 W B ST", "postcode": "76371"}}},
{"geometry": {"type": "Point", "coordinates": [-98.7411338563, 33.1939532023]}, "type": "Feature", "properties": {"collection_times": [{"days": "Mon-Fri", "time": "2:45pm"}, {"days": "Sat", "time": "10:00am"}, {"days": "Sun", "time": "Closed"}], "id": "7637200000", "name": "USPS COLLECTION BOX - BLUE BOX", "address": {"city": "NEWCASTLE", "state": "TX", "street": "800 BROADWAY", "postcode": "76372"}}},
{"geometry": {"type": "Point", "coordinates": [-99.0036803972, 33.3438741739]}, "type": "Feature", "properties": {"collection_times": [{"days": "Mon-Sat", "time": "12:00pm"}, {"days": "Sun", "time": "Closed"}], "id": "7637200001", "name": "USPS COLLECTION BOX - BLUE BOX", "address": {"city": "NEWCASTLE", "state": "TX", "street": "00000 HWY 79", "postcode": "76372"}}},
{"geometry": {"type": "Point", "coordinates": [-98.7411338563, 33.1939532023]}, "type": "Feature", "properties": {"collection_times": [{"days": "Mon-Fri", "time": "2:45pm"}, {"days": "Sat", "time": "10:00am"}, {"days": "Sun", "time": "Closed"}], "id": "7637200002", "name": "USPS COLLECTION BOX - PO LOBBY", "address": {"city": "NEWCASTLE", "state": "TX", "street": "800 BROADWAY", "postcode": "76372"}}},
{"geometry": {"type": "Point", "coordinates": [-99.141829531, 34.1302551118]}, "type": "Feature", "properties": {"collection_times": [{"days": "Mon-Fri", "time": "12:30pm"}, {"days": "Sat", "time": "10:15am"}, {"days": "Sun", "time": "Closed"}], "id": "7637300000", "name": "USPS COLLECTION BOX - BLUE BOX", "address": {"city": "OKLAUNION", "state": "TX", "street": "9172 1ST ST", "postcode": "76373"}}},
{"geometry": {"type": "Point", "coordinates": [-99.141829531, 34.1302551118]}, "type": "Feature", "properties": {"collection_times": [{"days": "Mon-Fri", "time": "12:30pm"}, {"days": "Sat", "time": "10:15am"}, {"days": "Sun", "time": "Closed"}], "id": "7637300001", "name": "USPS COLLECTION BOX - PO LOBBY", "address": {"city": "OKLAUNION", "state": "TX", "street": "9172 1ST ST", "postcode": "76373"}}},
{"geometry": {"type": "Point", "coordinates": [-99.141829531, 34.1302551118]}, "type": "Feature", "properties": {"collection_times": [{"days": "Mon-Fri", "time": "12:30pm"}, {"days": "Sat", "time": "10:15am"}, {"days": "Sun", "time": "Closed"}], "id": "7637300002", "name": "USPS COLLECTION BOX - PO LOBBY", "address": {"city": "OKLAUNION", "state": "TX", "street": "9172 1ST ST", "postcode": "76373"}}},
{"geometry": {"type": "Point", "coordinates": [-98.7514843644, 33.3716368645]}, "type": "Feature", "properties": {"collection_times": [{"days": "Mon-Fri", "time": "4:15pm"}, {"days": "Sat", "time": "1:30pm"}, {"days": "Sun", "time": "Closed"}], "id": "7637400001", "name": "USPS COLLECTION BOX - BLUE BOX", "address": {"city": "OLNEY", "state": "TX", "street": "301 E ELM ST", "postcode": "76374"}}},
{"geometry": {"type": "Point", "coordinates": [-98.7514843644, 33.3716368645]}, "type": "Feature", "properties": {"collection_times": [{"days": "Mon-Fri", "time": "4:15pm"}, {"days": "Sat", "time": "1:30pm"}, {"days": "Sun", "time": "Closed"}], "id": "7637400004", "name": "USPS COLLECTION BOX - PO LOBBY", "address": {"city": "OLNEY", "state": "TX", "street": "301 E ELM ST", "postcode": "76374"}}},
{"geometry": {"type": "Point", "coordinates": [-98.2018276973, 34.0110819196]}, "type": "Feature", "properties": {"collection_times": [{"days": "Mon-Fri", "time": "3:30pm"}, {"days": "Sat", "time": "9:00am"}, {"days": "Sun", "time": "Closed"}], "id": "7637700000", "name": "USPS COLLECTION BOX - BLUE BOX", "address": {"city": "PETROLIA", "state": "TX", "street": "108 W BENTON ST", "postcode": "76377"}}},
{"geometry": {"type": "Point", "coordinates": [-98.2018276973, 34.0110819196]}, "type": "Feature", "properties": {"collection_times": [{"days": "Mon-Fri", "time": "3:30pm"}, {"days": "Sat", "time": "9:00am"}, {"days": "Sun", "time": "Closed"}], "id": "7637700001", "name": "USPS COLLECTION BOX - PO LOBBY", "address": {"city": "PETROLIA", "state": "TX", "street": "108 W BENTON ST", "postcode": "76377"}}},
{"geometry": {"type": "Point", "coordinates": [-98.4970384072, 33.6308258605]}, "type": "Feature", "properties": {"collection_times": [{"days": "Mon-Fri", "time": "4:00pm"}, {"days": "Sat", "time": "11:30am"}, {"days": "Sun", "time": "Closed"}], "id": "7637900000", "name": "USPS COLLECTION BOX - BLUE BOX", "address": {"city": "SCOTLAND", "state": "TX", "street": "562 7TH ST", "postcode": "76379"}}},
{"geometry": {"type": "Point", "coordinates": [-98.4970384072, 33.6308258605]}, "type": "Feature", "properties": {"collection_times": [{"days": "Mon-Fri", "time": "4:00pm"}, {"days": "Sat", "time": "11:30am"}, {"days": "Sun", "time": "Closed"}], "id": "7637900001", "name": "USPS COLLECTION BOX - PO LOBBY", "address": {"city": "SCOTLAND", "state": "TX", "street": "562 7TH ST", "postcode": "76379"}}},
{"geometry": {"type": "Point", "coordinates": [-99.2615433086, 33.5891704163]}, "type": "Feature", "properties": {"collection_times": [{"days": "Mon-Fri", "time": "4:30pm"}, {"days": "Sat", "time": "1:00pm"}, {"days": "Sun", "time": "Closed"}], "id": "7638000000", "name": "USPS COLLECTION BOX - BLUE BOX", "address": {"city": "SEYMOUR", "state": "TX", "street": "210 N WASHINGTON ST", "postcode": "76380"}}},
{"geometry": {"type": "Point", "coordinates": [-99.2615433086, 33.5891704163]}, "type": "Feature", "properties": {"collection_times": [{"days": "Mon-Fri", "time": "4:30pm"}, {"days": "Sat", "time": "1:00pm"}, {"days": "Sun", "time": "Closed"}], "id": "7638000001", "name": "USPS COLLECTION BOX - BLUE BOX", "address": {"city": "SEYMOUR", "state": "TX", "street": "210 N WASHINGTON ST", "postcode": "76380"}}},
{"geometry": {"type": "Point", "coordinates": [-99.2615433086, 33.5891704163]}, "type": "Feature", "properties": {"collection_times": [{"days": "Mon-Fri", "time": "4:30pm"}, {"days": "Sat", "time": "1:00pm"}, {"days": "Sun", "time": "Closed"}], "id": "7638000002", "name": "USPS COLLECTION BOX - PO LOBBY", "address": {"city": "SEYMOUR", "state": "TX", "street": "210 N WASHINGTON ST", "postcode": "76380"}}},
{"geometry": {"type": "Point", "coordinates": [-99.2617295571, 33.5901301486]}, "type": "Feature", "properties": {"collection_times": [{"days": "Mon-Fri", "time": "3:00pm"}, {"days": "Sat", "time": "1:00pm"}, {"days": "Sun", "time": "Closed"}], "id": "7638000003", "name": "USPS COLLECTION BOX - BLUE BOX", "address": {"city": "SEYMOUR", "state": "TX", "street": "301 N WASHINGTON ST", "postcode": "76380"}}},
{"geometry": {"type": "Point", "coordinates": [-99.2834018781, 34.1545691914]}, "type": "Feature", "properties": {"collection_times": [{"days": "Mon-Fri", "time": "4:15pm"}, {"days": "Sat", "time": "3:30pm"}, {"days": "Sun", "time": "Closed"}], "id": "7638400002", "name": "USPS COLLECTION BOX - BLUE BOX", "address": {"city": "VERNON", "state": "TX", "street": "1600 CUMBERLAND ST", "postcode": "76384"}}},
{"geometry": {"type": "Point", "coordinates": [-99.2833486403, 34.1527964455]}, "type": "Feature", "properties": {"collection_times": [{"days": "Mon-Fri", "time": "3:30pm"}, {"days": "Sat-Sun", "time": "Closed"}], "id": "7638400005", "name": "USPS COLLECTION BOX - BLUE BOX", "address": {"city": "VERNON", "state": "TX", "street": "1700 WILBARGER ST", "postcode": "76384"}}},
{"geometry": {"type": "Point", "coordinates": [-99.2833675774, 34.1545418156]}, "type": "Feature", "properties": {"collection_times": [{"days": "Mon-Fri", "time": "4:15pm"}, {"days": "Sat", "time": "3:30pm"}, {"days": "Sun", "time": "Closed"}], "id": "7638400018", "name": "USPS COLLECTION BOX - PO LOBBY", "address": {"city": "VERNON", "state": "TX", "street": "1701 TEXAS ST", "postcode": "76384"}}},
{"geometry": {"type": "Point", "coordinates": [-99.3111549297, 34.1538496167]}, "type": "Feature", "properties": {"collection_times": [{"days": "Mon-Sat", "time": "1:00pm"}, {"days": "Sun", "time": "Closed"}], "id": "7638400022", "name": "USPS COLLECTION BOX - BLUE BOX", "address": {"city": "VERNON", "state": "TX", "street": "1630 HILLCREST DR", "postcode": "76384"}}},
{"geometry": {"type": "Point", "coordinates": [-99.6727109961, 33.322708201]}, "type": "Feature", "properties": {"collection_times": [{"days": "Mon-Fri", "time": "3:00pm"}, {"days": "Sat", "time": "10:15am"}, {"days": "Sun", "time": "Closed"}], "id": "7638800000", "name": "USPS COLLECTION BOX - BLUE BOX", "address": {"city": "WEINERT", "state": "TX", "street": "105 S BREUSTEDT ST", "postcode": "76388"}}},
{"geometry": {"type": "Point", "coordinates": [-99.6727109961, 33.322708201]}, "type": "Feature", "properties": {"collection_times": [{"days": "Mon-Fri", "time": "3:00pm"}, {"days": "Sat", "time": "10:15am"}, {"days": "Sun", "time": "Closed"}], "id": "7638800001", "name": "USPS COLLECTION BOX - PO LOBBY", "address": {"city": "WEINERT", "state": "TX", "street": "105 S BREUSTEDT ST", "postcode": "76388"}}},
{"geometry": {"type": "Point", "coordinates": [-98.524056055, 33.5022604455]}, "type": "Feature", "properties": {"collection_times": [{"days": "Mon-Fri", "time": "3:45pm"}, {"days": "Sat", "time": "11:00am"}, {"days": "Sun", "time": "Closed"}], "id": "7638900000", "name": "USPS COLLECTION BOX - BLUE BOX", "address": {"city": "WINDTHORST", "state": "TX", "street": "18504 US HIGHWAY 281", "postcode": "76389"}}},
{"geometry": {"type": "Point", "coordinates": [-98.524056055, 33.5022604455]}, "type": "Feature", "properties": {"collection_times": [{"days": "Mon-Fri", "time": "3:45pm"}, {"days": "Sat", "time": "11:00am"}, {"days": "Sun", "time": "Closed"}], "id": "7638900002", "name": "USPS COLLECTION BOX - PO LOBBY", "address": {"city": "WINDTHORST", "state": "TX", "street": "18504 US HIGHWAY 281", "postcode": "76389"}}},
{"geometry": {"type": "Point", "coordinates": [-98.524056055, 33.5022604455]}, "type": "Feature", "properties": {"collection_times": [{"days": "Mon-Fri", "time": "3:45pm"}, {"days": "Sat", "time": "11:00am"}, {"days": "Sun", "time": "Closed"}], "id": "7638900003", "name": "USPS COLLECTION BOX - PO LOBBY", "address": {"city": "WINDTHORST", "state": "TX", "street": "18504 US HIGHWAY 281", "postcode": "76389"}}}
]}
