{"type": "FeatureCollection", "features": [
{"geometry": {"type": "Point", "coordinates": [-98.2101732096, 32.2321792704]}, "type": "Feature", "properties": {"collection_times": [{"days": "Mon-Fri", "time": "4:45pm"}, {"days": "Sat", "time": "1:15pm"}, {"days": "Sun", "time": "Closed"}], "id": "7640100001", "name": "USPS COLLECTION BOX - BLUE BOX", "address": {"city": "STEPHENVILLE", "state": "TX", "street": "100 W LINGLEVILLE RD", "postcode": "76401"}}},
{"geometry": {"type": "Point", "coordinates": [-98.2436150772, 32.2311995778]}, "type": "Feature", "properties": {"collection_times": [{"days": "Mon-Fri", "time": "4:45pm"}, {"days": "Sat", "time": "1:15pm"}, {"days": "Sun", "time": "Closed"}], "id": "7640100002", "name": "USPS COLLECTION BOX - BLUE BOX", "address": {"city": "STEPHENVILLE", "state": "TX", "street": "1875 W LINGLEVILLE RD", "postcode": "76401"}}},
{"geometry": {"type": "Point", "coordinates": [-98.2230571656, 32.2117315004]}, "type": "Feature", "properties": {"collection_times": [{"days": "Mon-Fri", "time": "4:45pm"}, {"days": "Sat", "time": "1:15pm"}, {"days": "Sun", "time": "Closed"}], "id": "7640100003", "name": "USPS COLLECTION BOX - BLUE BOX", "address": {"city": "STEPHENVILLE", "state": "TX", "street": "150 N HARBIN DR", "postcode": "76401"}}},
{"geometry": {"type": "Point", "coordinates": [-98.2295794535, 32.2078449206]}, "type": "Feature", "properties": {"collection_times": [{"days": "Mon-Fri", "time": "5:00pm"}, {"days": "Sat", "time": "1:30pm"}, {"days": "Sun", "time": "Closed"}], "id": "7640100006", "name": "USPS COLLECTION BOX - BLUE BOX", "address": {"city": "STEPHENVILLE", "state": "TX", "street": "2900 W WASHINGTON ST", "postcode": "76401"}}},
{"geometry": {"type": "Point", "coordinates": [-98.2099967656, 32.2050516017]}, "type": "Feature", "properties": {"collection_times": [{"days": "Mon-Fri", "time": "5:00pm"}, {"days": "Sat", "time": "1:30pm"}, {"days": "Sun", "time": "Closed"}], "id": "7640100007", "name": "USPS COLLECTION BOX - BLUE BOX", "address": {"city": "STEPHENVILLE", "state": "TX", "street": "1481 W SOUTH LOOP", "postcode": "76401"}}},
{"geometry": {"type": "Point", "coordinates": [-98.2017374744, 32.2200319765]}, "type": "Feature", "properties": {"collection_times": [{"days": "Mon-Fri", "time": "5:15pm"}, {"days": "Sat", "time": "1:45pm"}, {"days": "Sun", "time": "Closed"}], "id": "7640100009", "name": "USPS COLLECTION BOX - BLUE BOX", "address": {"city": "STEPHENVILLE", "state": "TX", "street": "100 W COLLEGE ST", "postcode": "76401"}}},
{"geometry": {"type": "Point", "coordinates": [-98.2045862188, 32.2241204574]}, "type": "Feature", "properties": {"collection_times": [{"days": "Mon-Fri", "time": "5:30pm"}, {"days": "Sat", "time": "4:45pm"}, {"days": "Sun", "time": "Closed"}], "id": "7640100023", "name": "USPS COLLECTION BOX - PO LOBBY", "address": {"city": "STEPHENVILLE", "state": "TX", "street": "431 N GRAHAM ST", "postcode": "76401"}}},
{"geometry": {"type": "Point", "coordinates": [-98.2244470401, 32.2103587337]}, "type": "Feature", "properties": {"collection_times": [{"days": "Mon-Fri", "time": "5:00pm"}, {"days": "Sat", "time": "1:30pm"}, {"days": "Sun", "time": "Closed"}], "id": "7640100024", "name": "USPS COLLECTION BOX - BLUE BOX", "address": {"city": "STEPHENVILLE", "state": "TX", "street": "2115 W WASHINGTON ST", "postcode": "76401"}}},
{"geometry": {"type": "Point", "coordinates": [-98.203337777, 32.2224419542]}, "type": "Feature", "properties": {"collection_times": [{"days": "Mon-Fri", "time": "5:30pm"}, {"days": "Sat", "time": "4:45pm"}, {"days": "Sun", "time": "Closed"}], "id": "7640100026", "name": "USPS COLLECTION BOX - BLUE BOX", "address": {"city": "STEPHENVILLE", "state": "TX", "street": "100 E TARLETON ST", "postcode": "76401"}}},
{"geometry": {"type": "Point", "coordinates": [-98.203337777, 32.2224419542]}, "type": "Feature", "properties": {"collection_times": [{"days": "Mon-Fri", "time": "5:30pm"}, {"days": "Sat", "time": "4:45pm"}, {"days": "Sun", "time": "Closed"}], "id": "7640100027", "name": "USPS COLLECTION BOX - BLUE BOX", "address": {"city": "STEPHENVILLE", "state": "TX", "street": "100 E TARLETON ST", "postcode": "76401"}}},
{"geometry": {"type": "Point", "coordinates": [-98.2146576044, 32.2378328156]}, "type": "Feature", "properties": {"collection_times": [{"days": "Mon-Fri", "time": "5:30pm"}, {"days": "Sat", "time": "4:45pm"}, {"days": "Sun", "time": "Closed"}], "id": "7640100028", "name": "USPS COLLECTION BOX - EXPRESS", "address": {"city": "STEPHENVILLE", "state": "TX", "street": "100 E TARLETON ST", "postcode": "76401"}}},
{"geometry": {"type": "Point", "coordinates": [-98.9233033777, 32.755366643]}, "type": "Feature", "properties": {"collection_times": [{"days": "Mon-Sat", "time": "3:00pm"}, {"days": "Sun", "time": "Closed"}], "id": "7642400004", "name": "USPS COLLECTION BOX - BLUE BOX", "address": {"city": "BRECKENRIDGE", "state": "TX", "street": "1511 W WALKER ST", "postcode": "76424"}}},
{"geometry": {"type": "Point", "coordinates": [-98.903862939, 32.7555275162]}, "type": "Feature", "properties": {"collection_times": [{"days": "Mon-Sat", "time": "2:30pm"}, {"days": "Sun", "time": "Closed"}], "id": "7642400005", "name": "USPS COLLECTION BOX - BLUE BOX", "address": {"city": "BRECKENRIDGE", "state": "TX", "street": "200 W WALKER ST", "postcode": "76424"}}},
{"geometry": {"type": "Point", "coordinates": [-98.9028814294, 32.7545714142]}, "type": "Feature", "properties": {"collection_times": [{"days": "Mon-Fri", "time": "4:30pm"}, {"days": "Sat-Sun", "time": "Closed"}], "id": "7642400010", "name": "USPS COLLECTION BOX - PO LOBBY", "address": {"city": "BRECKENRIDGE", "state": "TX", "street": "123 W WILLIAMS ST", "postcode": "76424"}}},
{"geometry": {"type": "Point", "coordinates": [-98.9028814294, 32.7545714142]}, "type": "Feature", "properties": {"collection_times": [{"days": "Mon-Fri", "time": "4:15pm"}, {"days": "Sat", "time": "3:00pm"}, {"days": "Sun", "time": "Closed"}], "id": "7642400011", "name": "USPS COLLECTION BOX - BLUE BOX", "address": {"city": "BRECKENRIDGE", "state": "TX", "street": "123 W WILLIAMS ST", "postcode": "76424"}}},
{"geometry": {"type": "Point", "coordinates": [-98.9028814294, 32.7545714142]}, "type": "Feature", "properties": {"collection_times": [{"days": "Mon-Fri", "time": "4:30pm"}, {"days": "Sat-Sun", "time": "Closed"}], "id": "7642400016", "name": "USPS COLLECTION BOX - PO LOBBY", "address": {"city": "BRECKENRIDGE", "state": "TX", "street": "123 W WILLIAMS ST", "postcode": "76424"}}},
{"geometry": {"type": "Point", "coordinates": [-97.7544221047, 33.2104775578]}, "type": "Feature", "properties": {"collection_times": [{"days": "Mon-Fri", "time": "4:30pm"}, {"days": "Sat", "time": "2:30pm"}, {"days": "Sun", "time": "Closed"}], "id": "7642600003", "name": "USPS COLLECTION BOX - PO LOBBY", "address": {"city": "BRIDGEPORT", "state": "TX", "street": "1305 HALSELL ST", "postcode": "76426"}}},
{"geometry": {"type": "Point", "coordinates": [-97.7544221047, 33.2104775578]}, "type": "Feature", "properties": {"collection_times": [{"days": "Mon-Fri", "time": "4:30pm"}, {"days": "Sat", "time": "2:30pm"}, {"days": "Sun", "time": "Closed"}], "id": "7642600004", "name": "USPS COLLECTION BOX - BLUE BOX", "address": {"city": "BRIDGEPORT", "state": "TX", "street": "1305 HALSELL ST", "postcode": "76426"}}},
{"geometry": {"type": "Point", "coordinates": [-97.7696686643, 33.2234411015]}, "type": "Feature", "properties": {"collection_times": [{"days": "Mon-Sat", "time": "12:30pm"}, {"days": "Sun", "time": "Closed"}], "id": "7642600007", "name": "USPS COLLECTION BOX - BLUE BOX", "address": {"city": "BRIDGEPORT", "state": "TX", "street": "250 US HIGHWAY 380 W", "postcode": "76426"}}},
{"geometry": {"type": "Point", "coordinates": [-98.3858091417, 33.1613911351]}, "type": "Feature", "properties": {"collection_times": [{"days": "Mon-Fri", "time": "3:15pm"}, {"days": "Sat", "time": "12:00pm"}, {"days": "Sun", "time": "Closed"}], "id": "7642700001", "name": "USPS COLLECTION BOX - PO LOBBY", "address": {"city": "BRYSON", "state": "TX", "street": "103 N DEPOT ST", "postcode": "76427"}}},
{"geometry": {"type": "Point", "coordinates": [-98.3857395575, 33.1614968318]}, "type": "Feature", "properties": {"collection_times": [{"days": "Mon-Fri", "time": "3:30pm"}, {"days": "Sat", "time": "12:00pm"}, {"days": "Sun", "time": "Closed"}], "id": "7642700003", "name": "USPS COLLECTION BOX - BLUE BOX", "address": {"city": "BRYSON", "state": "TX", "street": "103 N DEPOT ST", "postcode": "76427"}}},
{"geometry": {"type": "Point", "coordinates": [-98.3858091417, 33.1613911351]}, "type": "Feature", "properties": {"collection_times": [{"days": "Mon-Fri", "time": "3:15pm"}, {"days": "Sat", "time": "12:00pm"}, {"days": "Sun", "time": "Closed"}], "id": "7642700004", "name": "USPS COLLECTION BOX - PO LOBBY", "address": {"city": "BRYSON", "state": "TX", "street": "103 N DEPOT ST", "postcode": "76427"}}},
{"geometry": {"type": "Point", "coordinates": [-98.6439404736, 32.7179686484]}, "type": "Feature", "properties": {"collection_times": [{"days": "Mon-Sat", "time": "10:00am"}, {"days": "Sun", "time": "Closed"}], "id": "7642900002", "name": "USPS COLLECTION BOX - PO LOBBY", "address": {"city": "CADDO", "state": "TX", "street": "14075 LOOP 252", "postcode": "76429"}}},
{"geometry": {"type": "Point", "coordinates": [-99.2983494691, 32.7264910826]}, "type": "Feature", "properties": {"collection_times": [{"days": "Mon-Fri", "time": "4:00pm"}, {"days": "Sat", "time": "9:00am"}, {"days": "Sun", "time": "Closed"}], "id": "7643000001", "name": "USPS COLLECTION BOX - PO LOBBY", "address": {"city": "ALBANY", "state": "TX", "street": "24 N JACOBS ST", "postcode": "76430"}}},
{"geometry": {"type": "Point", "coordinates": [-99.2983494691, 32.7264910826]}, "type": "Feature", "properties": {"collection_times": [{"days": "Mon-Fri", "time": "4:00pm"}, {"days": "Sat", "time": "9:00am"}, {"days": "Sun", "time": "Closed"}], "id": "7643000002", "name": "USPS COLLECTION BOX - BLUE BOX", "address": {"city": "ALBANY", "state": "TX", "street": "24 N JACOBS ST", "postcode": "76430"}}},
{"geometry": {"type": "Point", "coordinates": [-97.7982746743, 33.2959926434]}, "type": "Feature", "properties": {"collection_times": [{"days": "Mon-Fri", "time": "4:30pm"}, {"days": "Sat", "time": "9:00am"}, {"days": "Sun", "time": "Closed"}], "id": "7643100001", "name": "USPS COLLECTION BOX - BLUE BOX", "address": {"city": "CHICO", "state": "TX", "street": "100 S BUFFALO ST", "postcode": "76431"}}},
{"geometry": {"type": "Point", "coordinates": [-97.7982746743, 33.2959926434]}, "type": "Feature", "properties": {"collection_times": [{"days": "Mon-Fri", "time": "4:30pm"}, {"days": "Sat", "time": "9:00am"}, {"days": "Sun", "time": "Closed"}], "id": "7643100002", "name": "USPS COLLECTION BOX - PO LOBBY", "address": {"city": "CHICO", "state": "TX", "street": "100 S BUFFALO ST", "postcode": "76431"}}},
{"geometry": {"type": "Point", "coordinates": [-98.7876053653, 31.8237938996]}, "type": "Feature", "properties": {"collection_times": [{"days": "Mon-Fri", "time": "3:45pm"}, {"days": "Sat", "time": "8:30am"}, {"days": "Sun", "time": "Closed"}], "id": "7643200001", "name": "USPS COLLECTION BOX - BLUE BOX", "address": {"city": "BLANKET", "state": "TX", "street": "801 MAIN ST", "postcode": "76432"}}},
{"geometry": {"type": "Point", "coordinates": [-98.7876053653, 31.8237938996]}, "type": "Feature", "properties": {"collection_times": [{"days": "Mon-Fri", "time": "3:45pm"}, {"days": "Sat", "time": "8:30am"}, {"days": "Sun", "time": "Closed"}], "id": "7643200003", "name": "USPS COLLECTION BOX - PO LOBBY", "address": {"city": "BLANKET", "state": "TX", "street": "801 MAIN ST", "postcode": "76432"}}},
{"geometry": {"type": "Point", "coordinates": [-98.170782124, 32.4079959822]}, "type": "Feature", "properties": {"collection_times": [{"days": "Mon-Fri", "time": "2:30pm"}, {"days": "Sat", "time": "8:45am"}, {"days": "Sun", "time": "Closed"}], "id": "7643300001", "name": "USPS COLLECTION BOX - BLUE BOX", "address": {"city": "BLUFF DALE", "state": "TX", "street": "28283 US HIGHWAY 377 N", "postcode": "76433"}}},
{"geometry": {"type": "Point", "coordinates": [-98.170782124, 32.4079959822]}, "type": "Feature", "properties": {"collection_times": [{"days": "Mon-Fri", "time": "2:30pm"}, {"days": "Sat", "time": "8:45am"}, {"days": "Sun", "time": "Closed"}], "id": "7643300002", "name": "USPS COLLECTION BOX - PO LOBBY", "address": {"city": "BLUFF DALE", "state": "TX", "street": "28283 US HIGHWAY 377 N", "postcode": "76433"}}},
{"geometry": {"type": "Point", "coordinates": [-98.8282407663, 32.2713503439]}, "type": "Feature", "properties": {"collection_times": [{"days": "Mon-Fri", "time": "2:45pm"}, {"days": "Sat", "time": "9:45am"}, {"days": "Sun", "time": "Closed"}], "id": "7643500001", "name": "USPS COLLECTION BOX - PO LOBBY", "address": {"city": "CARBON", "state": "TX", "street": "1 MAIN ST", "postcode": "76435"}}},
{"geometry": {"type": "Point", "coordinates": [-98.8282407663, 32.2713503439]}, "type": "Feature", "properties": {"collection_times": [{"days": "Mon-Fri", "time": "2:45pm"}, {"days": "Sat", "time": "9:45am"}, {"days": "Sun", "time": "Closed"}], "id": "7643500002", "name": "USPS COLLECTION BOX - BLUE BOX", "address": {"city": "CARBON", "state": "TX", "street": "1 MAIN ST", "postcode": "76435"}}},
{"geometry": {"type": "Point", "coordinates": [-98.8282407663, 32.2713503439]}, "type": "Feature", "properties": {"collection_times": [{"days": "Mon-Fri", "time": "2:45pm"}, {"days": "Sat", "time": "9:45am"}, {"days": "Sun", "time": "Closed"}], "id": "7643500004", "name": "USPS COLLECTION BOX - PO LOBBY", "address": {"city": "CARBON", "state": "TX", "street": "1 MAIN ST", "postcode": "76435"}}},
{"geometry": {"type": "Point", "coordinates": [-98.1336669572, 31.9054671648]}, "type": "Feature", "properties": {"collection_times": [{"days": "Mon-Fri", "time": "3:45pm"}, {"days": "Sat", "time": "9:45am"}, {"days": "Sun", "time": "Closed"}], "id": "7643600002", "name": "USPS COLLECTION BOX - BLUE BOX", "address": {"city": "CARLTON", "state": "TX", "street": "139 N FM 1744", "postcode": "76436"}}},
{"geometry": {"type": "Point", "coordinates": [-98.1336669572, 31.9054671648]}, "type": "Feature", "properties": {"collection_times": [{"days": "Mon-Fri", "time": "3:45pm"}, {"days": "Sat", "time": "9:45am"}, {"days": "Sun", "time": "Closed"}], "id": "7643600003", "name": "USPS COLLECTION BOX - PO LOBBY", "address": {"city": "CARLTON", "state": "TX", "street": "139 N FM 1744", "postcode": "76436"}}},
{"geometry": {"type": "Point", "coordinates": [-98.1336669572, 31.9054671648]}, "type": "Feature", "properties": {"collection_times": [{"days": "Mon-Fri", "time": "3:45pm"}, {"days": "Sat", "time": "9:45am"}, {"days": "Sun", "time": "Closed"}], "id": "7643600004", "name": "USPS COLLECTION BOX - PO LOBBY", "address": {"city": "CARLTON", "state": "TX", "street": "139 N FM 1744", "postcode": "76436"}}},
{"geometry": {"type": "Point", "coordinates": [-98.9817767889, 32.3898738593]}, "type": "Feature", "properties": {"collection_times": [{"days": "Mon-Fri", "time": "4:45pm"}, {"days": "Sat", "time": "11:30am"}, {"days": "Sun", "time": "Closed"}], "id": "7643700006", "name": "USPS COLLECTION BOX - BLUE BOX", "address": {"city": "CISCO", "state": "TX", "street": "508 AVENUE E", "postcode": "76437"}}},
{"geometry": {"type": "Point", "coordinates": [-98.9803531197, 32.3898113236]}, "type": "Feature", "properties": {"collection_times": [{"days": "Mon-Fri", "time": "4:45pm"}, {"days": "Sat", "time": "11:30am"}, {"days": "Sun", "time": "Closed"}], "id": "7643700008", "name": "USPS COLLECTION BOX - PO LOBBY", "address": {"city": "CISCO", "state": "TX", "street": "206 W 6TH ST", "postcode": "76437"}}},
{"geometry": {"type": "Point", "coordinates": [-98.9803531197, 32.3898113236]}, "type": "Feature", "properties": {"collection_times": [{"days": "Mon-Fri", "time": "4:45pm"}, {"days": "Sat", "time": "11:30am"}, {"days": "Sun", "time": "Closed"}], "id": "7643700009", "name": "USPS COLLECTION BOX - PO LOBBY", "address": {"city": "CISCO", "state": "TX", "street": "206 W 6TH ST", "postcode": "76437"}}},
{"geometry": {"type": "Point", "coordinates": [-98.9803531197, 32.3898113236]}, "type": "Feature", "properties": {"collection_times": [{"days": "Mon-Fri", "time": "4:45pm"}, {"days": "Sat", "time": "11:30am"}, {"days": "Sun", "time": "Closed"}], "id": "7643700010", "name": "USPS COLLECTION BOX - PO LOBBY", "address": {"city": "CISCO", "state": "TX", "street": "206 W 6TH ST", "postcode": "76437"}}},
{"geometry": {"type": "Point", "coordinates": [-97.9255858881, 32.6187140282]}, "type": "Feature", "properties": {"collection_times": [{"days": "Mon-Fri", "time": "4:00pm"}, {"days": "Sat", "time": "1:00pm"}, {"days": "Sun", "time": "Closed"}], "id": "7643900001", "name": "USPS COLLECTION BOX - BLUE BOX", "address": {"city": "DENNIS", "state": "TX", "street": "6940 FM 1189", "postcode": "76439"}}},
{"geometry": {"type": "Point", "coordinates": [-97.9255858881, 32.6187140282]}, "type": "Feature", "properties": {"collection_times": [{"days": "Mon-Fri", "time": "4:00pm"}, {"days": "Sat", "time": "1:00pm"}, {"days": "Sun", "time": "Closed"}], "id": "7643900002", "name": "USPS COLLECTION BOX - PO LOBBY", "address": {"city": "DENNIS", "state": "TX", "street": "6940 FM 1189", "postcode": "76439"}}},
{"geometry": {"type": "Point", "coordinates": [-98.6037473818, 31.898458007]}, "type": "Feature", "properties": {"collection_times": [{"days": "Mon-Fri", "time": "4:00pm"}, {"days": "Sat", "time": "12:00pm"}, {"days": "Sun", "time": "Closed"}], "id": "7644200004", "name": "USPS COLLECTION BOX - BLUE BOX", "address": {"city": "COMANCHE", "state": "TX", "street": "110 E GRAND AVE", "postcode": "76442"}}},
{"geometry": {"type": "Point", "coordinates": [-98.6074995856, 31.896385165]}, "type": "Feature", "properties": {"collection_times": [{"days": "Mon-Fri", "time": "4:30pm"}, {"days": "Sat", "time": "3:00pm"}, {"days": "Sun", "time": "Closed"}], "id": "7644200005", "name": "USPS COLLECTION BOX - BLUE BOX", "address": {"city": "COMANCHE", "state": "TX", "street": "410 W OAK AVE", "postcode": "76442"}}},
{"geometry": {"type": "Point", "coordinates": [-98.599055896, 31.9119530581]}, "type": "Feature", "properties": {"collection_times": [{"days": "Mon-Fri", "time": "12:30pm"}, {"days": "Sat", "time": "9:30am"}, {"days": "Sun", "time": "Closed"}], "id": "7644200006", "name": "USPS COLLECTION BOX - BLUE BOX", "address": {"city": "COMANCHE", "state": "TX", "street": "4 HUETT CIR", "postcode": "76442"}}},
{"geometry": {"type": "Point", "coordinates": [-98.6074995856, 31.896385165]}, "type": "Feature", "properties": {"collection_times": [{"days": "Mon-Fri", "time": "4:30pm"}, {"days": "Sat", "time": "3:00pm"}, {"days": "Sun", "time": "Closed"}], "id": "7644200008", "name": "USPS COLLECTION BOX - PO LOBBY", "address": {"city": "COMANCHE", "state": "TX", "street": "410 W OAK AVE", "postcode": "76442"}}},
{"geometry": {"type": "Point", "coordinates": [-99.1642884434, 32.1253068441]}, "type": "Feature", "properties": {"collection_times": [{"days": "Mon-Fri", "time": "4:00pm"}, {"days": "Sat", "time": "10:00am"}, {"days": "Sun", "time": "Closed"}], "id": "7644300001", "name": "USPS COLLECTION BOX - BLUE BOX", "address": {"city": "CROSS PLAINS", "state": "TX", "street": "101 N AVENUE D", "postcode": "76443"}}},
{"geometry": {"type": "Point", "coordinates": [-99.1642884434, 32.1253068441]}, "type": "Feature", "properties": {"collection_times": [{"days": "Mon-Fri", "time": "4:00pm"}, {"days": "Sat-Sun", "time": "Closed"}], "id": "7644300003", "name": "USPS COLLECTION BOX - PO LOBBY", "address": {"city": "CROSS PLAINS", "state": "TX", "street": "101 N AVENUE D", "postcode": "76443"}}},
{"geometry": {"type": "Point", "coordinates": [-98.5394260225, 32.1185028107]}, "type": "Feature", "properties": {"collection_times": [{"days": "Mon-Fri", "time": "4:00pm"}, {"days": "Sat", "time": "10:00am"}, {"days": "Sun", "time": "Closed"}], "id": "7644400001", "name": "USPS COLLECTION BOX - BLUE BOX", "address": {"city": "DE LEON", "state": "TX", "street": "540 W NAVARRO AVE", "postcode": "76444"}}},
{"geometry": {"type": "Point", "coordinates": [-98.5394260225, 32.1185028107]}, "type": "Feature", "properties": {"collection_times": [{"days": "Mon-Fri", "time": "4:00pm"}, {"days": "Sat", "time": "10:00am"}, {"days": "Sun", "time": "Closed"}], "id": "7644400002", "name": "USPS COLLECTION BOX - PO LOBBY", "address": {"city": "DE LEON", "state": "TX", "street": "540 W NAVARRO AVE", "postcode": "76444"}}},
{"geometry": {"type": "Point", "coordinates": [-98.6030887282, 32.2517307179]}, "type": "Feature", "properties": {"collection_times": [{"days": "Mon-Fri", "time": "12:15pm"}, {"days": "Sat", "time": "10:30am"}, {"days": "Sun", "time": "Closed"}], "id": "7644500001", "name": "USPS COLLECTION BOX - BLUE BOX", "address": {"city": "DESDEMONA", "state": "TX", "street": "6016 HIGHWAY 8", "postcode": "76445"}}},
{"geometry": {"type": "Point", "coordinates": [-98.6030887282, 32.2517307179]}, "type": "Feature", "properties": {"collection_times": [{"days": "Mon-Fri", "time": "12:15pm"}, {"days": "Sat", "time": "10:30am"}, {"days": "Sun", "time": "Closed"}], "id": "7644500002", "name": "USPS COLLECTION BOX - PO LOBBY", "address": {"city": "DESDEMONA", "state": "TX", "street": "6016 HIGHWAY 8", "postcode": "76445"}}},
{"geometry": {"type": "Point", "coordinates": [-98.6030887282, 32.2517307179]}, "type": "Feature", "properties": {"collection_times": [{"days": "Mon-Fri", "time": "12:15pm"}, {"days": "Sat", "time": "10:30am"}, {"days": "Sun", "time": "Closed"}], "id": "7644500003", "name": "USPS COLLECTION BOX - PO LOBBY", "address": {"city": "DESDEMONA", "state": "TX", "street": "6016 HIGHWAY 8", "postcode": "76445"}}},
{"geometry": {"type": "Point", "coordinates": [-98.3638170798, 31.9405463468]}, "type": "Feature", "properties": {"collection_times": [{"days": "Mon-Fri", "time": "4:30pm"}, {"days": "Sat", "time": "2:30pm"}, {"days": "Sun", "time": "Closed"}], "id": "7644600001", "name": "USPS COLLECTION BOX - BLUE BOX", "address": {"city": "DUBLIN", "state": "TX", "street": "100 PECAN ST", "postcode": "76446"}}},
{"geometry": {"type": "Point", "coordinates": [-98.3414373577, 32.0884035063]}, "type": "Feature", "properties": {"collection_times": [{"days": "Mon-Fri", "time": "4:30pm"}, {"days": "Sat", "time": "2:30pm"}, {"days": "Sun", "time": "Closed"}], "id": "7644600002", "name": "USPS COLLECTION BOX - PO LOBBY", "address": {"city": "DUBLIN", "state": "TX", "street": "222 N PATRICK ST", "postcode": "76446"}}},
{"geometry": {"type": "Point", "coordinates": [-98.3414373577, 32.0884035063]}, "type": "Feature", "properties": {"collection_times": [{"days": "Mon-Fri", "time": "4:30pm"}, {"days": "Sat", "time": "2:30pm"}, {"days": "Sun", "time": "Closed"}], "id": "7644600003", "name": "USPS COLLECTION BOX - PO LOBBY", "address": {"city": "DUBLIN", "state": "TX", "street": "222 N PATRICK ST", "postcode": "76446"}}},
{"geometry": {"type": "Point", "coordinates": [-98.8217018432, 32.4017957387]}, "type": "Feature", "properties": {"collection_times": [{"days": "Mon-Fri", "time": "4:30pm"}, {"days": "Sat", "time": "3:00pm"}, {"days": "Sun", "time": "Closed"}], "id": "7644800001", "name": "USPS COLLECTION BOX - BLUE BOX", "address": {"city": "EASTLAND", "state": "TX", "street": "101 N DAUGHERTY AVE", "postcode": "76448"}}},
{"geometry": {"type": "Point", "coordinates": [-98.8217018432, 32.4017957387]}, "type": "Feature", "properties": {"collection_times": [{"days": "Mon-Fri", "time": "4:30pm"}, {"days": "Sat", "time": "3:00pm"}, {"days": "Sun", "time": "Closed"}], "id": "7644800010", "name": "USPS COLLECTION BOX - BLUE BOX", "address": {"city": "EASTLAND", "state": "TX", "street": "101 N DAUGHERTY AVE", "postcode": "76448"}}},
{"geometry": {"type": "Point", "coordinates": [-98.8198807303, 32.4017175086]}, "type": "Feature", "properties": {"collection_times": [{"days": "Mon-Fri", "time": "4:30pm"}, {"days": "Sat", "time": "3:00pm"}, {"days": "Sun", "time": "Closed"}], "id": "7644800012", "name": "USPS COLLECTION BOX - PO LOBBY", "address": {"city": "EASTLAND", "state": "TX", "street": "411 W MAIN ST", "postcode": "76448"}}},
{"geometry": {"type": "Point", "coordinates": [-98.8131159004, 32.4018097144]}, "type": "Feature", "properties": {"collection_times": [{"days": "Mon-Fri", "time": "1:30pm"}, {"days": "Sat-Sun", "time": "Closed"}], "id": "7644800018", "name": "USPS COLLECTION BOX - BLUE BOX", "address": {"city": "EASTLAND", "state": "TX", "street": "100 W MAIN ST", "postcode": "76448"}}},
{"geometry": {"type": "Point", "coordinates": [-98.8215719788, 32.4017957387]}, "type": "Feature", "properties": {"collection_times": [{"days": "Mon-Fri", "time": "4:30pm"}, {"days": "Sat", "time": "3:00pm"}, {"days": "Sun", "time": "Closed"}], "id": "7644800019", "name": "USPS COLLECTION BOX - BLUE BOX", "address": {"city": "EASTLAND", "state": "TX", "street": "100 N DAUGHERTY AVE", "postcode": "76448"}}},
{"geometry": {"type": "Point", "coordinates": [-98.7970698407, 32.4002427584]}, "type": "Feature", "properties": {"collection_times": [{"days": "Mon-Fri", "time": "4:30pm"}, {"days": "Sat", "time": "3:00pm"}, {"days": "Sun", "time": "Closed"}], "id": "7644800020", "name": "USPS COLLECTION BOX - BLUE BOX", "address": {"city": "EASTLAND", "state": "TX", "street": "100 N DAUGHERTY AVE", "postcode": "76448"}}},
{"geometry": {"type": "Point", "coordinates": [-98.1595642351, 32.9653256263]}, "type": "Feature", "properties": {"collection_times": [{"days": "Mon-Fri", "time": "3:45pm"}, {"days": "Sat", "time": "9:15am"}, {"days": "Sun", "time": "Closed"}], "id": "7644900002", "name": "USPS COLLECTION BOX - BLUE BOX", "address": {"city": "GRAFORD", "state": "TX", "street": "118 N MAIN ST", "postcode": "76449"}}},
{"geometry": {"type": "Point", "coordinates": [-98.459332365, 32.8895709119]}, "type": "Feature", "properties": {"collection_times": [{"days": "Mon-Sat", "time": "11:45am"}, {"days": "Sun", "time": "Closed"}], "id": "7644900003", "name": "USPS COLLECTION BOX - BLUE BOX", "address": {"city": "GRAFORD", "state": "TX", "street": "1400 PARK ROAD 36", "postcode": "76449"}}},
{"geometry": {"type": "Point", "coordinates": [-98.4481435094, 32.8895698355]}, "type": "Feature", "properties": {"collection_times": [{"days": "Mon-Sat", "time": "11:30am"}, {"days": "Sun", "time": "Closed"}], "id": "7644900004", "name": "USPS COLLECTION BOX - BLUE BOX", "address": {"city": "GRAFORD", "state": "TX", "street": "1712 PARK ROAD 36", "postcode": "76449"}}},
{"geometry": {"type": "Point", "coordinates": [-98.4294678588, 32.9239167015]}, "type": "Feature", "properties": {"collection_times": [{"days": "Mon-Sat", "time": "10:00am"}, {"days": "Sun", "time": "Closed"}], "id": "7644900005", "name": "USPS COLLECTION BOX - BLUE BOX", "address": {"city": "GRAFORD", "state": "TX", "street": "605 N FM 2353", "postcode": "76449"}}},
{"geometry": {"type": "Point", "coordinates": [-98.1595642351, 32.9653256263]}, "type": "Feature", "properties": {"collection_times": [{"days": "Mon-Fri", "time": "3:45pm"}, {"days": "Sat", "time": "9:15am"}, {"days": "Sun", "time": "Closed"}], "id": "7644900007", "name": "USPS COLLECTION BOX - PO LOBBY", "address": {"city": "GRAFORD", "state": "TX", "street": "118 N MAIN ST", "postcode": "76449"}}},
{"geometry": {"type": "Point", "coordinates": [-98.5828626782, 33.0814481987]}, "type": "Feature", "properties": {"collection_times": [{"days": "Mon-Fri", "time": "12:00pm"}, {"days": "Sat", "time": "10:00am"}, {"days": "Sun", "time": "Closed"}], "id": "7645000006", "name": "USPS COLLECTION BOX - BLUE BOX", "address": {"city": "GRAHAM", "state": "TX", "street": "2121 STATE HIGHWAY 16 S", "postcode": "76450"}}},
{"geometry": {"type": "Point", "coordinates": [-98.591092529, 33.1058175709]}, "type": "Feature", "properties": {"collection_times": [{"days": "Mon-Sat", "time": "3:00pm"}, {"days": "Sun", "time": "Closed"}], "id": "7645000007", "name": "USPS COLLECTION BOX - BLUE BOX", "address": {"city": "GRAHAM", "state": "TX", "street": "510 3RD ST", "postcode": "76450"}}},
{"geometry": {"type": "Point", "coordinates": [-98.5794835624, 33.1152472716]}, "type": "Feature", "properties": {"collection_times": [{"days": "Mon-Fri", "time": "4:30pm"}, {"days": "Sat", "time": "3:30pm"}, {"days": "Sun", "time": "Closed"}], "id": "7645000011", "name": "USPS COLLECTION BOX - BLUE BOX", "address": {"city": "GRAHAM", "state": "TX", "street": "100 TENNESSEE ST", "postcode": "76450"}}},
{"geometry": {"type": "Point", "coordinates": [-98.5794835624, 33.1152472716]}, "type": "Feature", "properties": {"collection_times": [{"days": "Mon-Fri", "time": "4:30pm"}, {"days": "Sat", "time": "3:30pm"}, {"days": "Sun", "time": "Closed"}], "id": "7645000012", "name": "USPS COLLECTION BOX - BLUE BOX", "address": {"city": "GRAHAM", "state": "TX", "street": "100 TENNESSEE ST", "postcode": "76450"}}},
{"geometry": {"type": "Point", "coordinates": [-98.5794835624, 33.1152472716]}, "type": "Feature", "properties": {"collection_times": [{"days": "Mon-Fri", "time": "4:30pm"}, {"days": "Sat", "time": "3:30pm"}, {"days": "Sun", "time": "Closed"}], "id": "7645000015", "name": "USPS COLLECTION BOX - PO LOBBY", "address": {"city": "GRAHAM", "state": "TX", "street": "100 TENNESSEE ST", "postcode": "76450"}}},
{"geometry": {"type": "Point", "coordinates": [-98.5794835624, 33.1152472716]}, "type": "Feature", "properties": {"collection_times": [{"days": "Mon-Fri", "time": "4:30pm"}, {"days": "Sat", "time": "3:30pm"}, {"days": "Sun", "time": "Closed"}], "id": "7645000016", "name": "USPS COLLECTION BOX - PO LOBBY", "address": {"city": "GRAHAM", "state": "TX", "street": "100 TENNESSEE ST", "postcode": "76450"}}},
{"geometry": {"type": "Point", "coordinates": [-98.5794835624, 33.1152472716]}, "type": "Feature", "properties": {"collection_times": [{"days": "Mon-Fri", "time": "4:30pm"}, {"days": "Sat", "time": "3:30pm"}, {"days": "Sun", "time": "Closed"}], "id": "7645000017", "name": "USPS COLLECTION BOX - BLUE BOX", "address": {"city": "GRAHAM", "state": "TX", "street": "100 TENNESSEE ST", "postcode": "76450"}}},
{"geometry": {"type": "Point", "coordinates": [-98.3705928035, 31.7576685831]}, "type": "Feature", "properties": {"collection_times": [{"days": "Mon-Fri", "time": "12:00pm"}, {"days": "Sat", "time": "10:15am"}, {"days": "Sun", "time": "Closed"}], "id": "7645200001", "name": "USPS COLLECTION BOX - BLUE BOX", "address": {"city": "ENERGY", "state": "TX", "street": "6951 FM 1702 S", "postcode": "76452"}}},
{"geometry": {"type": "Point", "coordinates": [-98.3705928035, 31.7576685831]}, "type": "Feature", "properties": {"collection_times": [{"days": "Mon-Fri", "time": "12:15pm"}, {"days": "Sat", "time": "10:15am"}, {"days": "Sun", "time": "Closed"}], "id": "7645200002", "name": "USPS COLLECTION BOX - PO LOBBY", "address": {"city": "ENERGY", "state": "TX", "street": "6951 FM 1702 S", "postcode": "76452"}}},
{"geometry": {"type": "Point", "coordinates": [-98.3694115194, 32.5475502743]}, "type": "Feature", "properties": {"collection_times": [{"days": "Mon-Fri", "time": "2:15pm"}, {"days": "Sat", "time": "9:30am"}, {"days": "Sun", "time": "Closed"}], "id": "7645300001", "name": "USPS COLLECTION BOX - PO LOBBY", "address": {"city": "GORDON", "state": "TX", "street": "201 S MAIN ST", "postcode": "76453"}}},
{"geometry": {"type": "Point", "coordinates": [-98.3694115194, 32.5475502743]}, "type": "Feature", "properties": {"collection_times": [{"days": "Mon-Fri", "time": "2:15pm"}, {"days": "Sat", "time": "9:30am"}, {"days": "Sun", "time": "Closed"}], "id": "7645300002", "name": "USPS COLLECTION BOX - BLUE BOX", "address": {"city": "GORDON", "state": "TX", "street": "201 S MAIN ST", "postcode": "76453"}}},
{"geometry": {"type": "Point", "coordinates": [-98.6725373884, 32.2119462328]}, "type": "Feature", "properties": {"collection_times": [{"days": "Mon-Fri", "time": "3:45pm"}, {"days": "Sat", "time": "9:00am"}, {"days": "Sun", "time": "Closed"}], "id": "7645400001", "name": "USPS COLLECTION BOX - BLUE BOX", "address": {"city": "GORMAN", "state": "TX", "street": "112 N KENT ST", "postcode": "76454"}}},
{"geometry": {"type": "Point", "coordinates": [-98.6725373884, 32.2119462328]}, "type": "Feature", "properties": {"collection_times": [{"days": "Mon-Fri", "time": "3:45pm"}, {"days": "Sat", "time": "9:00am"}, {"days": "Sun", "time": "Closed"}], "id": "7645400002", "name": "USPS COLLECTION BOX - PO LOBBY", "address": {"city": "GORMAN", "state": "TX", "street": "112 N KENT ST", "postcode": "76454"}}},
{"geometry": {"type": "Point", "coordinates": [-98.6725373884, 32.2119462328]}, "type": "Feature", "properties": {"collection_times": [{"days": "Mon-Fri", "time": "3:45pm"}, {"days": "Sat", "time": "9:00am"}, {"days": "Sun", "time": "Closed"}], "id": "7645400003", "name": "USPS COLLECTION BOX - PO LOBBY", "address": {"city": "GORMAN", "state": "TX", "street": "112 N KENT ST", "postcode": "76454"}}},
{"geometry": {"type": "Point", "coordinates": [-98.4020843952, 31.8445612833]}, "type": "Feature", "properties": {"collection_times": [{"days": "Mon-Fri", "time": "3:15pm"}, {"days": "Sat", "time": "10:00am"}, {"days": "Sun", "time": "Closed"}], "id": "7645500001", "name": "USPS COLLECTION BOX - BLUE BOX", "address": {"city": "GUSTINE", "state": "TX", "street": "213 E MAIN ST", "postcode": "76455"}}},
{"geometry": {"type": "Point", "coordinates": [-98.4020843952, 31.8445612833]}, "type": "Feature", "properties": {"collection_times": [{"days": "Mon-Fri", "time": "3:30pm"}, {"days": "Sat", "time": "11:00am"}, {"days": "Sun", "time": "Closed"}], "id": "7645500002", "name": "USPS COLLECTION BOX - PO LOBBY", "address": {"city": "GUSTINE", "state": "TX", "street": "213 E MAIN ST", "postcode": "76455"}}},
{"geometry": {"type": "Point", "coordinates": [-98.031341441, 31.981486654]}, "type": "Feature", "properties": {"collection_times": [{"days": "Mon-Fri", "time": "4:00pm"}, {"days": "Sat", "time": "12:00pm"}, {"days": "Sun", "time": "Closed"}], "id": "7645700001", "name": "USPS COLLECTION BOX - BLUE BOX", "address": {"city": "HICO", "state": "TX", "street": "112 E 1ST ST", "postcode": "76457"}}},
{"geometry": {"type": "Point", "coordinates": [-98.031341441, 31.981486654]}, "type": "Feature", "properties": {"collection_times": [{"days": "Mon-Fri", "time": "4:00pm"}, {"days": "Sat", "time": "8:00am"}, {"days": "Sun", "time": "Closed"}], "id": "7645700002", "name": "USPS COLLECTION BOX - PO LOBBY", "address": {"city": "HICO", "state": "TX", "street": "112 E 1ST ST", "postcode": "76457"}}},
{"geometry": {"type": "Point", "coordinates": [-98.1586031646, 33.218298581]}, "type": "Feature", "properties": {"collection_times": [{"days": "Mon-Fri", "time": "1:30pm"}, {"days": "Sat-Sun", "time": "Closed"}], "id": "7645800001", "name": "USPS COLLECTION BOX - BLUE BOX", "address": {"city": "JACKSBORO", "state": "TX", "street": "100 N MAIN ST", "postcode": "76458"}}},
{"geometry": {"type": "Point", "coordinates": [-98.1587347276, 33.2176335919]}, "type": "Feature", "properties": {"collection_times": [{"days": "Mon-Fri", "time": "4:30pm"}, {"days": "Sat", "time": "2:00pm"}, {"days": "Sun", "time": "Closed"}], "id": "7645800005", "name": "USPS COLLECTION BOX - BLUE BOX", "address": {"city": "JACKSBORO", "state": "TX", "street": "100 E SOUTH ST", "postcode": "76458"}}},
{"geometry": {"type": "Point", "coordinates": [-98.1587347276, 33.2176335919]}, "type": "Feature", "properties": {"collection_times": [{"days": "Mon-Fri", "time": "4:30pm"}, {"days": "Sat", "time": "2:00pm"}, {"days": "Sun", "time": "Closed"}], "id": "7645800006", "name": "USPS COLLECTION BOX - PO LOBBY", "address": {"city": "JACKSBORO", "state": "TX", "street": "100 E SOUTH ST", "postcode": "76458"}}},
{"geometry": {"type": "Point", "coordinates": [-98.3987186636, 33.2609401111]}, "type": "Feature", "properties": {"collection_times": [{"days": "Mon-Fri", "time": "2:00pm"}, {"days": "Sat", "time": "8:00am"}, {"days": "Sun", "time": "Closed"}], "id": "7645900001", "name": "USPS COLLECTION BOX - BLUE BOX", "address": {"city": "JERMYN", "state": "TX", "street": "7664 STATE HIGHWAY 114", "postcode": "76459"}}},
{"geometry": {"type": "Point", "coordinates": [-98.3987186636, 33.2609401111]}, "type": "Feature", "properties": {"collection_times": [{"days": "Mon-Fri", "time": "10:45am"}, {"days": "Sat", "time": "8:00am"}, {"days": "Sun", "time": "Closed"}], "id": "7645900003", "name": "USPS COLLECTION BOX - PO LOBBY", "address": {"city": "JERMYN", "state": "TX", "street": "7664 STATE HIGHWAY 114", "postcode": "76459"}}},
{"geometry": {"type": "Point", "coordinates": [-98.4675002868, 33.2780847238]}, "type": "Feature", "properties": {"collection_times": [{"days": "Mon-Fri", "time": "3:45pm"}, {"days": "Sat", "time": "10:30am"}, {"days": "Sun", "time": "Closed"}], "id": "7646000001", "name": "USPS COLLECTION BOX - BLUE BOX", "address": {"city": "LOVING", "state": "TX", "street": "152 HAWKINS ST", "postcode": "76460"}}},
{"geometry": {"type": "Point", "coordinates": [-98.4675002868, 33.2780847238]}, "type": "Feature", "properties": {"collection_times": [{"days": "Mon-Fri", "time": "3:45pm"}, {"days": "Sat", "time": "10:30am"}, {"days": "Sun", "time": "Closed"}], "id": "7646000002", "name": "USPS COLLECTION BOX - PO LOBBY", "address": {"city": "LOVING", "state": "TX", "street": "152 HAWKINS ST", "postcode": "76460"}}},
{"geometry": {"type": "Point", "coordinates": [-98.377389839, 32.2441823118]}, "type": "Feature", "properties": {"collection_times": [{"days": "Mon-Sat", "time": "9:45am"}, {"days": "Sun", "time": "Closed"}], "id": "7646100001", "name": "USPS COLLECTION BOX - BLUE BOX", "address": {"city": "LINGLEVILLE", "state": "TX", "street": "18999 W FM 8", "postcode": "76461"}}},
{"geometry": {"type": "Point", "coordinates": [-98.377389839, 32.2441823118]}, "type": "Feature", "properties": {"collection_times": [{"days": "Mon-Sat", "time": "9:45am"}, {"days": "Sun", "time": "Closed"}], "id": "7646100003", "name": "USPS COLLECTION BOX - PO LOBBY", "address": {"city": "LINGLEVILLE", "state": "TX", "street": "18999 W FM 8", "postcode": "76461"}}},
{"geometry": {"type": "Point", "coordinates": [-98.0465448851, 32.5180019749]}, "type": "Feature", "properties": {"collection_times": [{"days": "Mon-Fri", "time": "4:00pm"}, {"days": "Sat", "time": "10:00am"}, {"days": "Sun", "time": "Closed"}], "id": "7646200001", "name": "USPS COLLECTION BOX - BLUE BOX", "address": {"city": "LIPAN", "state": "TX", "street": "106 W LIPAN DR", "postcode": "76462"}}},
{"geometry": {"type": "Point", "coordinates": [-98.0465448851, 32.5180019749]}, "type": "Feature", "properties": {"collection_times": [{"days": "Mon-Fri", "time": "4:00pm"}, {"days": "Sat", "time": "10:00am"}, {"days": "Sun", "time": "Closed"}], "id": "7646200002", "name": "USPS COLLECTION BOX - PO LOBBY", "address": {"city": "LIPAN", "state": "TX", "street": "106 W LIPAN DR", "postcode": "76462"}}},
{"geometry": {"type": "Point", "coordinates": [-98.4149823737, 32.542336068]}, "type": "Feature", "properties": {"collection_times": [{"days": "Mon-Fri", "time": "3:00pm"}, {"days": "Sat", "time": "10:00am"}, {"days": "Sun", "time": "Closed"}], "id": "7646300001", "name": "USPS COLLECTION BOX - BLUE BOX", "address": {"city": "MINGUS", "state": "TX", "street": "109 GORDON RD", "postcode": "76463"}}},
{"geometry": {"type": "Point", "coordinates": [-98.4149823737, 32.542336068]}, "type": "Feature", "properties": {"collection_times": [{"days": "Mon-Fri", "time": "3:00pm"}, {"days": "Sat", "time": "10:00am"}, {"days": "Sun", "time": "Closed"}], "id": "7646300003", "name": "USPS COLLECTION BOX - PO LOBBY", "address": {"city": "MINGUS", "state": "TX", "street": "109 GORDON RD", "postcode": "76463"}}},
{"geometry": {"type": "Point", "coordinates": [-98.4149823737, 32.542336068]}, "type": "Feature", "properties": {"collection_times": [{"days": "Mon-Fri", "time": "3:00pm"}, {"days": "Sat", "time": "10:00am"}, {"days": "Sun", "time": "Closed"}], "id": "7646300004", "name": "USPS COLLECTION BOX - PO LOBBY", "address": {"city": "MINGUS", "state": "TX", "street": "109 GORDON RD", "postcode": "76463"}}},
{"geometry": {"type": "Point", "coordinates": [-99.1656742162, 32.5454777847]}, "type": "Feature", "properties": {"collection_times": [{"days": "Mon-Fri", "time": "11:45am"}, {"days": "Sat", "time": "9:45am"}, {"days": "Sun", "time": "Closed"}], "id": "7646400002", "name": "USPS COLLECTION BOX - PO LOBBY", "address": {"city": "MORAN", "state": "TX", "street": "340 WATERS ST", "postcode": "76464"}}},
{"geometry": {"type": "Point", "coordinates": [-98.1669815241, 32.3881788728]}, "type": "Feature", "properties": {"collection_times": [{"days": "Mon-Fri", "time": "3:30pm"}, {"days": "Sat", "time": "11:00am"}, {"days": "Sun", "time": "Closed"}], "id": "7646500001", "name": "USPS COLLECTION BOX - PO LOBBY", "address": {"city": "MORGAN MILL", "state": "TX", "street": "20909 N US HIGHWAY 281", "postcode": "76465"}}},
{"geometry": {"type": "Point", "coordinates": [-98.1669815241, 32.3881788728]}, "type": "Feature", "properties": {"collection_times": [{"days": "Mon-Fri", "time": "3:30pm"}, {"days": "Sat", "time": "11:00am"}, {"days": "Sun", "time": "Closed"}], "id": "7646500002", "name": "USPS COLLECTION BOX - BLUE BOX", "address": {"city": "MORGAN MILL", "state": "TX", "street": "20909 N US HIGHWAY 281", "postcode": "76465"}}},
{"geometry": {"type": "Point", "coordinates": [-98.7498727834, 32.4192514411]}, "type": "Feature", "properties": {"collection_times": [{"days": "Mon-Fri", "time": "3:30pm"}, {"days": "Sat", "time": "9:30am"}, {"days": "Sun", "time": "Closed"}], "id": "7646600001", "name": "USPS COLLECTION BOX - BLUE BOX", "address": {"city": "OLDEN", "state": "TX", "street": "526 FM 3363", "postcode": "76466"}}},
{"geometry": {"type": "Point", "coordinates": [-98.7498727834, 32.4192514411]}, "type": "Feature", "properties": {"collection_times": [{"days": "Mon-Fri", "time": "3:30pm"}, {"days": "Sat", "time": "9:30am"}, {"days": "Sun", "time": "Closed"}], "id": "7646600002", "name": "USPS COLLECTION BOX - PO LOBBY", "address": {"city": "OLDEN", "state": "TX", "street": "526 FM 3363", "postcode": "76466"}}},
{"geometry": {"type": "Point", "coordinates": [-98.7498727834, 32.4192514411]}, "type": "Feature", "properties": {"collection_times": [{"days": "Mon-Fri", "time": "3:30pm"}, {"days": "Sat", "time": "9:30am"}, {"days": "Sun", "time": "Closed"}], "id": "7646600003", "name": "USPS COLLECTION BOX - PO LOBBY", "address": {"city": "OLDEN", "state": "TX", "street": "526 FM 3363", "postcode": "76466"}}},
{"geometry": {"type": "Point", "coordinates": [-98.4340692155, 31.9900734915]}, "type": "Feature", "properties": {"collection_times": [{"days": "Mon-Fri", "time": "3:30pm"}, {"days": "Sat", "time": "11:00am"}, {"days": "Sun", "time": "Closed"}], "id": "7646800001", "name": "USPS COLLECTION BOX - BLUE BOX", "address": {"city": "PROCTOR", "state": "TX", "street": "1270 HIGHWAY 1476", "postcode": "76468"}}},
{"geometry": {"type": "Point", "coordinates": [-98.4340692155, 31.9900734915]}, "type": "Feature", "properties": {"collection_times": [{"days": "Mon-Fri", "time": "3:30pm"}, {"days": "Sat", "time": "11:00am"}, {"days": "Sun", "time": "Closed"}], "id": "7646800002", "name": "USPS COLLECTION BOX - PO LOBBY", "address": {"city": "PROCTOR", "state": "TX", "street": "1270 HIGHWAY 1476", "postcode": "76468"}}},
{"geometry": {"type": "Point", "coordinates": [-99.1958573805, 32.3720612888]}, "type": "Feature", "properties": {"collection_times": [{"days": "Mon-Fri", "time": "9:00am"}, {"days": "Sat", "time": "7:00am"}, {"days": "Sun", "time": "Closed"}], "id": "7646900001", "name": "USPS COLLECTION BOX - PO LOBBY", "address": {"city": "PUTNAM", "state": "TX", "street": "104 W TRAVIS ST", "postcode": "76469"}}},
{"geometry": {"type": "Point", "coordinates": [-98.6812336184, 32.4721004856]}, "type": "Feature", "properties": {"collection_times": [{"days": "Mon-Fri", "time": "4:00pm"}, {"days": "Sat", "time": "9:00am"}, {"days": "Sun", "time": "Closed"}], "id": "7647000001", "name": "USPS COLLECTION BOX - BLUE BOX", "address": {"city": "RANGER", "state": "TX", "street": "202 N AUSTIN ST", "postcode": "76470"}}},
{"geometry": {"type": "Point", "coordinates": [-98.6951562447, 32.4426309462]}, "type": "Feature", "properties": {"collection_times": [{"days": "Mon-Sat", "time": "10:30am"}, {"days": "Sun", "time": "Closed"}], "id": "7647000011", "name": "USPS COLLECTION BOX - BLUE BOX", "address": {"city": "RANGER", "state": "TX", "street": "1600 W LOOP 254", "postcode": "76470"}}},
{"geometry": {"type": "Point", "coordinates": [-98.6812336184, 32.4721004856]}, "type": "Feature", "properties": {"collection_times": [{"days": "Mon-Fri", "time": "4:00pm"}, {"days": "Sat", "time": "9:00am"}, {"days": "Sun", "time": "Closed"}], "id": "7647000012", "name": "USPS COLLECTION BOX - BLUE BOX", "address": {"city": "RANGER", "state": "TX", "street": "202 N AUSTIN ST", "postcode": "76470"}}},
{"geometry": {"type": "Point", "coordinates": [-98.6812336184, 32.4721004856]}, "type": "Feature", "properties": {"collection_times": [{"days": "Mon-Fri", "time": "4:00pm"}, {"days": "Sat", "time": "9:00am"}, {"days": "Sun", "time": "Closed"}], "id": "7647000013", "name": "USPS COLLECTION BOX - PO LOBBY", "address": {"city": "RANGER", "state": "TX", "street": "202 N AUSTIN ST", "postcode": "76470"}}},
{"geometry": {"type": "Point", "coordinates": [-98.6812336184, 32.4721004856]}, "type": "Feature", "properties": {"collection_times": [{"days": "Mon-Fri", "time": "4:00pm"}, {"days": "Sat", "time": "9:00am"}, {"days": "Sun", "time": "Closed"}], "id": "7647000014", "name": "USPS COLLECTION BOX - PO LOBBY", "address": {"city": "RANGER", "state": "TX", "street": "202 N AUSTIN ST", "postcode": "76470"}}},
{"geometry": {"type": "Point", "coordinates": [-98.6812336184, 32.4721004856]}, "type": "Feature", "properties": {"collection_times": [{"days": "Mon-Fri", "time": "4:00pm"}, {"days": "Sat", "time": "9:00am"}, {"days": "Sun", "time": "Closed"}], "id": "7647000015", "name": "USPS COLLECTION BOX - PO LOBBY", "address": {"city": "RANGER", "state": "TX", "street": "202 N AUSTIN ST", "postcode": "76470"}}},
{"geometry": {"type": "Point", "coordinates": [-98.6812336184, 32.4721004856]}, "type": "Feature", "properties": {"collection_times": [{"days": "Mon-Fri", "time": "4:00pm"}, {"days": "Sat", "time": "9:00am"}, {"days": "Sun", "time": "Closed"}], "id": "7647000016", "name": "USPS COLLECTION BOX - PO LOBBY", "address": {"city": "RANGER", "state": "TX", "street": "202 N AUSTIN ST", "postcode": "76470"}}},
{"geometry": {"type": "Point", "coordinates": [-98.9638449849, 32.0960603698]}, "type": "Feature", "properties": {"collection_times": [{"days": "Mon-Fri", "time": "4:15pm"}, {"days": "Sat", "time": "10:00am"}, {"days": "Sun", "time": "Closed"}], "id": "7647100001", "name": "USPS COLLECTION BOX - BLUE BOX", "address": {"city": "RISING STAR", "state": "TX", "street": "124 N MAIN ST", "postcode": "76471"}}},
{"geometry": {"type": "Point", "coordinates": [-98.9638449849, 32.0960603698]}, "type": "Feature", "properties": {"collection_times": [{"days": "Mon-Fri", "time": "4:15pm"}, {"days": "Sat", "time": "10:00am"}, {"days": "Sun", "time": "Closed"}], "id": "7647100003", "name": "USPS COLLECTION BOX - PO LOBBY", "address": {"city": "RISING STAR", "state": "TX", "street": "124 N MAIN ST", "postcode": "76471"}}},
{"geometry": {"type": "Point", "coordinates": [-98.2161291338, 32.6027774314]}, "type": "Feature", "properties": {"collection_times": [{"days": "Mon-Fri", "time": "3:30pm"}, {"days": "Sat", "time": "10:00am"}, {"days": "Sun", "time": "Closed"}], "id": "7647200001", "name": "USPS COLLECTION BOX - PO LOBBY", "address": {"city": "SANTO", "state": "TX", "street": "58 BELL ST", "postcode": "76472"}}},
{"geometry": {"type": "Point", "coordinates": [-98.2161291338, 32.6027774314]}, "type": "Feature", "properties": {"collection_times": [{"days": "Mon-Fri", "time": "3:30pm"}, {"days": "Sat", "time": "10:00am"}, {"days": "Sun", "time": "Closed"}], "id": "7647200002", "name": "USPS COLLECTION BOX - PO LOBBY", "address": {"city": "SANTO", "state": "TX", "street": "58 BELL ST", "postcode": "76472"}}},
{"geometry": {"type": "Point", "coordinates": [-98.2161291338, 32.6027774314]}, "type": "Feature", "properties": {"collection_times": [{"days": "Mon-Fri", "time": "3:30pm"}, {"days": "Sat", "time": "10:00am"}, {"days": "Sun", "time": "Closed"}], "id": "7647200003", "name": "USPS COLLECTION BOX - BLUE BOX", "address": {"city": "SANTO", "state": "TX", "street": "58 BELL ST", "postcode": "76472"}}},
{"geometry": {"type": "Point", "coordinates": [-98.7844973141, 31.9315797726]}, "type": "Feature", "properties": {"collection_times": [{"days": "Mon-Fri", "time": "2:00pm"}, {"days": "Sat", "time": "11:00am"}, {"days": "Sun", "time": "Closed"}], "id": "7647400001", "name": "USPS COLLECTION BOX - BLUE BOX", "address": {"city": "SIDNEY", "state": "TX", "street": "2051 HIGHWAY 589", "postcode": "76474"}}},
{"geometry": {"type": "Point", "coordinates": [-98.7844973141, 31.9315797726]}, "type": "Feature", "properties": {"collection_times": [{"days": "Mon-Fri", "time": "11:15am"}, {"days": "Sat", "time": "11:00am"}, {"days": "Sun", "time": "Closed"}], "id": "7647400002", "name": "USPS COLLECTION BOX - PO LOBBY", "address": {"city": "SIDNEY", "state": "TX", "street": "2051 HIGHWAY 589", "postcode": "76474"}}},
{"geometry": {"type": "Point", "coordinates": [-98.482079658, 32.7167306318]}, "type": "Feature", "properties": {"collection_times": [{"days": "Mon-Fri", "time": "9:30am"}, {"days": "Sat-Sun", "time": "Closed"}], "id": "7647500001", "name": "USPS COLLECTION BOX - BLUE BOX", "address": {"city": "STRAWN", "state": "TX", "street": "100 W HELLS GATE DR", "postcode": "76475"}}},
{"geometry": {"type": "Point", "coordinates": [-98.4967172166, 32.5521843332]}, "type": "Feature", "properties": {"collection_times": [{"days": "Mon-Fri", "time": "3:30pm"}, {"days": "Sat", "time": "8:00am"}, {"days": "Sun", "time": "Closed"}], "id": "7647500002", "name": "USPS COLLECTION BOX - BLUE BOX", "address": {"city": "STRAWN", "state": "TX", "street": "203 E HOUSLEY ST", "postcode": "76475"}}},
{"geometry": {"type": "Point", "coordinates": [-98.4967172166, 32.5521843332]}, "type": "Feature", "properties": {"collection_times": [{"days": "Mon-Fri", "time": "3:30pm"}, {"days": "Sat-Sun", "time": "Closed"}], "id": "7647500004", "name": "USPS COLLECTION BOX - PO LOBBY", "address": {"city": "STRAWN", "state": "TX", "street": "203 E HOUSLEY ST", "postcode": "76475"}}},
{"geometry": {"type": "Point", "coordinates": [-97.9630122982, 32.3813784713]}, "type": "Feature", "properties": {"collection_times": [{"days": "Mon-Fri", "time": "3:30pm"}, {"days": "Sat", "time": "10:00am"}, {"days": "Sun", "time": "Closed"}], "id": "7647600001", "name": "USPS COLLECTION BOX - BLUE BOX", "address": {"city": "TOLAR", "state": "TX", "street": "9101 W HIGHWAY 377", "postcode": "76476"}}},
{"geometry": {"type": "Point", "coordinates": [-97.9630122982, 32.3813784713]}, "type": "Feature", "properties": {"collection_times": [{"days": "Mon-Fri", "time": "3:30pm"}, {"days": "Sat", "time": "10:00am"}, {"days": "Sun", "time": "Closed"}], "id": "7647600002", "name": "USPS COLLECTION BOX - PO LOBBY", "address": {"city": "TOLAR", "state": "TX", "street": "9101 W HIGHWAY 377", "postcode": "76476"}}},
{"geometry": {"type": "Point", "coordinates": [-98.7607872538, 32.9586311593]}, "type": "Feature", "properties": {"collection_times": [{"days": "Mon-Fri", "time": "4:00pm"}, {"days": "Sat", "time": "11:00am"}, {"days": "Sun", "time": "Closed"}], "id": "7648100001", "name": "USPS COLLECTION BOX - BLUE BOX", "address": {"city": "SOUTH BEND", "state": "TX", "street": "313 S MAIN ST", "postcode": "76481"}}},
{"geometry": {"type": "Point", "coordinates": [-98.7607872538, 32.9586311593]}, "type": "Feature", "properties": {"collection_times": [{"days": "Mon-Fri", "time": "4:00pm"}, {"days": "Sat", "time": "11:00am"}, {"days": "Sun", "time": "Closed"}], "id": "7648100005", "name": "USPS COLLECTION BOX - PO LOBBY", "address": {"city": "SOUTH BEND", "state": "TX", "street": "313 S MAIN ST", "postcode": "76481"}}},
{"geometry": {"type": "Point", "coordinates": [-98.7607872538, 32.9586311593]}, "type": "Feature", "properties": {"collection_times": [{"days": "Mon-Fri", "time": "4:00pm"}, {"days": "Sat", "time": "11:00am"}, {"days": "Sun", "time": "Closed"}], "id": "7648100006", "name": "USPS COLLECTION BOX - PO LOBBY", "address": {"city": "SOUTH BEND", "state": "TX", "street": "313 S MAIN ST", "postcode": "76481"}}},
{"geometry": {"type": "Point", "coordinates": [-99.1774401237, 33.1804224194]}, "type": "Feature", "properties": {"collection_times": [{"days": "Mon-Fri", "time": "4:15pm"}, {"days": "Sat", "time": "10:00am"}, {"days": "Sun", "time": "Closed"}], "id": "7648300001", "name": "USPS COLLECTION BOX - PO LOBBY", "address": {"city": "THROCKMORTON", "state": "TX", "street": "233 N MINTER AVE", "postcode": "76483"}}},
{"geometry": {"type": "Point", "coordinates": [-99.1774401237, 33.1804224194]}, "type": "Feature", "properties": {"collection_times": [{"days": "Mon-Fri", "time": "4:15pm"}, {"days": "Sat", "time": "10:00am"}, {"days": "Sun", "time": "Closed"}], "id": "7648300002", "name": "USPS COLLECTION BOX - BLUE BOX", "address": {"city": "THROCKMORTON", "state": "TX", "street": "233 N MINTER AVE", "postcode": "76483"}}},
{"geometry": {"type": "Point", "coordinates": [-99.1774401237, 33.1804224194]}, "type": "Feature", "properties": {"collection_times": [{"days": "Mon-Fri", "time": "4:15pm"}, {"days": "Sat", "time": "10:00am"}, {"days": "Sun", "time": "Closed"}], "id": "7648300004", "name": "USPS COLLECTION BOX - PO LOBBY", "address": {"city": "THROCKMORTON", "state": "TX", "street": "233 N MINTER AVE", "postcode": "76483"}}},
{"geometry": {"type": "Point", "coordinates": [-98.298802272, 32.7681280834]}, "type": "Feature", "properties": {"collection_times": [{"days": "Mon-Fri", "time": "3:30pm"}, {"days": "Sat", "time": "12:00pm"}, {"days": "Sun", "time": "Closed"}], "id": "7648400001", "name": "USPS COLLECTION BOX - BLUE BOX", "address": {"city": "PALO PINTO", "state": "TX", "street": "106 N 5TH AVE", "postcode": "76484"}}},
{"geometry": {"type": "Point", "coordinates": [-98.298802272, 32.7681280834]}, "type": "Feature", "properties": {"collection_times": [{"days": "Mon-Fri", "time": "3:30pm"}, {"days": "Sat", "time": "12:00pm"}, {"days": "Sun", "time": "Closed"}], "id": "7648400004", "name": "USPS COLLECTION BOX - PO LOBBY", "address": {"city": "PALO PINTO", "state": "TX", "street": "106 N 5TH AVE", "postcode": "76484"}}},
{"geometry": {"type": "Point", "coordinates": [-98.298802272, 32.7681280834]}, "type": "Feature", "properties": {"collection_times": [{"days": "Mon-Fri", "time": "3:30pm"}, {"days": "Sat", "time": "12:00pm"}, {"days": "Sun", "time": "Closed"}], "id": "7648400005", "name": "USPS COLLECTION BOX - PO LOBBY", "address": {"city": "PALO PINTO", "state": "TX", "street": "106 N 5TH AVE", "postcode": "76484"}}},
{"geometry": {"type": "Point", "coordinates": [-97.8673308611, 32.8713494944]}, "type": "Feature", "properties": {"collection_times": [{"days": "Mon-Fri", "time": "2:30pm"}, {"days": "Sat", "time": "11:00am"}, {"days": "Sun", "time": "Closed"}], "id": "7648500001", "name": "USPS COLLECTION BOX - PO LOBBY", "address": {"city": "PEASTER", "state": "TX", "street": "8616 FM 920", "postcode": "76485"}}},
{"geometry": {"type": "Point", "coordinates": [-97.8673178648, 32.8683235286]}, "type": "Feature", "properties": {"collection_times": [{"days": "Mon-Fri", "time": "2:30pm"}, {"days": "Sat", "time": "11:00am"}, {"days": "Sun", "time": "Closed"}], "id": "7648500002", "name": "USPS COLLECTION BOX - BLUE BOX", "address": {"city": "PEASTER", "state": "TX", "street": "8616 FM 920", "postcode": "76485"}}},
{"geometry": {"type": "Point", "coordinates": [-98.0727176558, 33.0339975089]}, "type": "Feature", "properties": {"collection_times": [{"days": "Mon-Fri", "time": "3:45pm"}, {"days": "Sat", "time": "12:00pm"}, {"days": "Sun", "time": "Closed"}], "id": "7648600002", "name": "USPS COLLECTION BOX - BLUE BOX", "address": {"city": "PERRIN", "state": "TX", "street": "319 W HACKLEY ST", "postcode": "76486"}}},
{"geometry": {"type": "Point", "coordinates": [-98.0727176558, 33.0339975089]}, "type": "Feature", "properties": {"collection_times": [{"days": "Mon-Fri", "time": "3:45pm"}, {"days": "Sat", "time": "12:00pm"}, {"days": "Sun", "time": "Closed"}], "id": "7648600003", "name": "USPS COLLECTION BOX - PO LOBBY", "address": {"city": "PERRIN", "state": "TX", "street": "319 W HACKLEY ST", "postcode": "76486"}}},
{"geometry": {"type": "Point", "coordinates": [-97.8582874602, 32.9756092417]}, "type": "Feature", "properties": {"collection_times": [{"days": "Mon-Fri", "time": "3:30pm"}, {"days": "Sat", "time": "10:30am"}, {"days": "Sun", "time": "Closed"}], "id": "7648700001", "name": "USPS COLLECTION BOX - BLUE BOX", "address": {"city": "POOLVILLE", "state": "TX", "street": "104 WEST AVE", "postcode": "76487"}}},
{"geometry": {"type": "Point", "coordinates": [-97.8582874602, 32.9756092417]}, "type": "Feature", "properties": {"collection_times": [{"days": "Mon-Fri", "time": "3:30pm"}, {"days": "Sat", "time": "10:30am"}, {"days": "Sun", "time": "Closed"}], "id": "7648700002", "name": "USPS COLLECTION BOX - PO LOBBY", "address": {"city": "POOLVILLE", "state": "TX", "street": "104 WEST AVE", "postcode": "76487"}}},
{"geometry": {"type": "Point", "coordinates": [-97.8582874602, 32.9756092417]}, "type": "Feature", "properties": {"collection_times": [{"days": "Mon-Fri", "time": "3:30pm"}, {"days": "Sat", "time": "10:30am"}, {"days": "Sun", "time": "Closed"}], "id": "7648700003", "name": "USPS COLLECTION BOX - PO LOBBY", "address": {"city": "POOLVILLE", "state": "TX", "street": "104 WEST AVE", "postcode": "76487"}}},
{"geometry": {"type": "Point", "coordinates": [-98.0209463445, 32.956906833]}, "type": "Feature", "properties": {"collection_times": [{"days": "Mon-Sat", "time": "9:30am"}, {"days": "Sun", "time": "Closed"}], "id": "7649000000", "name": "USPS COLLECTION BOX - PO LOBBY", "address": {"city": "WHITT", "state": "TX", "street": "191 MAIN ST", "postcode": "76490"}}},
{"geometry": {"type": "Point", "coordinates": [-98.0209463445, 32.956906833]}, "type": "Feature", "properties": {"collection_times": [{"days": "Mon-Sat", "time": "9:30am"}, {"days": "Sun", "time": "Closed"}], "id": "7649000001", "name": "USPS COLLECTION BOX - BLUE BOX", "address": {"city": "WHITT", "state": "TX", "street": "191 MAIN ST", "postcode": "76490"}}},
{"geometry": {"type": "Point", "coordinates": [-99.0546593867, 33.0151208852]}, "type": "Feature", "properties": {"collection_times": [{"days": "Mon-Fri", "time": "3:00pm"}, {"days": "Sat", "time": "10:00am"}, {"days": "Sun", "time": "Closed"}], "id": "7649100001", "name": "USPS COLLECTION BOX - PO LOBBY", "address": {"city": "WOODSON", "state": "TX", "street": "105 HIGHWAY 183 N", "postcode": "76491"}}},
{"geometry": {"type": "Point", "coordinates": [-99.0546593867, 33.0151208852]}, "type": "Feature", "properties": {"collection_times": [{"days": "Mon-Fri", "time": "3:00pm"}, {"days": "Sat", "time": "10:00am"}, {"days": "Sun", "time": "Closed"}], "id": "7649100002", "name": "USPS COLLECTION BOX - BLUE BOX", "address": {"city": "WOODSON", "state": "TX", "street": "105 HIGHWAY 183 N", "postcode": "76491"}}}
]}
