{"type": "FeatureCollection", "features": [
{"geometry": {"type": "Point", "coordinates": [-97.3417946644, 31.0980377782]}, "type": "Feature", "properties": {"collection_times": [{"days": "Mon-Fri", "time": "1:30pm"}, {"days": "Sat", "time": "11:00am"}, {"days": "Sun", "time": "Closed"}], "id": "7650100030", "name": "USPS COLLECTION BOX - BLUE BOX", "address": {"city": "TEMPLE", "state": "TX", "street": "100 W ADAMS AVE", "postcode": "76501"}}},
{"geometry": {"type": "Point", "coordinates": [-97.3297945045, 31.0901641952]}, "type": "Feature", "properties": {"collection_times": [{"days": "Mon-Fri", "time": "3:00pm"}, {"days": "Sat", "time": "11:00am"}, {"days": "Sun", "time": "Closed"}], "id": "7650100045", "name": "USPS COLLECTION BOX - BLUE BOX", "address": {"city": "TEMPLE", "state": "TX", "street": "302 S 22ND ST", "postcode": "76501"}}},
{"geometry": {"type": "Point", "coordinates": [-97.3396194841, 31.1006713364]}, "type": "Feature", "properties": {"collection_times": [{"days": "Mon-Sat", "time": "5:00pm"}, {"days": "Sun", "time": "Closed"}], "id": "7650100084", "name": "USPS COLLECTION BOX - BLUE BOX", "address": {"city": "TEMPLE", "state": "TX", "street": "401 N MAIN ST", "postcode": "76501"}}},
{"geometry": {"type": "Point", "coordinates": [-97.3396194841, 31.1006713364]}, "type": "Feature", "properties": {"collection_times": [{"days": "Mon-Sat", "time": "5:00pm"}, {"days": "Sun", "time": "Closed"}], "id": "7650100094", "name": "USPS COLLECTION BOX - BLUE BOX", "address": {"city": "TEMPLE", "state": "TX", "street": "401 N MAIN ST", "postcode": "76501"}}},
{"geometry": {"type": "Point", "coordinates": [-97.3396194841, 31.1006713364]}, "type": "Feature", "properties": {"collection_times": [{"days": "Mon-Sat", "time": "5:00pm"}, {"days": "Sun", "time": "Closed"}], "id": "7650100117", "name": "USPS COLLECTION BOX - PO LOBBY", "address": {"city": "TEMPLE", "state": "TX", "street": "401 N MAIN ST", "postcode": "76501"}}},
{"geometry": {"type": "Point", "coordinates": [-97.3452903045, 31.127421479]}, "type": "Feature", "properties": {"collection_times": [{"days": "Mon-Fri", "time": "4:20pm"}, {"days": "Sat", "time": "1:15pm"}, {"days": "Sun", "time": "Closed"}], "id": "7650100131", "name": "USPS COLLECTION BOX - BLUE BOX", "address": {"city": "TEMPLE", "state": "TX", "street": "1307 INDUSTRIAL BLVD", "postcode": "76501"}}},
{"geometry": {"type": "Point", "coordinates": [-97.3412691109, 31.0967264196]}, "type": "Feature", "properties": {"collection_times": [{"days": "Mon-Fri", "time": "1:00pm"}, {"days": "Sat", "time": "11:00am"}, {"days": "Sun", "time": "Closed"}], "id": "7650100132", "name": "USPS COLLECTION BOX - BLUE BOX", "address": {"city": "TEMPLE", "state": "TX", "street": "2 N MAIN ST", "postcode": "76501"}}},
{"geometry": {"type": "Point", "coordinates": [-97.3842006971, 31.0772922939]}, "type": "Feature", "properties": {"collection_times": [{"days": "Mon-Fri", "time": "2:30pm"}, {"days": "Sat", "time": "11:00am"}, {"days": "Sun", "time": "Closed"}], "id": "7650200000", "name": "USPS COLLECTION BOX - BLUE BOX", "address": {"city": "TEMPLE", "state": "TX", "street": "3001 THORNTON LN", "postcode": "76502"}}},
{"geometry": {"type": "Point", "coordinates": [-97.3714536184, 31.0674608771]}, "type": "Feature", "properties": {"collection_times": [{"days": "Mon-Fri", "time": "2:30pm"}, {"days": "Sat", "time": "11:00am"}, {"days": "Sun", "time": "Closed"}], "id": "7650200003", "name": "USPS COLLECTION BOX - BLUE BOX", "address": {"city": "TEMPLE", "state": "TX", "street": "3314 S 31ST ST", "postcode": "76502"}}},
{"geometry": {"type": "Point", "coordinates": [-97.3710080292, 31.0655803531]}, "type": "Feature", "properties": {"collection_times": [{"days": "Mon-Fri", "time": "2:30pm"}, {"days": "Sat", "time": "11:00am"}, {"days": "Sun", "time": "Closed"}], "id": "7650200007", "name": "USPS COLLECTION BOX - BLUE BOX", "address": {"city": "TEMPLE", "state": "TX", "street": "3620 S 31ST ST", "postcode": "76502"}}},
{"geometry": {"type": "Point", "coordinates": [-97.369081347, 31.0708921992]}, "type": "Feature", "properties": {"collection_times": [{"days": "Mon-Fri", "time": "2:30pm"}, {"days": "Sat", "time": "11:00am"}, {"days": "Sun", "time": "Closed"}], "id": "7650200009", "name": "USPS COLLECTION BOX - BLUE BOX", "address": {"city": "TEMPLE", "state": "TX", "street": "3002 S 31ST ST", "postcode": "76502"}}},
{"geometry": {"type": "Point", "coordinates": [-97.369081347, 31.0708921992]}, "type": "Feature", "properties": {"collection_times": [{"days": "Mon-Fri", "time": "2:30pm"}, {"days": "Sat", "time": "11:00am"}, {"days": "Sun", "time": "Closed"}], "id": "7650200010", "name": "USPS COLLECTION BOX - BLUE BOX", "address": {"city": "TEMPLE", "state": "TX", "street": "3002 S 31ST ST", "postcode": "76502"}}},
{"geometry": {"type": "Point", "coordinates": [-97.3874549235, 31.0874594747]}, "type": "Feature", "properties": {"collection_times": [{"days": "Mon-Fri", "time": "5:00pm"}, {"days": "Sat", "time": "11:00am"}, {"days": "Sun", "time": "Closed"}], "id": "7650200016", "name": "USPS COLLECTION BOX - BLUE BOX", "address": {"city": "TEMPLE", "state": "TX", "street": "2005 BIRDCREEK DR", "postcode": "76502"}}},
{"geometry": {"type": "Point", "coordinates": [-97.3874549235, 31.0874594747]}, "type": "Feature", "properties": {"collection_times": [{"days": "Mon-Fri", "time": "5:00pm"}, {"days": "Sat", "time": "11:00am"}, {"days": "Sun", "time": "Closed"}], "id": "7650200017", "name": "USPS COLLECTION BOX - BLUE BOX", "address": {"city": "TEMPLE", "state": "TX", "street": "2005 BIRDCREEK DR", "postcode": "76502"}}},
{"geometry": {"type": "Point", "coordinates": [-97.3874549235, 31.0874594747]}, "type": "Feature", "properties": {"collection_times": [{"days": "Mon-Fri", "time": "5:00pm"}, {"days": "Sat", "time": "11:00am"}, {"days": "Sun", "time": "Closed"}], "id": "7650200019", "name": "USPS COLLECTION BOX - BLUE BOX", "address": {"city": "TEMPLE", "state": "TX", "street": "2005 BIRDCREEK DR", "postcode": "76502"}}},
{"geometry": {"type": "Point", "coordinates": [-97.3993767517, 31.0864616108]}, "type": "Feature", "properties": {"collection_times": [{"days": "Mon-Fri", "time": "4:30pm"}, {"days": "Sat", "time": "12:00pm"}, {"days": "Sun", "time": "Closed"}], "id": "7650200022", "name": "USPS COLLECTION BOX - BLUE BOX", "address": {"city": "TEMPLE", "state": "TX", "street": "4501 S GENERAL BRUCE DR", "postcode": "76502"}}},
{"geometry": {"type": "Point", "coordinates": [-97.4103559548, 31.0812202676]}, "type": "Feature", "properties": {"collection_times": [{"days": "Mon-Fri", "time": "4:30pm"}, {"days": "Sat", "time": "11:00am"}, {"days": "Sun", "time": "Closed"}], "id": "7650200023", "name": "USPS COLLECTION BOX - BLUE BOX", "address": {"city": "TEMPLE", "state": "TX", "street": "5421 S GENERAL BRUCE DR", "postcode": "76502"}}},
{"geometry": {"type": "Point", "coordinates": [-97.376431556, 31.0749456605]}, "type": "Feature", "properties": {"collection_times": [{"days": "Mon-Fri", "time": "2:30pm"}, {"days": "Sat", "time": "11:00am"}, {"days": "Sun", "time": "Closed"}], "id": "7650200027", "name": "USPS COLLECTION BOX - BLUE BOX", "address": {"city": "TEMPLE", "state": "TX", "street": "1901 SW H K DODGEN LOOP", "postcode": "76502"}}},
{"geometry": {"type": "Point", "coordinates": [-97.3742031031, 31.0744796292]}, "type": "Feature", "properties": {"collection_times": [{"days": "Mon-Fri", "time": "2:30pm"}, {"days": "Sat", "time": "11:00am"}, {"days": "Sun", "time": "Closed"}], "id": "7650200044", "name": "USPS COLLECTION BOX - BLUE BOX", "address": {"city": "TEMPLE", "state": "TX", "street": "1717 SW H K DODGEN LOOP", "postcode": "76502"}}},
{"geometry": {"type": "Point", "coordinates": [-97.4363201885, 31.1820911561]}, "type": "Feature", "properties": {"collection_times": [{"days": "Mon-Sat", "time": "11:00am"}, {"days": "Sun", "time": "Closed"}], "id": "7650200046", "name": "USPS COLLECTION BOX - BLUE BOX", "address": {"city": "TEMPLE", "state": "TX", "street": "10775 W STATE HIGHWAY 36", "postcode": "76502"}}},
{"geometry": {"type": "Point", "coordinates": [-97.4038057131, 31.0859240624]}, "type": "Feature", "properties": {"collection_times": [{"days": "Mon-Fri", "time": "5:00pm"}, {"days": "Sat-Sun", "time": "Closed"}], "id": "7650200049", "name": "USPS COLLECTION BOX - BLUE BOX", "address": {"city": "TEMPLE", "state": "TX", "street": "102 S. MAIN ST", "postcode": "76502"}}},
{"geometry": {"type": "Point", "coordinates": [-97.3502227489, 31.071510661]}, "type": "Feature", "properties": {"collection_times": [{"days": "Mon-Fri", "time": "3:00pm"}, {"days": "Sat", "time": "11:00am"}, {"days": "Sun", "time": "Closed"}], "id": "7650400009", "name": "USPS COLLECTION BOX - BLUE BOX", "address": {"city": "TEMPLE", "state": "TX", "street": "2600 S 1ST ST", "postcode": "76504"}}},
{"geometry": {"type": "Point", "coordinates": [-97.3630424873, 31.0865983137]}, "type": "Feature", "properties": {"collection_times": [{"days": "Mon-Fri", "time": "2:00pm"}, {"days": "Sat", "time": "11:00am"}, {"days": "Sun", "time": "Closed"}], "id": "7650400012", "name": "USPS COLLECTION BOX - BLUE BOX", "address": {"city": "TEMPLE", "state": "TX", "street": "1516 S 31ST ST", "postcode": "76504"}}},
{"geometry": {"type": "Point", "coordinates": [-97.3585126702, 31.0991430886]}, "type": "Feature", "properties": {"collection_times": [{"days": "Mon-Fri", "time": "2:00pm"}, {"days": "Sat", "time": "11:00am"}, {"days": "Sun", "time": "Closed"}], "id": "7650400014", "name": "USPS COLLECTION BOX - BLUE BOX", "address": {"city": "TEMPLE", "state": "TX", "street": "212 S 31ST ST", "postcode": "76504"}}},
{"geometry": {"type": "Point", "coordinates": [-97.3722511595, 31.0759755618]}, "type": "Feature", "properties": {"collection_times": [{"days": "Mon-Fri", "time": "2:00pm"}, {"days": "Sat", "time": "11:00am"}, {"days": "Sun", "time": "Closed"}], "id": "7650400017", "name": "USPS COLLECTION BOX - BLUE BOX", "address": {"city": "TEMPLE", "state": "TX", "street": "2600 S 39TH ST", "postcode": "76504"}}},
{"geometry": {"type": "Point", "coordinates": [-97.3801449443, 31.0835790436]}, "type": "Feature", "properties": {"collection_times": [{"days": "Mon-Fri", "time": "2:00pm"}, {"days": "Sat", "time": "11:00am"}, {"days": "Sun", "time": "Closed"}], "id": "7650400018", "name": "USPS COLLECTION BOX - BLUE BOX", "address": {"city": "TEMPLE", "state": "TX", "street": "2302 S 57TH ST", "postcode": "76504"}}},
{"geometry": {"type": "Point", "coordinates": [-97.3825014122, 31.1083894898]}, "type": "Feature", "properties": {"collection_times": [{"days": "Mon-Fri", "time": "1:45pm"}, {"days": "Sat", "time": "11:00am"}, {"days": "Sun", "time": "Closed"}], "id": "7650400030", "name": "USPS COLLECTION BOX - BLUE BOX", "address": {"city": "TEMPLE", "state": "TX", "street": "3900 W ADAMS AVE", "postcode": "76504"}}},
{"geometry": {"type": "Point", "coordinates": [-97.3855141173, 31.1091488898]}, "type": "Feature", "properties": {"collection_times": [{"days": "Mon-Fri", "time": "1:45pm"}, {"days": "Sat", "time": "11:00am"}, {"days": "Sun", "time": "Closed"}], "id": "7650400031", "name": "USPS COLLECTION BOX - BLUE BOX", "address": {"city": "TEMPLE", "state": "TX", "street": "4315 W ADAMS AVE", "postcode": "76504"}}},
{"geometry": {"type": "Point", "coordinates": [-97.3682843174, 31.1080608274]}, "type": "Feature", "properties": {"collection_times": [{"days": "Mon-Fri", "time": "1:30pm"}, {"days": "Sat", "time": "11:00am"}, {"days": "Sun", "time": "Closed"}], "id": "7650400035", "name": "USPS COLLECTION BOX - BLUE BOX", "address": {"city": "TEMPLE", "state": "TX", "street": "2700 AIRPORT RD", "postcode": "76504"}}},
{"geometry": {"type": "Point", "coordinates": [-97.3761618075, 31.0757711288]}, "type": "Feature", "properties": {"collection_times": [{"days": "Mon-Fri", "time": "2:00pm"}, {"days": "Sat", "time": "11:00am"}, {"days": "Sun", "time": "Closed"}], "id": "7650400045", "name": "USPS COLLECTION BOX - BLUE BOX", "address": {"city": "TEMPLE", "state": "TX", "street": "2010 SW H K DODGEN LOOP", "postcode": "76504"}}},
{"geometry": {"type": "Point", "coordinates": [-97.4269706094, 30.7954827273]}, "type": "Feature", "properties": {"collection_times": [{"days": "Mon-Sat", "time": "5:00pm"}, {"days": "Sun", "time": "Closed"}], "id": "7651100000", "name": "USPS COLLECTION BOX - BLUE BOX", "address": {"city": "BARTLETT", "state": "TX", "street": "131 N EVIE ST", "postcode": "76511"}}},
{"geometry": {"type": "Point", "coordinates": [-97.4269706094, 30.7954827273]}, "type": "Feature", "properties": {"collection_times": [{"days": "Mon-Fri", "time": "3:00pm"}, {"days": "Sat", "time": "10:00am"}, {"days": "Sun", "time": "Closed"}], "id": "7651100003", "name": "USPS COLLECTION BOX - PO LOBBY", "address": {"city": "BARTLETT", "state": "TX", "street": "131 N EVIE ST", "postcode": "76511"}}},
{"geometry": {"type": "Point", "coordinates": [-97.460691353, 31.0556893929]}, "type": "Feature", "properties": {"collection_times": [{"days": "Mon-Sat", "time": "5:00pm"}, {"days": "Sun", "time": "Closed"}], "id": "7651300000", "name": "USPS COLLECTION BOX - BLUE BOX", "address": {"city": "BELTON", "state": "TX", "street": "111 N WALL ST", "postcode": "76513"}}},
{"geometry": {"type": "Point", "coordinates": [-97.4575160514, 31.0793101017]}, "type": "Feature", "properties": {"collection_times": [{"days": "Mon-Sat", "time": "3:00pm"}, {"days": "Sun", "time": "Closed"}], "id": "7651300011", "name": "USPS COLLECTION BOX - BLUE BOX", "address": {"city": "BELTON", "state": "TX", "street": "2405 N MAIN ST", "postcode": "76513"}}},
{"geometry": {"type": "Point", "coordinates": [-97.460691353, 31.0556893929]}, "type": "Feature", "properties": {"collection_times": [{"days": "Mon-Fri", "time": "5:00pm"}, {"days": "Sat", "time": "12:00pm"}, {"days": "Sun", "time": "Closed"}], "id": "7651300013", "name": "USPS COLLECTION BOX - PO LOBBY", "address": {"city": "BELTON", "state": "TX", "street": "111 N WALL ST", "postcode": "76513"}}},
{"geometry": {"type": "Point", "coordinates": [-97.460691353, 31.0556893929]}, "type": "Feature", "properties": {"collection_times": [{"days": "Mon-Fri", "time": "5:00pm"}, {"days": "Sat", "time": "12:00pm"}, {"days": "Sun", "time": "Closed"}], "id": "7651300014", "name": "USPS COLLECTION BOX - PO LOBBY", "address": {"city": "BELTON", "state": "TX", "street": "111 N WALL ST", "postcode": "76513"}}},
{"geometry": {"type": "Point", "coordinates": [-97.1300755726, 30.8901145219]}, "type": "Feature", "properties": {"collection_times": [{"days": "Mon-Sat", "time": "4:25pm"}, {"days": "Sun", "time": "Closed"}], "id": "7651800000", "name": "USPS COLLECTION BOX - BLUE BOX", "address": {"city": "BUCKHOLTS", "state": "TX", "street": "300 E HIGHWAY 190", "postcode": "76518"}}},
{"geometry": {"type": "Point", "coordinates": [-97.1300755726, 30.8901145219]}, "type": "Feature", "properties": {"collection_times": [{"days": "Mon-Fri", "time": "12:00pm"}, {"days": "Sat", "time": "9:00am"}, {"days": "Sun", "time": "Closed"}], "id": "7651800002", "name": "USPS COLLECTION BOX - PO LOBBY", "address": {"city": "BUCKHOLTS", "state": "TX", "street": "300 E HIGHWAY 190", "postcode": "76518"}}},
{"geometry": {"type": "Point", "coordinates": [-96.892886881, 30.9667388784]}, "type": "Feature", "properties": {"collection_times": [{"days": "Mon-Fri", "time": "10:45am"}, {"days": "Sat", "time": "9:00am"}, {"days": "Sun", "time": "Closed"}], "id": "7651900001", "name": "USPS COLLECTION BOX - PO LOBBY", "address": {"city": "BURLINGTON", "state": "TX", "street": "14 CHURCH AVE", "postcode": "76519"}}},
{"geometry": {"type": "Point", "coordinates": [-96.892886881, 30.9667388784]}, "type": "Feature", "properties": {"collection_times": [{"days": "Mon-Fri", "time": "10:45am"}, {"days": "Sat", "time": "9:00am"}, {"days": "Sun", "time": "Closed"}], "id": "7651900002", "name": "USPS COLLECTION BOX - PO LOBBY", "address": {"city": "BURLINGTON", "state": "TX", "street": "14 CHURCH AVE", "postcode": "76519"}}},
{"geometry": {"type": "Point", "coordinates": [-96.9770169744, 30.851602339]}, "type": "Feature", "properties": {"collection_times": [{"days": "Mon-Sat", "time": "4:45pm"}, {"days": "Sun", "time": "Closed"}], "id": "7652000000", "name": "USPS COLLECTION BOX - BLUE BOX", "address": {"city": "CAMERON", "state": "TX", "street": "202 W 2ND ST", "postcode": "76520"}}},
{"geometry": {"type": "Point", "coordinates": [-96.9770169744, 30.851602339]}, "type": "Feature", "properties": {"collection_times": [{"days": "Mon-Sat", "time": "4:45pm"}, {"days": "Sun", "time": "Closed"}], "id": "7652000001", "name": "USPS COLLECTION BOX - BLUE BOX", "address": {"city": "CAMERON", "state": "TX", "street": "202 W 2ND ST", "postcode": "76520"}}},
{"geometry": {"type": "Point", "coordinates": [-96.9770169744, 30.851602339]}, "type": "Feature", "properties": {"collection_times": [{"days": "Mon-Sat", "time": "4:45pm"}, {"days": "Sun", "time": "Closed"}], "id": "7652000002", "name": "USPS COLLECTION BOX - BLUE BOX", "address": {"city": "CAMERON", "state": "TX", "street": "202 W 2ND ST", "postcode": "76520"}}},
{"geometry": {"type": "Point", "coordinates": [-96.9770169744, 30.851602339]}, "type": "Feature", "properties": {"collection_times": [{"days": "Mon-Fri", "time": "4:30pm"}, {"days": "Sat", "time": "2:45pm"}, {"days": "Sun", "time": "Closed"}], "id": "7652000006", "name": "USPS COLLECTION BOX - PO LOBBY", "address": {"city": "CAMERON", "state": "TX", "street": "202 W 2ND ST", "postcode": "76520"}}},
{"geometry": {"type": "Point", "coordinates": [-96.9770169744, 30.851602339]}, "type": "Feature", "properties": {"collection_times": [{"days": "Mon-Fri", "time": "4:30pm"}, {"days": "Sat", "time": "2:45pm"}, {"days": "Sun", "time": "Closed"}], "id": "7652000007", "name": "USPS COLLECTION BOX - PO LOBBY", "address": {"city": "CAMERON", "state": "TX", "street": "202 W 2ND ST", "postcode": "76520"}}},
{"geometry": {"type": "Point", "coordinates": [-97.8934523904, 31.1210524365]}, "type": "Feature", "properties": {"collection_times": [{"days": "Mon-Fri", "time": "5:00pm"}, {"days": "Sat", "time": "4:00pm"}, {"days": "Sun", "time": "Closed"}], "id": "7652200000", "name": "USPS COLLECTION BOX - BLUE BOX", "address": {"city": "COPPERAS COVE", "state": "TX", "street": "802 E AVENUE D", "postcode": "76522"}}},
{"geometry": {"type": "Point", "coordinates": [-99.3330489019, 31.4627353752]}, "type": "Feature", "properties": {"collection_times": [{"days": "Mon-Sat", "time": "1:15pm"}, {"days": "Sun", "time": "Closed"}], "id": "7652200003", "name": "USPS COLLECTION BOX - BLUE BOX", "address": {"city": "COPPERAS COVE", "state": "TX", "street": "2720 E BUSINESS 190", "postcode": "76522"}}},
{"geometry": {"type": "Point", "coordinates": [-97.9220595264, 31.1375887647]}, "type": "Feature", "properties": {"collection_times": [{"days": "Mon-Sat", "time": "1:30pm"}, {"days": "Sun", "time": "Closed"}], "id": "7652200006", "name": "USPS COLLECTION BOX - BLUE BOX", "address": {"city": "COPPERAS COVE", "state": "TX", "street": "2012 W AVENUE B", "postcode": "76522"}}},
{"geometry": {"type": "Point", "coordinates": [-97.9145263491, 31.1277317518]}, "type": "Feature", "properties": {"collection_times": [{"days": "Mon-Sat", "time": "1:30pm"}, {"days": "Sun", "time": "Closed"}], "id": "7652200014", "name": "USPS COLLECTION BOX - BLUE BOX", "address": {"city": "COPPERAS COVE", "state": "TX", "street": "90 COVE TERRACE SHOPPING CTR", "postcode": "76522"}}},
{"geometry": {"type": "Point", "coordinates": [-99.3330489019, 31.4627353752]}, "type": "Feature", "properties": {"collection_times": [{"days": "Mon-Sat", "time": "1:00pm"}, {"days": "Sun", "time": "Closed"}], "id": "7652200016", "name": "USPS COLLECTION BOX - BLUE BOX", "address": {"city": "COPPERAS COVE", "state": "TX", "street": "2124 E BUSINESS 190", "postcode": "76522"}}},
{"geometry": {"type": "Point", "coordinates": [-97.8934523904, 31.1210524365]}, "type": "Feature", "properties": {"collection_times": [{"days": "Mon-Fri", "time": "5:00pm"}, {"days": "Sat", "time": "4:00pm"}, {"days": "Sun", "time": "Closed"}], "id": "7652200017", "name": "USPS COLLECTION BOX - BLUE BOX", "address": {"city": "COPPERAS COVE", "state": "TX", "street": "802 E AVENUE D", "postcode": "76522"}}},
{"geometry": {"type": "Point", "coordinates": [-99.3330489019, 31.4627353752]}, "type": "Feature", "properties": {"collection_times": [{"days": "Mon-Sat", "time": "12:45pm"}, {"days": "Sun", "time": "Closed"}], "id": "7652200018", "name": "USPS COLLECTION BOX - BLUE BOX", "address": {"city": "COPPERAS COVE", "state": "TX", "street": "804 E BUSINESS 190", "postcode": "76522"}}},
{"geometry": {"type": "Point", "coordinates": [-97.9037106949, 31.1241919496]}, "type": "Feature", "properties": {"collection_times": [{"days": "Mon-Sat", "time": "1:30pm"}, {"days": "Sun", "time": "Closed"}], "id": "7652200021", "name": "USPS COLLECTION BOX - BLUE BOX", "address": {"city": "COPPERAS COVE", "state": "TX", "street": "210 S 1ST ST", "postcode": "76522"}}},
{"geometry": {"type": "Point", "coordinates": [-98.0878253287, 31.2267610059]}, "type": "Feature", "properties": {"collection_times": [{"days": "Mon-Sat", "time": "1:00pm"}, {"days": "Sun", "time": "Closed"}], "id": "7652200022", "name": "USPS COLLECTION BOX - BLUE BOX", "address": {"city": "COPPERAS COVE", "state": "TX", "street": "185 W BUSINESS 190 STE 1", "postcode": "76522"}}},
{"geometry": {"type": "Point", "coordinates": [-97.8934523904, 31.1210524365]}, "type": "Feature", "properties": {"collection_times": [{"days": "Mon-Fri", "time": "5:00pm"}, {"days": "Sat", "time": "4:00pm"}, {"days": "Sun", "time": "Closed"}], "id": "7652200023", "name": "USPS COLLECTION BOX - PO LOBBY", "address": {"city": "COPPERAS COVE", "state": "TX", "street": "802 E AVENUE D", "postcode": "76522"}}},
{"geometry": {"type": "Point", "coordinates": [-97.8934523904, 31.1210524365]}, "type": "Feature", "properties": {"collection_times": [{"days": "Mon-Fri", "time": "5:00pm"}, {"days": "Sat", "time": "4:00pm"}, {"days": "Sun", "time": "Closed"}], "id": "7652200024", "name": "USPS COLLECTION BOX - PO LOBBY", "address": {"city": "COPPERAS COVE", "state": "TX", "street": "802 E AVENUE D", "postcode": "76522"}}},
{"geometry": {"type": "Point", "coordinates": [-97.1841861698, 30.7681756482]}, "type": "Feature", "properties": {"collection_times": [{"days": "Mon-Fri", "time": "12:00pm"}, {"days": "Sat", "time": "10:00am"}, {"days": "Sun", "time": "Closed"}], "id": "7652300000", "name": "USPS COLLECTION BOX - BLUE BOX", "address": {"city": "DAVILLA", "state": "TX", "street": "20905 N FM 487", "postcode": "76523"}}},
{"geometry": {"type": "Point", "coordinates": [-97.1841861698, 30.7681756482]}, "type": "Feature", "properties": {"collection_times": [{"days": "Mon-Fri", "time": "12:00pm"}, {"days": "Sat", "time": "10:00am"}, {"days": "Sun", "time": "Closed"}], "id": "7652300001", "name": "USPS COLLECTION BOX - PO LOBBY", "address": {"city": "DAVILLA", "state": "TX", "street": "20905 N FM 487", "postcode": "76523"}}},
{"geometry": {"type": "Point", "coordinates": [-97.2545815258, 31.2958831731]}, "type": "Feature", "properties": {"collection_times": [{"days": "Mon-Sat", "time": "5:00pm"}, {"days": "Sun", "time": "Closed"}], "id": "7652400000", "name": "USPS COLLECTION BOX - BLUE BOX", "address": {"city": "EDDY", "state": "TX", "street": "100 FRANKLIN RD", "postcode": "76524"}}},
{"geometry": {"type": "Point", "coordinates": [-97.2545815258, 31.2958831731]}, "type": "Feature", "properties": {"collection_times": [{"days": "Mon-Fri", "time": "4:00pm"}, {"days": "Sat", "time": "9:30am"}, {"days": "Sun", "time": "Closed"}], "id": "7652400001", "name": "USPS COLLECTION BOX - PO LOBBY", "address": {"city": "EDDY", "state": "TX", "street": "100 FRANKLIN RD", "postcode": "76524"}}},
{"geometry": {"type": "Point", "coordinates": [-98.1608025301, 31.5223354368]}, "type": "Feature", "properties": {"collection_times": [{"days": "Mon-Sat", "time": "4:10pm"}, {"days": "Sun", "time": "Closed"}], "id": "7652500000", "name": "USPS COLLECTION BOX - BLUE BOX", "address": {"city": "EVANT", "state": "TX", "street": "153 N US HIGHWAY 281", "postcode": "76525"}}},
{"geometry": {"type": "Point", "coordinates": [-98.1608025301, 31.5223354368]}, "type": "Feature", "properties": {"collection_times": [{"days": "Mon-Fri", "time": "11:45am"}, {"days": "Sat", "time": "9:30am"}, {"days": "Sun", "time": "Closed"}], "id": "7652500001", "name": "USPS COLLECTION BOX - PO LOBBY", "address": {"city": "EVANT", "state": "TX", "street": "153 N US HIGHWAY 281", "postcode": "76525"}}},
{"geometry": {"type": "Point", "coordinates": [-97.5489428853, 31.3165901384]}, "type": "Feature", "properties": {"collection_times": [{"days": "Mon-Sat", "time": "4:10pm"}, {"days": "Sun", "time": "Closed"}], "id": "7652600000", "name": "USPS COLLECTION BOX - BLUE BOX", "address": {"city": "FLAT", "state": "TX", "street": "10065 S STATE HIGHWAY 36", "postcode": "76526"}}},
{"geometry": {"type": "Point", "coordinates": [-97.5489428853, 31.3165901384]}, "type": "Feature", "properties": {"collection_times": [{"days": "Mon-Fri", "time": "2:00pm"}, {"days": "Sat", "time": "11:30am"}, {"days": "Sun", "time": "Closed"}], "id": "7652600001", "name": "USPS COLLECTION BOX - PO LOBBY", "address": {"city": "FLAT", "state": "TX", "street": "10065 S STATE HIGHWAY 36", "postcode": "76526"}}},
{"geometry": {"type": "Point", "coordinates": [-97.7951119952, 30.844126896]}, "type": "Feature", "properties": {"collection_times": [{"days": "Mon-Sat", "time": "3:45pm"}, {"days": "Sun", "time": "Closed"}], "id": "7652700000", "name": "USPS COLLECTION BOX - BLUE BOX", "address": {"city": "FLORENCE", "state": "TX", "street": "308 N PATTERSON AVE", "postcode": "76527"}}},
{"geometry": {"type": "Point", "coordinates": [-97.7951119952, 30.844126896]}, "type": "Feature", "properties": {"collection_times": [{"days": "Mon-Fri", "time": "3:45pm"}, {"days": "Sat", "time": "11:00am"}, {"days": "Sun", "time": "Closed"}], "id": "7652700002", "name": "USPS COLLECTION BOX - PO LOBBY", "address": {"city": "FLORENCE", "state": "TX", "street": "308 N PATTERSON AVE", "postcode": "76527"}}},
{"geometry": {"type": "Point", "coordinates": [-97.7476163716, 31.433997575]}, "type": "Feature", "properties": {"collection_times": [{"days": "Mon-Sat", "time": "5:00pm"}, {"days": "Sun", "time": "Closed"}], "id": "7652800001", "name": "USPS COLLECTION BOX - BLUE BOX", "address": {"city": "GATESVILLE", "state": "TX", "street": "802 E LEON ST", "postcode": "76528"}}},
{"geometry": {"type": "Point", "coordinates": [-97.7476163716, 31.433997575]}, "type": "Feature", "properties": {"collection_times": [{"days": "Mon-Fri", "time": "4:30pm"}, {"days": "Sat", "time": "2:00pm"}, {"days": "Sun", "time": "Closed"}], "id": "7652800010", "name": "USPS COLLECTION BOX - PO LOBBY", "address": {"city": "GATESVILLE", "state": "TX", "street": "802 E LEON ST", "postcode": "76528"}}},
{"geometry": {"type": "Point", "coordinates": [-97.7476163716, 31.433997575]}, "type": "Feature", "properties": {"collection_times": [{"days": "Mon-Fri", "time": "4:30pm"}, {"days": "Sat", "time": "2:00pm"}, {"days": "Sun", "time": "Closed"}], "id": "7652800012", "name": "USPS COLLECTION BOX - PO LOBBY", "address": {"city": "GATESVILLE", "state": "TX", "street": "802 E LEON ST", "postcode": "76528"}}},
{"geometry": {"type": "Point", "coordinates": [-97.4446343767, 30.7178578561]}, "type": "Feature", "properties": {"collection_times": [{"days": "Mon-Sat", "time": "5:00pm"}, {"days": "Sun", "time": "Closed"}], "id": "7653000001", "name": "USPS COLLECTION BOX - BLUE BOX", "address": {"city": "GRANGER", "state": "TX", "street": "117 W DAVILLA ST", "postcode": "76530"}}},
{"geometry": {"type": "Point", "coordinates": [-97.4446343767, 30.7178578561]}, "type": "Feature", "properties": {"collection_times": [{"days": "Mon-Fri", "time": "4:00pm"}, {"days": "Sat", "time": "10:00am"}, {"days": "Sun", "time": "Closed"}], "id": "7653000003", "name": "USPS COLLECTION BOX - PO LOBBY", "address": {"city": "GRANGER", "state": "TX", "street": "117 W DAVILLA ST", "postcode": "76530"}}},
{"geometry": {"type": "Point", "coordinates": [-98.1242606186, 31.7027796621]}, "type": "Feature", "properties": {"collection_times": [{"days": "Mon-Sat", "time": "4:30pm"}, {"days": "Sun", "time": "Closed"}], "id": "7653100004", "name": "USPS COLLECTION BOX - BLUE BOX", "address": {"city": "HAMILTON", "state": "TX", "street": "111 E LESLIE ST", "postcode": "76531"}}},
{"geometry": {"type": "Point", "coordinates": [-98.1241885363, 31.7036201215]}, "type": "Feature", "properties": {"collection_times": [{"days": "Mon-Fri", "time": "4:00pm"}, {"days": "Sat", "time": "10:30am"}, {"days": "Sun", "time": "Closed"}], "id": "7653100005", "name": "USPS COLLECTION BOX - PO LOBBY", "address": {"city": "HAMILTON", "state": "TX", "street": "120 S RICE ST", "postcode": "76531"}}},
{"geometry": {"type": "Point", "coordinates": [-97.3024295817, 31.0177663722]}, "type": "Feature", "properties": {"collection_times": [{"days": "Mon-Sat", "time": "3:50pm"}, {"days": "Sun", "time": "Closed"}], "id": "7653300000", "name": "USPS COLLECTION BOX - BLUE BOX", "address": {"city": "HEIDENHEIMER", "state": "TX", "street": "5720 E US HIGHWAY 190", "postcode": "76533"}}},
{"geometry": {"type": "Point", "coordinates": [-97.3024295817, 31.0177663722]}, "type": "Feature", "properties": {"collection_times": [{"days": "Mon-Fri", "time": "12:00pm"}, {"days": "Sat", "time": "11:00am"}, {"days": "Sun", "time": "Closed"}], "id": "7653300001", "name": "USPS COLLECTION BOX - PO LOBBY", "address": {"city": "HEIDENHEIMER", "state": "TX", "street": "5720 E US HIGHWAY 190", "postcode": "76533"}}},
{"geometry": {"type": "Point", "coordinates": [-97.4048242126, 30.8791600891]}, "type": "Feature", "properties": {"collection_times": [{"days": "Mon-Sat", "time": "5:00pm"}, {"days": "Sun", "time": "Closed"}], "id": "7653400000", "name": "USPS COLLECTION BOX - BLUE BOX", "address": {"city": "HOLLAND", "state": "TX", "street": "205 W TRAVIS ST", "postcode": "76534"}}},
{"geometry": {"type": "Point", "coordinates": [-97.4048242126, 30.8791600891]}, "type": "Feature", "properties": {"collection_times": [{"days": "Mon-Fri", "time": "3:00pm"}, {"days": "Sat", "time": "9:00am"}, {"days": "Sun", "time": "Closed"}], "id": "7653400001", "name": "USPS COLLECTION BOX - BLUE BOX", "address": {"city": "HOLLAND", "state": "TX", "street": "205 W TRAVIS ST", "postcode": "76534"}}},
{"geometry": {"type": "Point", "coordinates": [-97.6086581428, 30.8204318694]}, "type": "Feature", "properties": {"collection_times": [{"days": "Mon-Fri", "time": "4:00pm"}, {"days": "Sat", "time": "10:00am"}, {"days": "Sun", "time": "Closed"}], "id": "7653700002", "name": "USPS COLLECTION BOX - PO LOBBY", "address": {"city": "JARRELL", "state": "TX", "street": "12355 N INTERSTATE 35", "postcode": "76537"}}},
{"geometry": {"type": "Point", "coordinates": [-97.6086581428, 30.8204318694]}, "type": "Feature", "properties": {"collection_times": [{"days": "Mon-Fri", "time": "4:00pm"}, {"days": "Sat", "time": "10:00am"}, {"days": "Sun", "time": "Closed"}], "id": "7653700005", "name": "USPS COLLECTION BOX - PO LOBBY", "address": {"city": "JARRELL", "state": "TX", "street": "12355 N INTERSTATE 35", "postcode": "76537"}}},
{"geometry": {"type": "Point", "coordinates": [-97.6086581428, 30.8204318694]}, "type": "Feature", "properties": {"collection_times": [{"days": "Mon-Sat", "time": "4:15pm"}, {"days": "Sun", "time": "Closed"}], "id": "7653700007", "name": "USPS COLLECTION BOX - BLUE BOX", "address": {"city": "JARRELL", "state": "TX", "street": "12355 N INTERSTATE 35", "postcode": "76537"}}},
{"geometry": {"type": "Point", "coordinates": [-97.8715748353, 31.6132864673]}, "type": "Feature", "properties": {"collection_times": [{"days": "Mon-Sat", "time": "5:00pm"}, {"days": "Sun", "time": "Closed"}], "id": "7653800000", "name": "USPS COLLECTION BOX - BLUE BOX", "address": {"city": "JONESBORO", "state": "TX", "street": "11345 N STATE HIGHWAY 36", "postcode": "76538"}}},
{"geometry": {"type": "Point", "coordinates": [-97.8715748353, 31.6132864673]}, "type": "Feature", "properties": {"collection_times": [{"days": "Mon-Fri", "time": "1:00pm"}, {"days": "Sat", "time": "9:30am"}, {"days": "Sun", "time": "Closed"}], "id": "7653800002", "name": "USPS COLLECTION BOX - PO LOBBY", "address": {"city": "JONESBORO", "state": "TX", "street": "11345 N STATE HIGHWAY 36", "postcode": "76538"}}},
{"geometry": {"type": "Point", "coordinates": [-97.9940549387, 31.0430094595]}, "type": "Feature", "properties": {"collection_times": [{"days": "Mon-Sat", "time": "5:00pm"}, {"days": "Sun", "time": "Closed"}], "id": "7653900000", "name": "USPS COLLECTION BOX - BLUE BOX", "address": {"city": "KEMPNER", "state": "TX", "street": "379 PECAN ST", "postcode": "76539"}}},
{"geometry": {"type": "Point", "coordinates": [-97.9940549387, 31.0430094595]}, "type": "Feature", "properties": {"collection_times": [{"days": "Mon-Fri", "time": "4:00pm"}, {"days": "Sat", "time": "12:00pm"}, {"days": "Sun", "time": "Closed"}], "id": "7653900001", "name": "USPS COLLECTION BOX - PO LOBBY", "address": {"city": "KEMPNER", "state": "TX", "street": "379 PECAN ST", "postcode": "76539"}}},
{"geometry": {"type": "Point", "coordinates": [-97.7256531092, 31.1190783607]}, "type": "Feature", "properties": {"collection_times": [{"days": "Mon-Fri", "time": "5:30pm"}, {"days": "Sat", "time": "1:00pm"}, {"days": "Sun", "time": "Closed"}], "id": "7654100000", "name": "USPS COLLECTION BOX - BLUE BOX", "address": {"city": "KILLEEN", "state": "TX", "street": "300 N 10TH ST", "postcode": "76541"}}},
{"geometry": {"type": "Point", "coordinates": [-97.7289535816, 31.1203978017]}, "type": "Feature", "properties": {"collection_times": [{"days": "Mon-Sat", "time": "1:15pm"}, {"days": "Sun", "time": "Closed"}], "id": "7654100002", "name": "USPS COLLECTION BOX - BLUE BOX", "address": {"city": "KILLEEN", "state": "TX", "street": "300 N 4TH ST", "postcode": "76541"}}},
{"geometry": {"type": "Point", "coordinates": [-97.7270552087, 31.1228319117]}, "type": "Feature", "properties": {"collection_times": [{"days": "Mon-Sat", "time": "1:00pm"}, {"days": "Sun", "time": "Closed"}], "id": "7654100003", "name": "USPS COLLECTION BOX - BLUE BOX", "address": {"city": "KILLEEN", "state": "TX", "street": "605 N GRAY ST", "postcode": "76541"}}},
{"geometry": {"type": "Point", "coordinates": [-97.73401801, 31.1149387509]}, "type": "Feature", "properties": {"collection_times": [{"days": "Mon-Sat", "time": "1:30pm"}, {"days": "Sun", "time": "Closed"}], "id": "7654100008", "name": "USPS COLLECTION BOX - BLUE BOX", "address": {"city": "KILLEEN", "state": "TX", "street": "309 PRIEST DR", "postcode": "76541"}}},
{"geometry": {"type": "Point", "coordinates": [-97.7385039357, 31.1036490635]}, "type": "Feature", "properties": {"collection_times": [{"days": "Mon-Sat", "time": "1:30pm"}, {"days": "Sun", "time": "Closed"}], "id": "7654100011", "name": "USPS COLLECTION BOX - BLUE BOX", "address": {"city": "KILLEEN", "state": "TX", "street": "1805 FLORENCE RD", "postcode": "76541"}}},
{"geometry": {"type": "Point", "coordinates": [-97.7243171776, 31.0931308195]}, "type": "Feature", "properties": {"collection_times": [{"days": "Mon-Sat", "time": "12:15pm"}, {"days": "Sun", "time": "Closed"}], "id": "7654100013", "name": "USPS COLLECTION BOX - BLUE BOX", "address": {"city": "KILLEEN", "state": "TX", "street": "1711 E CENTRAL TEXAS EXPY", "postcode": "76541"}}},
{"geometry": {"type": "Point", "coordinates": [-97.7309207395, 31.0985712695]}, "type": "Feature", "properties": {"collection_times": [{"days": "Mon-Sat", "time": "12:00pm"}, {"days": "Sun", "time": "Closed"}], "id": "7654100014", "name": "USPS COLLECTION BOX - BLUE BOX", "address": {"city": "KILLEEN", "state": "TX", "street": "2000 TRIMMIER RD", "postcode": "76541"}}},
{"geometry": {"type": "Point", "coordinates": [-97.7459262525, 31.1130745544]}, "type": "Feature", "properties": {"collection_times": [{"days": "Mon-Sat", "time": "1:30pm"}, {"days": "Sun", "time": "Closed"}], "id": "7654100020", "name": "USPS COLLECTION BOX - BLUE BOX", "address": {"city": "KILLEEN", "state": "TX", "street": "902 S FORT HOOD ST", "postcode": "76541"}}},
{"geometry": {"type": "Point", "coordinates": [-97.7256531092, 31.1190783607]}, "type": "Feature", "properties": {"collection_times": [{"days": "Mon-Fri", "time": "5:30pm"}, {"days": "Sat", "time": "1:00pm"}, {"days": "Sun", "time": "Closed"}], "id": "7654100022", "name": "USPS COLLECTION BOX - BLUE BOX", "address": {"city": "KILLEEN", "state": "TX", "street": "300 N 10TH ST", "postcode": "76541"}}},
{"geometry": {"type": "Point", "coordinates": [-97.7332266083, 31.1193237493]}, "type": "Feature", "properties": {"collection_times": [{"days": "Mon-Sat", "time": "1:15pm"}, {"days": "Sun", "time": "Closed"}], "id": "7654100024", "name": "USPS COLLECTION BOX - BLUE BOX", "address": {"city": "KILLEEN", "state": "TX", "street": "101 COLLEGE ST", "postcode": "76541"}}},
{"geometry": {"type": "Point", "coordinates": [-97.7256531092, 31.1190783607]}, "type": "Feature", "properties": {"collection_times": [{"days": "Mon-Fri", "time": "5:30pm"}, {"days": "Sat", "time": "1:00pm"}, {"days": "Sun", "time": "Closed"}], "id": "7654100028", "name": "USPS COLLECTION BOX - PO LOBBY", "address": {"city": "KILLEEN", "state": "TX", "street": "300 N 10TH ST", "postcode": "76541"}}},
{"geometry": {"type": "Point", "coordinates": [-97.7256531092, 31.1190783607]}, "type": "Feature", "properties": {"collection_times": [{"days": "Mon-Fri", "time": "5:30pm"}, {"days": "Sat", "time": "1:00pm"}, {"days": "Sun", "time": "Closed"}], "id": "7654100030", "name": "USPS COLLECTION BOX - PO LOBBY", "address": {"city": "KILLEEN", "state": "TX", "street": "300 N 10TH ST", "postcode": "76541"}}},
{"geometry": {"type": "Point", "coordinates": [-97.7256531092, 31.1190783607]}, "type": "Feature", "properties": {"collection_times": [{"days": "Mon-Fri", "time": "5:30pm"}, {"days": "Sat", "time": "1:00pm"}, {"days": "Sun", "time": "Closed"}], "id": "7654100031", "name": "USPS COLLECTION BOX - PO LOBBY", "address": {"city": "KILLEEN", "state": "TX", "street": "300 N 10TH ST", "postcode": "76541"}}},
{"geometry": {"type": "Point", "coordinates": [-97.7506154056, 31.1098699009]}, "type": "Feature", "properties": {"collection_times": [{"days": "Mon-Fri", "time": "1:45pm"}, {"days": "Sat-Sun", "time": "Closed"}], "id": "7654200000", "name": "USPS COLLECTION BOX - BLUE BOX", "address": {"city": "KILLEEN", "state": "TX", "street": "1400 W CENTRAL TEXAS EXPY", "postcode": "76542"}}},
{"geometry": {"type": "Point", "coordinates": [-97.7624394672, 31.1128310035]}, "type": "Feature", "properties": {"collection_times": [{"days": "Mon-Fri", "time": "1:45pm"}, {"days": "Sat-Sun", "time": "Closed"}], "id": "7654200001", "name": "USPS COLLECTION BOX - BLUE BOX", "address": {"city": "KILLEEN", "state": "TX", "street": "1001 WILLOW SPRINGS RD", "postcode": "76542"}}},
{"geometry": {"type": "Point", "coordinates": [-97.7279561584, 31.0605014353]}, "type": "Feature", "properties": {"collection_times": [{"days": "Mon-Fri", "time": "5:00pm"}, {"days": "Sat", "time": "1:00pm"}, {"days": "Sun", "time": "Closed"}], "id": "7654200002", "name": "USPS COLLECTION BOX - BLUE BOX", "address": {"city": "KILLEEN", "state": "TX", "street": "3100 S W S YOUNG DR", "postcode": "76542"}}},
{"geometry": {"type": "Point", "coordinates": [-97.7279561584, 31.0605014353]}, "type": "Feature", "properties": {"collection_times": [{"days": "Mon-Fri", "time": "5:00pm"}, {"days": "Sat", "time": "1:00pm"}, {"days": "Sun", "time": "Closed"}], "id": "7654200003", "name": "USPS COLLECTION BOX - EXPRESS", "address": {"city": "KILLEEN", "state": "TX", "street": "3100 S W S YOUNG DR", "postcode": "76542"}}},
{"geometry": {"type": "Point", "coordinates": [-97.7279561584, 31.0605014353]}, "type": "Feature", "properties": {"collection_times": [{"days": "Mon-Fri", "time": "5:00pm"}, {"days": "Sat", "time": "1:00pm"}, {"days": "Sun", "time": "Closed"}], "id": "7654200004", "name": "USPS COLLECTION BOX - PO LOBBY", "address": {"city": "KILLEEN", "state": "TX", "street": "3100 S W S YOUNG DR", "postcode": "76542"}}},
{"geometry": {"type": "Point", "coordinates": [-97.7279561584, 31.0605014353]}, "type": "Feature", "properties": {"collection_times": [{"days": "Mon-Fri", "time": "5:00pm"}, {"days": "Sat", "time": "1:00pm"}, {"days": "Sun", "time": "Closed"}], "id": "7654200005", "name": "USPS COLLECTION BOX - PO LOBBY", "address": {"city": "KILLEEN", "state": "TX", "street": "3100 S W S YOUNG DR", "postcode": "76542"}}},
{"geometry": {"type": "Point", "coordinates": [-97.7279561584, 31.0605014353]}, "type": "Feature", "properties": {"collection_times": [{"days": "Mon-Fri", "time": "5:00pm"}, {"days": "Sat", "time": "1:00pm"}, {"days": "Sun", "time": "Closed"}], "id": "7654200007", "name": "USPS COLLECTION BOX - PO LOBBY", "address": {"city": "KILLEEN", "state": "TX", "street": "3100 S W S YOUNG DR", "postcode": "76542"}}},
{"geometry": {"type": "Point", "coordinates": [-97.7279561584, 31.0605014353]}, "type": "Feature", "properties": {"collection_times": [{"days": "Mon-Fri", "time": "5:00pm"}, {"days": "Sat", "time": "1:00pm"}, {"days": "Sun", "time": "Closed"}], "id": "7654200008", "name": "USPS COLLECTION BOX - PO LOBBY", "address": {"city": "KILLEEN", "state": "TX", "street": "3100 S W S YOUNG DR", "postcode": "76542"}}},
{"geometry": {"type": "Point", "coordinates": [-97.7282374291, 31.0024517305]}, "type": "Feature", "properties": {"collection_times": [{"days": "Mon-Fri", "time": "2:15pm"}, {"days": "Sat-Sun", "time": "Closed"}], "id": "7654200009", "name": "USPS COLLECTION BOX - BLUE BOX", "address": {"city": "KILLEEN", "state": "TX", "street": "6200 W CENTRAL TEXAS EXPY", "postcode": "76542"}}},
{"geometry": {"type": "Point", "coordinates": [-97.7977964837, 31.118404933]}, "type": "Feature", "properties": {"collection_times": [{"days": "Mon-Fri", "time": "2:15pm"}, {"days": "Sat-Sun", "time": "Closed"}], "id": "7654200011", "name": "USPS COLLECTION BOX - BLUE BOX", "address": {"city": "KILLEEN", "state": "TX", "street": "1901 S CLEAR CREEK RD", "postcode": "76542"}}},
{"geometry": {"type": "Point", "coordinates": [-97.7997779398, 31.1128573202]}, "type": "Feature", "properties": {"collection_times": [{"days": "Mon-Fri", "time": "2:00pm"}, {"days": "Sat-Sun", "time": "Closed"}], "id": "7654200012", "name": "USPS COLLECTION BOX - BLUE BOX", "address": {"city": "KILLEEN", "state": "TX", "street": "2201 S CLEAR CREEK RD", "postcode": "76542"}}},
{"geometry": {"type": "Point", "coordinates": [-97.7279561584, 31.0605014353]}, "type": "Feature", "properties": {"collection_times": [{"days": "Mon-Fri", "time": "5:00pm"}, {"days": "Sat", "time": "1:00pm"}, {"days": "Sun", "time": "Closed"}], "id": "7654200013", "name": "USPS COLLECTION BOX - APC", "address": {"city": "KILLEEN", "state": "TX", "street": "3100 S W S YOUNG DR", "postcode": "76542"}}},
{"geometry": {"type": "Point", "coordinates": [-97.7044687111, 31.1038014921]}, "type": "Feature", "properties": {"collection_times": [{"days": "Mon-Sat", "time": "12:45pm"}, {"days": "Sun", "time": "Closed"}], "id": "7654300005", "name": "USPS COLLECTION BOX - BLUE BOX", "address": {"city": "KILLEEN", "state": "TX", "street": "3300 E VETERANS MEMORIAL BLVD", "postcode": "76543"}}},
{"geometry": {"type": "Point", "coordinates": [-97.7112816175, 31.1158720499]}, "type": "Feature", "properties": {"collection_times": [{"days": "Mon-Sat", "time": "1:00pm"}, {"days": "Sun", "time": "Closed"}], "id": "7654300008", "name": "USPS COLLECTION BOX - BLUE BOX", "address": {"city": "KILLEEN", "state": "TX", "street": "200 N W S YOUNG DR", "postcode": "76543"}}},
{"geometry": {"type": "Point", "coordinates": [-97.6975760606, 31.1182640632]}, "type": "Feature", "properties": {"collection_times": [{"days": "Mon-Sat", "time": "1:00pm"}, {"days": "Sun", "time": "Closed"}], "id": "7654300010", "name": "USPS COLLECTION BOX - BLUE BOX", "address": {"city": "KILLEEN", "state": "TX", "street": "3307 E RANCIER AVE", "postcode": "76543"}}},
{"geometry": {"type": "Point", "coordinates": [-97.6927572688, 31.1134409823]}, "type": "Feature", "properties": {"collection_times": [{"days": "Mon-Sat", "time": "12:30pm"}, {"days": "Sun", "time": "Closed"}], "id": "7654300011", "name": "USPS COLLECTION BOX - BLUE BOX", "address": {"city": "KILLEEN", "state": "TX", "street": "2100 S W S YOUNG DR STE WS", "postcode": "76543"}}},
{"geometry": {"type": "Point", "coordinates": [-97.7809096193, 31.1440629626]}, "type": "Feature", "properties": {"collection_times": [{"days": "Mon-Fri", "time": "4:30pm"}, {"days": "Sat-Sun", "time": "Closed"}], "id": "7654400006", "name": "USPS COLLECTION BOX - BLUE BOX", "address": {"city": "FT HOOD", "state": "TX", "street": "39020 67TH ST", "postcode": "76544"}}},
{"geometry": {"type": "Point", "coordinates": [-97.7293328544, 31.2120999254]}, "type": "Feature", "properties": {"collection_times": [{"days": "Mon-Fri", "time": "4:40pm"}, {"days": "Sat-Sun", "time": "Closed"}], "id": "7654400009", "name": "USPS COLLECTION BOX - BLUE BOX", "address": {"city": "FT HOOD", "state": "TX", "street": "1001 761ST TANK BATTALION AVE", "postcode": "76544"}}},
{"geometry": {"type": "Point", "coordinates": [-97.7293328544, 31.2120999254]}, "type": "Feature", "properties": {"collection_times": [{"days": "Mon-Fri", "time": "4:15pm"}, {"days": "Sat-Sun", "time": "Closed"}], "id": "7654400010", "name": "USPS COLLECTION BOX - BLUE BOX", "address": {"city": "FT HOOD", "state": "TX", "street": "50004 CLEAR CREEK RD", "postcode": "76544"}}},
{"geometry": {"type": "Point", "coordinates": [-97.7293328544, 31.2120999254]}, "type": "Feature", "properties": {"collection_times": [{"days": "Mon-Fri", "time": "5:00pm"}, {"days": "Sat", "time": "3:00pm"}, {"days": "Sun", "time": "Closed"}], "id": "7654400011", "name": "USPS COLLECTION BOX - BLUE BOX", "address": {"city": "FT HOOD", "state": "TX", "street": "332 761ST TANK BATTALION AVE", "postcode": "76544"}}},
{"geometry": {"type": "Point", "coordinates": [-97.7652667206, 31.1339016132]}, "type": "Feature", "properties": {"collection_times": [{"days": "Mon-Fri", "time": "5:00pm"}, {"days": "Sat", "time": "3:00pm"}, {"days": "Sun", "time": "Closed"}], "id": "7654400012", "name": "USPS COLLECTION BOX - EXPRESS", "address": {"city": "FT HOOD", "state": "TX", "street": "332 761ST TANK BATTALION AVE", "postcode": "76544"}}},
{"geometry": {"type": "Point", "coordinates": [-97.7293328544, 31.2120999254]}, "type": "Feature", "properties": {"collection_times": [{"days": "Mon-Fri", "time": "4:55pm"}, {"days": "Sat-Sun", "time": "Closed"}], "id": "7654400020", "name": "USPS COLLECTION BOX - BLUE BOX", "address": {"city": "FT HOOD", "state": "TX", "street": "85006 WARRIOR WAY DR", "postcode": "76544"}}},
{"geometry": {"type": "Point", "coordinates": [-97.837234561, 31.1210783938]}, "type": "Feature", "properties": {"collection_times": [{"days": "Mon-Fri", "time": "2:45pm"}, {"days": "Sat-Sun", "time": "Closed"}], "id": "7654400021", "name": "USPS COLLECTION BOX - BLUE BOX", "address": {"city": "FT HOOD", "state": "TX", "street": "91079 CLARKE RD", "postcode": "76544"}}},
{"geometry": {"type": "Point", "coordinates": [-97.7293328544, 31.2120999254]}, "type": "Feature", "properties": {"collection_times": [{"days": "Mon-Fri", "time": "4:50pm"}, {"days": "Sat-Sun", "time": "Closed"}], "id": "7654400025", "name": "USPS COLLECTION BOX - BLUE BOX", "address": {"city": "FT HOOD", "state": "TX", "street": "18010 BATTALION AVE", "postcode": "76544"}}},
{"geometry": {"type": "Point", "coordinates": [-97.7293328544, 31.2120999254]}, "type": "Feature", "properties": {"collection_times": [{"days": "Mon-Fri", "time": "5:00pm"}, {"days": "Sat", "time": "3:00pm"}, {"days": "Sun", "time": "Closed"}], "id": "7654400026", "name": "USPS COLLECTION BOX - PO LOBBY", "address": {"city": "FT HOOD", "state": "TX", "street": "332 761ST TANK BATTALION AVE", "postcode": "76544"}}},
{"geometry": {"type": "Point", "coordinates": [-97.7293328544, 31.2120999254]}, "type": "Feature", "properties": {"collection_times": [{"days": "Mon-Fri", "time": "5:00pm"}, {"days": "Sat", "time": "3:00pm"}, {"days": "Sun", "time": "Closed"}], "id": "7654400027", "name": "USPS COLLECTION BOX - PO LOBBY", "address": {"city": "FT HOOD", "state": "TX", "street": "332 761ST TANK BATTALION AVE", "postcode": "76544"}}},
{"geometry": {"type": "Point", "coordinates": [-97.7293328544, 31.2120999254]}, "type": "Feature", "properties": {"collection_times": [{"days": "Mon-Fri", "time": "5:00pm"}, {"days": "Sat", "time": "3:00pm"}, {"days": "Sun", "time": "Closed"}], "id": "7654400028", "name": "USPS COLLECTION BOX - PO LOBBY", "address": {"city": "FT HOOD", "state": "TX", "street": "332 761ST TANK BATTALION AVE", "postcode": "76544"}}},
{"geometry": {"type": "Point", "coordinates": [-97.665455559, 31.0654319696]}, "type": "Feature", "properties": {"collection_times": [{"days": "Mon-Fri", "time": "5:00pm"}, {"days": "Sat", "time": "1:00pm"}, {"days": "Sun", "time": "Closed"}], "id": "7654800002", "name": "USPS COLLECTION BOX - BLUE BOX", "address": {"city": "HARKER HEIGHTS", "state": "TX", "street": "415 E FM 2410 RD", "postcode": "76548"}}},
{"geometry": {"type": "Point", "coordinates": [-97.6690527876, 31.0698164751]}, "type": "Feature", "properties": {"collection_times": [{"days": "Mon-Sat", "time": "12:30pm"}, {"days": "Sun", "time": "Closed"}], "id": "7654800003", "name": "USPS COLLECTION BOX - BLUE BOX", "address": {"city": "HARKER HEIGHTS", "state": "TX", "street": "100 W CENTRAL TEXAS EXPY", "postcode": "76548"}}},
{"geometry": {"type": "Point", "coordinates": [-97.665455559, 31.0654319696]}, "type": "Feature", "properties": {"collection_times": [{"days": "Mon-Fri", "time": "5:00pm"}, {"days": "Sat", "time": "1:00pm"}, {"days": "Sun", "time": "Closed"}], "id": "7654800004", "name": "USPS COLLECTION BOX - PO LOBBY", "address": {"city": "HARKER HEIGHTS", "state": "TX", "street": "415 E FM 2410 RD", "postcode": "76548"}}},
{"geometry": {"type": "Point", "coordinates": [-97.665455559, 31.0654319696]}, "type": "Feature", "properties": {"collection_times": [{"days": "Mon-Fri", "time": "5:00pm"}, {"days": "Sat", "time": "1:00pm"}, {"days": "Sun", "time": "Closed"}], "id": "7654800005", "name": "USPS COLLECTION BOX - PO LOBBY", "address": {"city": "HARKER HEIGHTS", "state": "TX", "street": "415 E FM 2410 RD", "postcode": "76548"}}},
{"geometry": {"type": "Point", "coordinates": [-97.6523660977, 31.0677836645]}, "type": "Feature", "properties": {"collection_times": [{"days": "Mon-Fri", "time": "5:00pm"}, {"days": "Sat", "time": "1:00pm"}, {"days": "Sun", "time": "Closed"}], "id": "7654800006", "name": "USPS COLLECTION BOX - EXPRESS", "address": {"city": "HARKER HEIGHTS", "state": "TX", "street": "415 E FM 2410 RD", "postcode": "76548"}}},
{"geometry": {"type": "Point", "coordinates": [-97.7762405262, 31.0831638177]}, "type": "Feature", "properties": {"collection_times": [{"days": "Mon-Fri", "time": "5:00pm"}, {"days": "Sat", "time": "1:00pm"}, {"days": "Sun", "time": "Closed"}], "id": "7654900000", "name": "USPS COLLECTION BOX - BLUE BOX", "address": {"city": "KILLEEN", "state": "TX", "street": "2403 W STAN SCHLUETER LOOP", "postcode": "76549"}}},
{"geometry": {"type": "Point", "coordinates": [-97.7833158734, 31.0817919622]}, "type": "Feature", "properties": {"collection_times": [{"days": "Mon-Fri", "time": "5:00pm"}, {"days": "Sat", "time": "1:00pm"}, {"days": "Sun", "time": "Closed"}], "id": "7654900001", "name": "USPS COLLECTION BOX - EXPRESS", "address": {"city": "KILLEEN", "state": "TX", "street": "2403 W STAN SCHLUETER LOOP", "postcode": "76549"}}},
{"geometry": {"type": "Point", "coordinates": [-97.7762405262, 31.0831638177]}, "type": "Feature", "properties": {"collection_times": [{"days": "Mon-Fri", "time": "5:00pm"}, {"days": "Sat", "time": "1:00pm"}, {"days": "Sun", "time": "Closed"}], "id": "7654900002", "name": "USPS COLLECTION BOX - PO LOBBY", "address": {"city": "KILLEEN", "state": "TX", "street": "2403 W STAN SCHLUETER LOOP", "postcode": "76549"}}},
{"geometry": {"type": "Point", "coordinates": [-97.7762405262, 31.0831638177]}, "type": "Feature", "properties": {"collection_times": [{"days": "Mon-Fri", "time": "5:00pm"}, {"days": "Sat", "time": "1:00pm"}, {"days": "Sun", "time": "Closed"}], "id": "7654900003", "name": "USPS COLLECTION BOX - PO LOBBY", "address": {"city": "KILLEEN", "state": "TX", "street": "2403 W STAN SCHLUETER LOOP", "postcode": "76549"}}},
{"geometry": {"type": "Point", "coordinates": [-97.7762405262, 31.0831638177]}, "type": "Feature", "properties": {"collection_times": [{"days": "Mon-Fri", "time": "5:00pm"}, {"days": "Sat", "time": "1:00pm"}, {"days": "Sun", "time": "Closed"}], "id": "7654900004", "name": "USPS COLLECTION BOX - PO LOBBY", "address": {"city": "KILLEEN", "state": "TX", "street": "2403 W STAN SCHLUETER LOOP", "postcode": "76549"}}},
{"geometry": {"type": "Point", "coordinates": [-97.7762405262, 31.0831638177]}, "type": "Feature", "properties": {"collection_times": [{"days": "Mon-Fri", "time": "5:00pm"}, {"days": "Sat", "time": "1:00pm"}, {"days": "Sun", "time": "Closed"}], "id": "7654900005", "name": "USPS COLLECTION BOX - PO LOBBY", "address": {"city": "KILLEEN", "state": "TX", "street": "2403 W STAN SCHLUETER LOOP", "postcode": "76549"}}},
{"geometry": {"type": "Point", "coordinates": [-97.7762405262, 31.0831638177]}, "type": "Feature", "properties": {"collection_times": [{"days": "Mon-Fri", "time": "5:00pm"}, {"days": "Sat", "time": "1:00pm"}, {"days": "Sun", "time": "Closed"}], "id": "7654900006", "name": "USPS COLLECTION BOX - APC", "address": {"city": "KILLEEN", "state": "TX", "street": "2403 W STAN SCHLUETER LOOP", "postcode": "76549"}}},
{"geometry": {"type": "Point", "coordinates": [-98.1831572613, 31.0662315356]}, "type": "Feature", "properties": {"collection_times": [{"days": "Mon-Sat", "time": "2:30pm"}, {"days": "Sun", "time": "Closed"}], "id": "7655000001", "name": "USPS COLLECTION BOX - BLUE BOX", "address": {"city": "LAMPASAS", "state": "TX", "street": "210 S KEY AVE", "postcode": "76550"}}},
{"geometry": {"type": "Point", "coordinates": [-98.1777275752, 31.0650087984]}, "type": "Feature", "properties": {"collection_times": [{"days": "Mon-Sat", "time": "2:30pm"}, {"days": "Sun", "time": "Closed"}], "id": "7655000005", "name": "USPS COLLECTION BOX - BLUE BOX", "address": {"city": "LAMPASAS", "state": "TX", "street": "516 E 4TH ST", "postcode": "76550"}}},
{"geometry": {"type": "Point", "coordinates": [-98.1798285974, 31.0615460949]}, "type": "Feature", "properties": {"collection_times": [{"days": "Mon-Sat", "time": "2:30pm"}, {"days": "Sun", "time": "Closed"}], "id": "7655000022", "name": "USPS COLLECTION BOX - BLUE BOX", "address": {"city": "LAMPASAS", "state": "TX", "street": "705 S KEY AVE", "postcode": "76550"}}},
{"geometry": {"type": "Point", "coordinates": [-98.1635394076, 31.0644953327]}, "type": "Feature", "properties": {"collection_times": [{"days": "Mon-Sat", "time": "4:50pm"}, {"days": "Sun", "time": "Closed"}], "id": "7655000023", "name": "USPS COLLECTION BOX - BLUE BOX", "address": {"city": "LAMPASAS", "state": "TX", "street": "1700 E 4TH ST", "postcode": "76550"}}},
{"geometry": {"type": "Point", "coordinates": [-98.1635394076, 31.0644953327]}, "type": "Feature", "properties": {"collection_times": [{"days": "Mon-Sat", "time": "4:50pm"}, {"days": "Sun", "time": "Closed"}], "id": "7655000024", "name": "USPS COLLECTION BOX - BLUE BOX", "address": {"city": "LAMPASAS", "state": "TX", "street": "1700 E 4TH ST", "postcode": "76550"}}},
{"geometry": {"type": "Point", "coordinates": [-98.1635394076, 31.0644953327]}, "type": "Feature", "properties": {"collection_times": [{"days": "Mon-Fri", "time": "4:30pm"}, {"days": "Sat", "time": "12:00pm"}, {"days": "Sun", "time": "Closed"}], "id": "7655000025", "name": "USPS COLLECTION BOX - PO LOBBY", "address": {"city": "LAMPASAS", "state": "TX", "street": "1700 E 4TH ST", "postcode": "76550"}}},
{"geometry": {"type": "Point", "coordinates": [-98.1635394076, 31.0644953327]}, "type": "Feature", "properties": {"collection_times": [{"days": "Mon-Fri", "time": "4:30pm"}, {"days": "Sat", "time": "12:00pm"}, {"days": "Sun", "time": "Closed"}], "id": "7655000026", "name": "USPS COLLECTION BOX - PO LOBBY", "address": {"city": "LAMPASAS", "state": "TX", "street": "1700 E 4TH ST", "postcode": "76550"}}},
{"geometry": {"type": "Point", "coordinates": [-97.3660942825, 30.9887758605]}, "type": "Feature", "properties": {"collection_times": [{"days": "Mon-Sat", "time": "4:45pm"}, {"days": "Sun", "time": "Closed"}], "id": "7655400000", "name": "USPS COLLECTION BOX - BLUE BOX", "address": {"city": "LTL RVR ACAD", "state": "TX", "street": "106 N EVANS ST", "postcode": "76554"}}},
{"geometry": {"type": "Point", "coordinates": [-97.3660942825, 30.9887758605]}, "type": "Feature", "properties": {"collection_times": [{"days": "Mon-Fri", "time": "3:00pm"}, {"days": "Sat", "time": "9:30am"}, {"days": "Sun", "time": "Closed"}], "id": "7655400002", "name": "USPS COLLECTION BOX - PO LOBBY", "address": {"city": "LTL RVR ACAD", "state": "TX", "street": "106 N EVANS ST", "postcode": "76554"}}},
{"geometry": {"type": "Point", "coordinates": [-97.3660942825, 30.9887758605]}, "type": "Feature", "properties": {"collection_times": [{"days": "Mon-Fri", "time": "3:00pm"}, {"days": "Sat", "time": "9:30am"}, {"days": "Sun", "time": "Closed"}], "id": "7655400003", "name": "USPS COLLECTION BOX - PO LOBBY", "address": {"city": "LTL RVR ACAD", "state": "TX", "street": "106 N EVANS ST", "postcode": "76554"}}},
{"geometry": {"type": "Point", "coordinates": [-96.8638556369, 30.7088307516]}, "type": "Feature", "properties": {"collection_times": [{"days": "Mon-Sat", "time": "4:25pm"}, {"days": "Sun", "time": "Closed"}], "id": "7655600000", "name": "USPS COLLECTION BOX - BLUE BOX", "address": {"city": "MILANO", "state": "TX", "street": "320 W AVENUE E", "postcode": "76556"}}},
{"geometry": {"type": "Point", "coordinates": [-96.8638556369, 30.7088307516]}, "type": "Feature", "properties": {"collection_times": [{"days": "Mon-Fri", "time": "12:00pm"}, {"days": "Sat", "time": "10:00am"}, {"days": "Sun", "time": "Closed"}], "id": "7655600001", "name": "USPS COLLECTION BOX - PO LOBBY", "address": {"city": "MILANO", "state": "TX", "street": "320 W AVENUE E", "postcode": "76556"}}},
{"geometry": {"type": "Point", "coordinates": [-97.3617407982, 31.3095267092]}, "type": "Feature", "properties": {"collection_times": [{"days": "Mon-Sat", "time": "5:00pm"}, {"days": "Sun", "time": "Closed"}], "id": "7655700000", "name": "USPS COLLECTION BOX - BLUE BOX", "address": {"city": "MOODY", "state": "TX", "street": "501 AVENUE E", "postcode": "76557"}}},
{"geometry": {"type": "Point", "coordinates": [-97.3617407982, 31.3095267092]}, "type": "Feature", "properties": {"collection_times": [{"days": "Mon-Fri", "time": "4:00pm"}, {"days": "Sat", "time": "9:00am"}, {"days": "Sun", "time": "Closed"}], "id": "7655700001", "name": "USPS COLLECTION BOX - PO LOBBY", "address": {"city": "MOODY", "state": "TX", "street": "501 AVENUE E", "postcode": "76557"}}},
{"geometry": {"type": "Point", "coordinates": [-97.3617407982, 31.3095267092]}, "type": "Feature", "properties": {"collection_times": [{"days": "Mon-Fri", "time": "4:00pm"}, {"days": "Sat", "time": "9:00am"}, {"days": "Sun", "time": "Closed"}], "id": "7655700003", "name": "USPS COLLECTION BOX - PO LOBBY", "address": {"city": "MOODY", "state": "TX", "street": "501 AVENUE E", "postcode": "76557"}}},
{"geometry": {"type": "Point", "coordinates": [-97.637586086, 31.351510021]}, "type": "Feature", "properties": {"collection_times": [{"days": "Mon-Sat", "time": "4:00pm"}, {"days": "Sun", "time": "Closed"}], "id": "7655800000", "name": "USPS COLLECTION BOX - BLUE BOX", "address": {"city": "MOUND", "state": "TX", "street": "5116 FM 1829", "postcode": "76558"}}},
{"geometry": {"type": "Point", "coordinates": [-97.6058121534, 31.0778497582]}, "type": "Feature", "properties": {"collection_times": [{"days": "Mon-Sat", "time": "5:00pm"}, {"days": "Sun", "time": "Closed"}], "id": "7655900000", "name": "USPS COLLECTION BOX - BLUE BOX", "address": {"city": "NOLANVILLE", "state": "TX", "street": "201 N MAIN ST", "postcode": "76559"}}},
{"geometry": {"type": "Point", "coordinates": [-97.6058121534, 31.0778497582]}, "type": "Feature", "properties": {"collection_times": [{"days": "Mon-Fri", "time": "4:15pm"}, {"days": "Sat", "time": "10:30am"}, {"days": "Sun", "time": "Closed"}], "id": "7655900002", "name": "USPS COLLECTION BOX - PO LOBBY", "address": {"city": "NOLANVILLE", "state": "TX", "street": "201 N MAIN ST", "postcode": "76559"}}},
{"geometry": {"type": "Point", "coordinates": [-97.5044919739, 31.4192703727]}, "type": "Feature", "properties": {"collection_times": [{"days": "Mon-Sat", "time": "5:10pm"}, {"days": "Sun", "time": "Closed"}], "id": "7656100000", "name": "USPS COLLECTION BOX - BLUE BOX", "address": {"city": "OGLESBY", "state": "TX", "street": "108 MAIN ST", "postcode": "76561"}}},
{"geometry": {"type": "Point", "coordinates": [-97.5044919739, 31.4192703727]}, "type": "Feature", "properties": {"collection_times": [{"days": "Mon-Fri", "time": "12:00pm"}, {"days": "Sat", "time": "9:00am"}, {"days": "Sun", "time": "Closed"}], "id": "7656100001", "name": "USPS COLLECTION BOX - PO LOBBY", "address": {"city": "OGLESBY", "state": "TX", "street": "108 MAIN ST", "postcode": "76561"}}},
{"geometry": {"type": "Point", "coordinates": [-97.3485525255, 31.195871719]}, "type": "Feature", "properties": {"collection_times": [{"days": "Mon-Sat", "time": "4:00pm"}, {"days": "Sun", "time": "Closed"}], "id": "7656400000", "name": "USPS COLLECTION BOX - BLUE BOX", "address": {"city": "PENDLETON", "state": "TX", "street": "9765 PENDLETON TROY RD", "postcode": "76564"}}},
{"geometry": {"type": "Point", "coordinates": [-97.3485525255, 31.195871719]}, "type": "Feature", "properties": {"collection_times": [{"days": "Mon-Fri", "time": "9:00am"}, {"days": "Sat", "time": "10:15am"}, {"days": "Sun", "time": "Closed"}], "id": "7656400001", "name": "USPS COLLECTION BOX - PO LOBBY", "address": {"city": "PENDLETON", "state": "TX", "street": "9765 PENDLETON TROY RD", "postcode": "76564"}}},
{"geometry": {"type": "Point", "coordinates": [-97.3485525255, 31.195871719]}, "type": "Feature", "properties": {"collection_times": [{"days": "Mon-Fri", "time": "9:00am"}, {"days": "Sat", "time": "10:15am"}, {"days": "Sun", "time": "Closed"}], "id": "7656400002", "name": "USPS COLLECTION BOX - PO LOBBY", "address": {"city": "PENDLETON", "state": "TX", "street": "9765 PENDLETON TROY RD", "postcode": "76564"}}},
{"geometry": {"type": "Point", "coordinates": [-97.9317378873, 31.4993968628]}, "type": "Feature", "properties": {"collection_times": [{"days": "Mon-Sat", "time": "4:30pm"}, {"days": "Sun", "time": "Closed"}], "id": "7656600000", "name": "USPS COLLECTION BOX - BLUE BOX", "address": {"city": "PURMELA", "state": "TX", "street": "12250 W US HIGHWAY 84", "postcode": "76566"}}},
{"geometry": {"type": "Point", "coordinates": [-97.9317378873, 31.4993968628]}, "type": "Feature", "properties": {"collection_times": [{"days": "Mon-Fri", "time": "10:00am"}, {"days": "Sat", "time": "11:15am"}, {"days": "Sun", "time": "Closed"}], "id": "7656600002", "name": "USPS COLLECTION BOX - PO LOBBY", "address": {"city": "PURMELA", "state": "TX", "street": "12250 W US HIGHWAY 84", "postcode": "76566"}}},
{"geometry": {"type": "Point", "coordinates": [-97.9317378873, 31.4993968628]}, "type": "Feature", "properties": {"collection_times": [{"days": "Mon-Fri", "time": "10:00am"}, {"days": "Sat", "time": "11:15am"}, {"days": "Sun", "time": "Closed"}], "id": "7656600003", "name": "USPS COLLECTION BOX - PO LOBBY", "address": {"city": "PURMELA", "state": "TX", "street": "12250 W US HIGHWAY 84", "postcode": "76566"}}},
{"geometry": {"type": "Point", "coordinates": [-97.0173919702, 30.6481628371]}, "type": "Feature", "properties": {"collection_times": [{"days": "Mon-Sat", "time": "2:00pm"}, {"days": "Sun", "time": "Closed"}], "id": "7656700001", "name": "USPS COLLECTION BOX - BLUE BOX", "address": {"city": "ROCKDALE", "state": "TX", "street": "1502 W CAMERON AVE", "postcode": "76567"}}},
{"geometry": {"type": "Point", "coordinates": [-97.0005721112, 30.6563876013]}, "type": "Feature", "properties": {"collection_times": [{"days": "Mon-Sat", "time": "4:45pm"}, {"days": "Sun", "time": "Closed"}], "id": "7656700004", "name": "USPS COLLECTION BOX - BLUE BOX", "address": {"city": "ROCKDALE", "state": "TX", "street": "234 ACKERMAN ST", "postcode": "76567"}}},
{"geometry": {"type": "Point", "coordinates": [-97.0005721112, 30.6563876013]}, "type": "Feature", "properties": {"collection_times": [{"days": "Mon-Fri", "time": "4:30pm"}, {"days": "Sat", "time": "3:45pm"}, {"days": "Sun", "time": "Closed"}], "id": "7656700007", "name": "USPS COLLECTION BOX - PO LOBBY", "address": {"city": "ROCKDALE", "state": "TX", "street": "234 ACKERMAN ST", "postcode": "76567"}}},
{"geometry": {"type": "Point", "coordinates": [-97.0091302026, 30.6521690551]}, "type": "Feature", "properties": {"collection_times": [{"days": "Mon-Sat", "time": "9:45am"}, {"days": "Sun", "time": "Closed"}], "id": "7656700009", "name": "USPS COLLECTION BOX - BLUE BOX", "address": {"city": "ROCKDALE", "state": "TX", "street": "709 W US HIGHWAY 79", "postcode": "76567"}}},
{"geometry": {"type": "Point", "coordinates": [-97.2288987412, 30.9331739015]}, "type": "Feature", "properties": {"collection_times": [{"days": "Mon-Sat", "time": "4:10pm"}, {"days": "Sun", "time": "Closed"}], "id": "7656900000", "name": "USPS COLLECTION BOX - BLUE BOX", "address": {"city": "ROGERS", "state": "TX", "street": "202 W MESQUITE AVE", "postcode": "76569"}}},
{"geometry": {"type": "Point", "coordinates": [-97.2288987412, 30.9331739015]}, "type": "Feature", "properties": {"collection_times": [{"days": "Mon-Fri", "time": "4:00pm"}, {"days": "Sat", "time": "11:00am"}, {"days": "Sun", "time": "Closed"}], "id": "7656900001", "name": "USPS COLLECTION BOX - PO LOBBY", "address": {"city": "ROGERS", "state": "TX", "street": "202 W MESQUITE AVE", "postcode": "76569"}}},
{"geometry": {"type": "Point", "coordinates": [-96.979207498, 31.0739466543]}, "type": "Feature", "properties": {"collection_times": [{"days": "Mon-Sat", "time": "5:30pm"}, {"days": "Sun", "time": "Closed"}], "id": "7657000000", "name": "USPS COLLECTION BOX - BLUE BOX", "address": {"city": "ROSEBUD", "state": "TX", "street": "206 N 5TH ST", "postcode": "76570"}}},
{"geometry": {"type": "Point", "coordinates": [-96.979207498, 31.0739466543]}, "type": "Feature", "properties": {"collection_times": [{"days": "Mon-Fri", "time": "3:30pm"}, {"days": "Sat", "time": "9:30am"}, {"days": "Sun", "time": "Closed"}], "id": "7657000001", "name": "USPS COLLECTION BOX - PO LOBBY", "address": {"city": "ROSEBUD", "state": "TX", "street": "206 N 5TH ST", "postcode": "76570"}}},
{"geometry": {"type": "Point", "coordinates": [-97.533917039, 30.9562639345]}, "type": "Feature", "properties": {"collection_times": [{"days": "Mon-Sat", "time": "4:45pm"}, {"days": "Sun", "time": "Closed"}], "id": "7657100000", "name": "USPS COLLECTION BOX - BLUE BOX", "address": {"city": "SALADO", "state": "TX", "street": "820 N MAIN ST", "postcode": "76571"}}},
{"geometry": {"type": "Point", "coordinates": [-97.533917039, 30.9562639345]}, "type": "Feature", "properties": {"collection_times": [{"days": "Mon-Sat", "time": "4:45pm"}, {"days": "Sun", "time": "Closed"}], "id": "7657100001", "name": "USPS COLLECTION BOX - BLUE BOX", "address": {"city": "SALADO", "state": "TX", "street": "820 N MAIN ST", "postcode": "76571"}}},
{"geometry": {"type": "Point", "coordinates": [-97.533917039, 30.9562639345]}, "type": "Feature", "properties": {"collection_times": [{"days": "Mon-Fri", "time": "4:00pm"}, {"days": "Sat", "time": "11:00am"}, {"days": "Sun", "time": "Closed"}], "id": "7657100002", "name": "USPS COLLECTION BOX - PO LOBBY", "address": {"city": "SALADO", "state": "TX", "street": "820 N MAIN ST", "postcode": "76571"}}},
{"geometry": {"type": "Point", "coordinates": [-97.533917039, 30.9562639345]}, "type": "Feature", "properties": {"collection_times": [{"days": "Mon-Fri", "time": "4:00pm"}, {"days": "Sat", "time": "11:00am"}, {"days": "Sun", "time": "Closed"}], "id": "7657100003", "name": "USPS COLLECTION BOX - PO LOBBY", "address": {"city": "SALADO", "state": "TX", "street": "820 N MAIN ST", "postcode": "76571"}}},
{"geometry": {"type": "Point", "coordinates": [-97.5125352693, 30.8150345587]}, "type": "Feature", "properties": {"collection_times": [{"days": "Mon-Sat", "time": "5:10pm"}, {"days": "Sun", "time": "Closed"}], "id": "7657300000", "name": "USPS COLLECTION BOX - BLUE BOX", "address": {"city": "SCHWERTNER", "state": "TX", "street": "14775 FM ROAD 1105", "postcode": "76573"}}},
{"geometry": {"type": "Point", "coordinates": [-97.5125352693, 30.8150345587]}, "type": "Feature", "properties": {"collection_times": [{"days": "Mon-Fri", "time": "12:00pm"}, {"days": "Sat", "time": "8:45am"}, {"days": "Sun", "time": "Closed"}], "id": "7657300002", "name": "USPS COLLECTION BOX - PO LOBBY", "address": {"city": "SCHWERTNER", "state": "TX", "street": "14775 FM ROAD 1105", "postcode": "76573"}}},
{"geometry": {"type": "Point", "coordinates": [-97.4109709134, 30.5705356954]}, "type": "Feature", "properties": {"collection_times": [{"days": "Mon-Sat", "time": "5:00pm"}, {"days": "Sun", "time": "Closed"}], "id": "7657400002", "name": "USPS COLLECTION BOX - BLUE BOX", "address": {"city": "TAYLOR", "state": "TX", "street": "202 W 4TH ST", "postcode": "76574"}}},
{"geometry": {"type": "Point", "coordinates": [-97.4098974108, 30.5772108185]}, "type": "Feature", "properties": {"collection_times": [{"days": "Mon-Fri", "time": "4:30pm"}, {"days": "Sat", "time": "3:00pm"}, {"days": "Sun", "time": "Closed"}], "id": "7657400003", "name": "USPS COLLECTION BOX - EXPRESS", "address": {"city": "TAYLOR", "state": "TX", "street": "202 W 4TH ST", "postcode": "76574"}}},
{"geometry": {"type": "Point", "coordinates": [-97.4134184555, 30.5933869138]}, "type": "Feature", "properties": {"collection_times": [{"days": "Mon-Sat", "time": "10:30am"}, {"days": "Sun", "time": "Closed"}], "id": "7657400005", "name": "USPS COLLECTION BOX - BLUE BOX", "address": {"city": "TAYLOR", "state": "TX", "street": "3100 N MAIN ST", "postcode": "76574"}}},
{"geometry": {"type": "Point", "coordinates": [-97.414905435, 30.5920489872]}, "type": "Feature", "properties": {"collection_times": [{"days": "Mon-Sat", "time": "11:00am"}, {"days": "Sun", "time": "Closed"}], "id": "7657400011", "name": "USPS COLLECTION BOX - BLUE BOX", "address": {"city": "TAYLOR", "state": "TX", "street": "305 MALLARD LN", "postcode": "76574"}}},
{"geometry": {"type": "Point", "coordinates": [-97.4109709134, 30.5705356954]}, "type": "Feature", "properties": {"collection_times": [{"days": "Mon-Fri", "time": "4:30pm"}, {"days": "Sat", "time": "3:00pm"}, {"days": "Sun", "time": "Closed"}], "id": "7657400012", "name": "USPS COLLECTION BOX - PO LOBBY", "address": {"city": "TAYLOR", "state": "TX", "street": "202 W 4TH ST", "postcode": "76574"}}},
{"geometry": {"type": "Point", "coordinates": [-97.4109709134, 30.5705356954]}, "type": "Feature", "properties": {"collection_times": [{"days": "Mon-Fri", "time": "4:30pm"}, {"days": "Sat", "time": "3:00pm"}, {"days": "Sun", "time": "Closed"}], "id": "7657400013", "name": "USPS COLLECTION BOX - PO LOBBY", "address": {"city": "TAYLOR", "state": "TX", "street": "202 W 4TH ST", "postcode": "76574"}}},
{"geometry": {"type": "Point", "coordinates": [-97.4109709134, 30.5705356954]}, "type": "Feature", "properties": {"collection_times": [{"days": "Mon-Fri", "time": "4:30pm"}, {"days": "Sat", "time": "3:00pm"}, {"days": "Sun", "time": "Closed"}], "id": "7657400014", "name": "USPS COLLECTION BOX - PO LOBBY", "address": {"city": "TAYLOR", "state": "TX", "street": "202 W 4TH ST", "postcode": "76574"}}},
{"geometry": {"type": "Point", "coordinates": [-97.1473693678, 30.5977595899]}, "type": "Feature", "properties": {"collection_times": [{"days": "Mon-Sat", "time": "5:15pm"}, {"days": "Sun", "time": "Closed"}], "id": "7657700000", "name": "USPS COLLECTION BOX - BLUE BOX", "address": {"city": "THORNDALE", "state": "TX", "street": "200 W QUINN ST", "postcode": "76577"}}},
{"geometry": {"type": "Point", "coordinates": [-97.206963618, 30.6134633793]}, "type": "Feature", "properties": {"collection_times": [{"days": "Mon-Fri", "time": "4:00pm"}, {"days": "Sat-Sun", "time": "Closed"}], "id": "7657700002", "name": "USPS COLLECTION BOX - PO LOBBY", "address": {"city": "THORNDALE", "state": "TX", "street": "107 N 1ST ST", "postcode": "76577"}}},
{"geometry": {"type": "Point", "coordinates": [-97.2988618923, 30.5881972728]}, "type": "Feature", "properties": {"collection_times": [{"days": "Mon-Sat", "time": "5:30pm"}, {"days": "Sun", "time": "Closed"}], "id": "7657800000", "name": "USPS COLLECTION BOX - BLUE BOX", "address": {"city": "THRALL", "state": "TX", "street": "101 E SHELDON AVE", "postcode": "76578"}}},
{"geometry": {"type": "Point", "coordinates": [-97.2988618923, 30.5881972728]}, "type": "Feature", "properties": {"collection_times": [{"days": "Mon-Fri", "time": "3:00pm"}, {"days": "Sat", "time": "9:30am"}, {"days": "Sun", "time": "Closed"}], "id": "7657800001", "name": "USPS COLLECTION BOX - PO LOBBY", "address": {"city": "THRALL", "state": "TX", "street": "101 E SHELDON AVE", "postcode": "76578"}}},
{"geometry": {"type": "Point", "coordinates": [-97.2712888158, 31.1982756872]}, "type": "Feature", "properties": {"collection_times": [{"days": "Mon-Sat", "time": "4:00pm"}, {"days": "Sun", "time": "Closed"}], "id": "7657900000", "name": "USPS COLLECTION BOX - BLUE BOX", "address": {"city": "TROY", "state": "TX", "street": "10 FRONT ST", "postcode": "76579"}}},
{"geometry": {"type": "Point", "coordinates": [-97.2712888158, 31.1982756872]}, "type": "Feature", "properties": {"collection_times": [{"days": "Mon-Fri", "time": "3:45pm"}, {"days": "Sat", "time": "11:00am"}, {"days": "Sun", "time": "Closed"}], "id": "7657900001", "name": "USPS COLLECTION BOX - PO LOBBY", "address": {"city": "TROY", "state": "TX", "street": "10 FRONT ST", "postcode": "76579"}}}
]}
