{"type": "FeatureCollection", "features": [
{"geometry": {"type": "Point", "coordinates": [-97.0917470553, 31.8870466872]}, "type": "Feature", "properties": {"collection_times": [{"days": "Mon-Sat", "time": "4:50pm"}, {"days": "Sun", "time": "Closed"}], "id": "7662100000", "name": "USPS COLLECTION BOX - BLUE BOX", "address": {"city": "ABBOTT", "state": "TX", "street": "220 E WALNUT ST", "postcode": "76621"}}},
{"geometry": {"type": "Point", "coordinates": [-97.0917470553, 31.8870466872]}, "type": "Feature", "properties": {"collection_times": [{"days": "Mon-Fri", "time": "10:45am"}, {"days": "Sat", "time": "8:45am"}, {"days": "Sun", "time": "Closed"}], "id": "7662100002", "name": "USPS COLLECTION BOX - PO LOBBY", "address": {"city": "ABBOTT", "state": "TX", "street": "220 E WALNUT ST", "postcode": "76621"}}},
{"geometry": {"type": "Point", "coordinates": [-97.2390227881, 31.8432438852]}, "type": "Feature", "properties": {"collection_times": [{"days": "Mon-Sat", "time": "4:15pm"}, {"days": "Sun", "time": "Closed"}], "id": "7662200001", "name": "USPS COLLECTION BOX - BLUE BOX", "address": {"city": "AQUILLA", "state": "TX", "street": "200 E TREADWELL", "postcode": "76622"}}},
{"geometry": {"type": "Point", "coordinates": [-97.2390227881, 31.8432438852]}, "type": "Feature", "properties": {"collection_times": [{"days": "Mon-Fri", "time": "12:00pm"}, {"days": "Sat", "time": "8:30am"}, {"days": "Sun", "time": "Closed"}], "id": "7662200002", "name": "USPS COLLECTION BOX - PO LOBBY", "address": {"city": "AQUILLA", "state": "TX", "street": "200 E TREADWELL", "postcode": "76622"}}},
{"geometry": {"type": "Point", "coordinates": [-96.7917923442, 32.2046219739]}, "type": "Feature", "properties": {"collection_times": [{"days": "Mon-Sat", "time": "4:30pm"}, {"days": "Sun", "time": "Closed"}], "id": "7662300000", "name": "USPS COLLECTION BOX - BLUE BOX", "address": {"city": "AVALON", "state": "TX", "street": "108 E MAIN ST", "postcode": "76623"}}},
{"geometry": {"type": "Point", "coordinates": [-96.7917923442, 32.2046219739]}, "type": "Feature", "properties": {"collection_times": [{"days": "Mon-Fri", "time": "12:00pm"}, {"days": "Sat", "time": "9:30am"}, {"days": "Sun", "time": "Closed"}], "id": "7662300001", "name": "USPS COLLECTION BOX - PO LOBBY", "address": {"city": "AVALON", "state": "TX", "street": "108 E MAIN ST", "postcode": "76623"}}},
{"geometry": {"type": "Point", "coordinates": [-96.7917923442, 32.2046219739]}, "type": "Feature", "properties": {"collection_times": [{"days": "Mon-Fri", "time": "12:00pm"}, {"days": "Sat", "time": "9:30am"}, {"days": "Sun", "time": "Closed"}], "id": "7662300002", "name": "USPS COLLECTION BOX - PO LOBBY", "address": {"city": "AVALON", "state": "TX", "street": "108 E MAIN ST", "postcode": "76623"}}},
{"geometry": {"type": "Point", "coordinates": [-96.9743015813, 31.6546250556]}, "type": "Feature", "properties": {"collection_times": [{"days": "Mon-Sat", "time": "5:15pm"}, {"days": "Sun", "time": "Closed"}], "id": "7662400000", "name": "USPS COLLECTION BOX - BLUE BOX", "address": {"city": "AXTELL", "state": "TX", "street": "4521 E OLD AXTELL RD", "postcode": "76624"}}},
{"geometry": {"type": "Point", "coordinates": [-96.9743015813, 31.6546250556]}, "type": "Feature", "properties": {"collection_times": [{"days": "Mon-Fri", "time": "2:00pm"}, {"days": "Sat", "time": "10:00am"}, {"days": "Sun", "time": "Closed"}], "id": "7662400002", "name": "USPS COLLECTION BOX - PO LOBBY", "address": {"city": "AXTELL", "state": "TX", "street": "4521 E OLD AXTELL RD", "postcode": "76624"}}},
{"geometry": {"type": "Point", "coordinates": [-96.7169778765, 32.0928382494]}, "type": "Feature", "properties": {"collection_times": [{"days": "Mon-Sat", "time": "4:15pm"}, {"days": "Sun", "time": "Closed"}], "id": "7662600000", "name": "USPS COLLECTION BOX - BLUE BOX", "address": {"city": "BLOOMING GROVE", "state": "TX", "street": "100 S FORDYCE ST", "postcode": "76626"}}},
{"geometry": {"type": "Point", "coordinates": [-96.7169778765, 32.0928382494]}, "type": "Feature", "properties": {"collection_times": [{"days": "Mon-Fri", "time": "3:15pm"}, {"days": "Sat", "time": "10:45am"}, {"days": "Sun", "time": "Closed"}], "id": "7662600001", "name": "USPS COLLECTION BOX - PO LOBBY", "address": {"city": "BLOOMING GROVE", "state": "TX", "street": "100 S FORDYCE ST", "postcode": "76626"}}},
{"geometry": {"type": "Point", "coordinates": [-97.3752973826, 32.1056799264]}, "type": "Feature", "properties": {"collection_times": [{"days": "Mon-Sat", "time": "4:45pm"}, {"days": "Sun", "time": "Closed"}], "id": "7662700000", "name": "USPS COLLECTION BOX - BLUE BOX", "address": {"city": "BLUM", "state": "TX", "street": "108 W 4TH ST", "postcode": "76627"}}},
{"geometry": {"type": "Point", "coordinates": [-97.3752973826, 32.1056799264]}, "type": "Feature", "properties": {"collection_times": [{"days": "Mon-Fri", "time": "12:00pm"}, {"days": "Sat", "time": "9:30am"}, {"days": "Sun", "time": "Closed"}], "id": "7662700002", "name": "USPS COLLECTION BOX - PO LOBBY", "address": {"city": "BLUM", "state": "TX", "street": "108 W 4TH ST", "postcode": "76627"}}},
{"geometry": {"type": "Point", "coordinates": [-96.9642046055, 32.043475117]}, "type": "Feature", "properties": {"collection_times": [{"days": "Mon-Sat", "time": "3:45pm"}, {"days": "Sun", "time": "Closed"}], "id": "7662800000", "name": "USPS COLLECTION BOX - BLUE BOX", "address": {"city": "BRANDON", "state": "TX", "street": "1601 FM 1243", "postcode": "76628"}}},
{"geometry": {"type": "Point", "coordinates": [-96.9642046055, 32.043475117]}, "type": "Feature", "properties": {"collection_times": [{"days": "Mon-Fri", "time": "10:45am"}, {"days": "Sat", "time": "10:00am"}, {"days": "Sun", "time": "Closed"}], "id": "7662800003", "name": "USPS COLLECTION BOX - PO LOBBY", "address": {"city": "BRANDON", "state": "TX", "street": "1601 FM 1243", "postcode": "76628"}}},
{"geometry": {"type": "Point", "coordinates": [-96.6766760527, 31.1638392195]}, "type": "Feature", "properties": {"collection_times": [{"days": "Mon-Sat", "time": "4:30pm"}, {"days": "Sun", "time": "Closed"}], "id": "7662900001", "name": "USPS COLLECTION BOX - BLUE BOX", "address": {"city": "BREMOND", "state": "TX", "street": "400 S MAIN ST", "postcode": "76629"}}},
{"geometry": {"type": "Point", "coordinates": [-96.6766760527, 31.1638392195]}, "type": "Feature", "properties": {"collection_times": [{"days": "Mon-Fri", "time": "4:00pm"}, {"days": "Sat", "time": "10:00am"}, {"days": "Sun", "time": "Closed"}], "id": "7662900003", "name": "USPS COLLECTION BOX - PO LOBBY", "address": {"city": "BREMOND", "state": "TX", "street": "400 S MAIN ST", "postcode": "76629"}}},
{"geometry": {"type": "Point", "coordinates": [-97.0048734211, 31.9717582348]}, "type": "Feature", "properties": {"collection_times": [{"days": "Mon-Sat", "time": "3:15pm"}, {"days": "Sun", "time": "Closed"}], "id": "7663100000", "name": "USPS COLLECTION BOX - BLUE BOX", "address": {"city": "BYNUM", "state": "TX", "street": "200 WHITE AVE", "postcode": "76631"}}},
{"geometry": {"type": "Point", "coordinates": [-97.0048734211, 31.9717582348]}, "type": "Feature", "properties": {"collection_times": [{"days": "Mon-Fri", "time": "10:00am"}, {"days": "Sat", "time": "9:45am"}, {"days": "Sun", "time": "Closed"}], "id": "7663100001", "name": "USPS COLLECTION BOX - PO LOBBY", "address": {"city": "BYNUM", "state": "TX", "street": "200 WHITE AVE", "postcode": "76631"}}},
{"geometry": {"type": "Point", "coordinates": [-97.0928680547, 31.3038925827]}, "type": "Feature", "properties": {"collection_times": [{"days": "Mon-Sat", "time": "4:15pm"}, {"days": "Sun", "time": "Closed"}], "id": "7663200000", "name": "USPS COLLECTION BOX - BLUE BOX", "address": {"city": "CHILTON", "state": "TX", "street": "2581 STATE HIGHWAY 7", "postcode": "76632"}}},
{"geometry": {"type": "Point", "coordinates": [-97.0928680547, 31.3038925827]}, "type": "Feature", "properties": {"collection_times": [{"days": "Mon-Fri", "time": "12:00pm"}, {"days": "Sat", "time": "9:30am"}, {"days": "Sun", "time": "Closed"}], "id": "7663200002", "name": "USPS COLLECTION BOX - PO LOBBY", "address": {"city": "CHILTON", "state": "TX", "street": "2581 STATE HIGHWAY 7", "postcode": "76632"}}},
{"geometry": {"type": "Point", "coordinates": [-97.3081791554, 31.6456836779]}, "type": "Feature", "properties": {"collection_times": [{"days": "Mon-Sat", "time": "4:45pm"}, {"days": "Sun", "time": "Closed"}], "id": "7663300000", "name": "USPS COLLECTION BOX - BLUE BOX", "address": {"city": "CHINA SPRING", "state": "TX", "street": "14038 CHINA SPRING RD", "postcode": "76633"}}},
{"geometry": {"type": "Point", "coordinates": [-97.3081791554, 31.6456836779]}, "type": "Feature", "properties": {"collection_times": [{"days": "Mon-Fri", "time": "3:30pm"}, {"days": "Sat", "time": "10:00am"}, {"days": "Sun", "time": "Closed"}], "id": "7663300001", "name": "USPS COLLECTION BOX - PO LOBBY", "address": {"city": "CHINA SPRING", "state": "TX", "street": "14038 CHINA SPRING RD", "postcode": "76633"}}},
{"geometry": {"type": "Point", "coordinates": [-97.3081791554, 31.6456836779]}, "type": "Feature", "properties": {"collection_times": [{"days": "Mon-Fri", "time": "3:30pm"}, {"days": "Sat", "time": "10:00am"}, {"days": "Sun", "time": "Closed"}], "id": "7663300002", "name": "USPS COLLECTION BOX - PO LOBBY", "address": {"city": "CHINA SPRING", "state": "TX", "street": "14038 CHINA SPRING RD", "postcode": "76633"}}},
{"geometry": {"type": "Point", "coordinates": [-97.5751034042, 31.7829926821]}, "type": "Feature", "properties": {"collection_times": [{"days": "Mon-Sat", "time": "4:30pm"}, {"days": "Sun", "time": "Closed"}], "id": "7663400000", "name": "USPS COLLECTION BOX - BLUE BOX", "address": {"city": "CLIFTON", "state": "TX", "street": "407 W 5TH ST", "postcode": "76634"}}},
{"geometry": {"type": "Point", "coordinates": [-97.5751034042, 31.7829926821]}, "type": "Feature", "properties": {"collection_times": [{"days": "Mon-Fri", "time": "4:45pm"}, {"days": "Sat", "time": "3:00pm"}, {"days": "Sun", "time": "Closed"}], "id": "7663400004", "name": "USPS COLLECTION BOX - PO LOBBY", "address": {"city": "CLIFTON", "state": "TX", "street": "407 W 5TH ST", "postcode": "76634"}}},
{"geometry": {"type": "Point", "coordinates": [-97.5751034042, 31.7829926821]}, "type": "Feature", "properties": {"collection_times": [{"days": "Mon-Fri", "time": "4:45pm"}, {"days": "Sat", "time": "3:00pm"}, {"days": "Sun", "time": "Closed"}], "id": "7663400005", "name": "USPS COLLECTION BOX - PO LOBBY", "address": {"city": "CLIFTON", "state": "TX", "street": "407 W 5TH ST", "postcode": "76634"}}},
{"geometry": {"type": "Point", "coordinates": [-97.3799599045, 31.8592464096]}, "type": "Feature", "properties": {"collection_times": [{"days": "Mon-Sat", "time": "3:30pm"}, {"days": "Sun", "time": "Closed"}], "id": "7663400008", "name": "USPS COLLECTION BOX - BLUE BOX", "address": {"city": "CLIFTON", "state": "TX", "street": "141 COUNTY ROAD 1812", "postcode": "76634"}}},
{"geometry": {"type": "Point", "coordinates": [-97.5751034042, 31.7829926821]}, "type": "Feature", "properties": {"collection_times": [{"days": "Mon-Sat", "time": "4:30pm"}, {"days": "Sun", "time": "Closed"}], "id": "7663400010", "name": "USPS COLLECTION BOX - BLUE BOX", "address": {"city": "CLIFTON", "state": "TX", "street": "407 W 5TH ST", "postcode": "76634"}}},
{"geometry": {"type": "Point", "coordinates": [-96.6506687503, 31.7532934479]}, "type": "Feature", "properties": {"collection_times": [{"days": "Mon-Sat", "time": "4:15pm"}, {"days": "Sun", "time": "Closed"}], "id": "7663500000", "name": "USPS COLLECTION BOX - BLUE BOX", "address": {"city": "COOLIDGE", "state": "TX", "street": "310 BELL ST", "postcode": "76635"}}},
{"geometry": {"type": "Point", "coordinates": [-96.6506687503, 31.7532934479]}, "type": "Feature", "properties": {"collection_times": [{"days": "Mon-Fri", "time": "12:00pm"}, {"days": "Sat", "time": "9:00am"}, {"days": "Sun", "time": "Closed"}], "id": "7663500002", "name": "USPS COLLECTION BOX - PO LOBBY", "address": {"city": "COOLIDGE", "state": "TX", "street": "310 BELL ST", "postcode": "76635"}}},
{"geometry": {"type": "Point", "coordinates": [-97.2560264455, 32.1785193391]}, "type": "Feature", "properties": {"collection_times": [{"days": "Mon-Sat", "time": "4:45pm"}, {"days": "Sun", "time": "Closed"}], "id": "7663600000", "name": "USPS COLLECTION BOX - BLUE BOX", "address": {"city": "COVINGTON", "state": "TX", "street": "306 GATHINGS AVE", "postcode": "76636"}}},
{"geometry": {"type": "Point", "coordinates": [-97.2560264455, 32.1785193391]}, "type": "Feature", "properties": {"collection_times": [{"days": "Mon-Fri", "time": "3:30pm"}, {"days": "Sat", "time": "10:30am"}, {"days": "Sun", "time": "Closed"}], "id": "7663600001", "name": "USPS COLLECTION BOX - PO LOBBY", "address": {"city": "COVINGTON", "state": "TX", "street": "306 GATHINGS AVE", "postcode": "76636"}}},
{"geometry": {"type": "Point", "coordinates": [-97.2560264455, 32.1785193391]}, "type": "Feature", "properties": {"collection_times": [{"days": "Mon-Fri", "time": "3:30pm"}, {"days": "Sat", "time": "10:30am"}, {"days": "Sun", "time": "Closed"}], "id": "7663600002", "name": "USPS COLLECTION BOX - PO LOBBY", "address": {"city": "COVINGTON", "state": "TX", "street": "306 GATHINGS AVE", "postcode": "76636"}}},
{"geometry": {"type": "Point", "coordinates": [-97.8266344391, 31.7742521089]}, "type": "Feature", "properties": {"collection_times": [{"days": "Mon-Sat", "time": "4:00pm"}, {"days": "Sun", "time": "Closed"}], "id": "7663700000", "name": "USPS COLLECTION BOX - BLUE BOX", "address": {"city": "CRANFILLS GAP", "state": "TX", "street": "220 N 3RD ST", "postcode": "76637"}}},
{"geometry": {"type": "Point", "coordinates": [-97.4435868687, 31.5357928635]}, "type": "Feature", "properties": {"collection_times": [{"days": "Mon-Sat", "time": "5:00pm"}, {"days": "Sun", "time": "Closed"}], "id": "7663800000", "name": "USPS COLLECTION BOX - BLUE BOX", "address": {"city": "CRAWFORD", "state": "TX", "street": "6835 N LONE STAR PKWY", "postcode": "76638"}}},
{"geometry": {"type": "Point", "coordinates": [-97.4435868687, 31.5357928635]}, "type": "Feature", "properties": {"collection_times": [{"days": "Mon-Fri", "time": "3:00pm"}, {"days": "Sat", "time": "10:00am"}, {"days": "Sun", "time": "Closed"}], "id": "7663800002", "name": "USPS COLLECTION BOX - PO LOBBY", "address": {"city": "CRAWFORD", "state": "TX", "street": "6835 N LONE STAR PKWY", "postcode": "76638"}}},
{"geometry": {"type": "Point", "coordinates": [-96.7142958159, 31.8930237959]}, "type": "Feature", "properties": {"collection_times": [{"days": "Mon-Sat", "time": "4:15pm"}, {"days": "Sun", "time": "Closed"}], "id": "7663900000", "name": "USPS COLLECTION BOX - BLUE BOX", "address": {"city": "DAWSON", "state": "TX", "street": "108 N MAIN ST", "postcode": "76639"}}},
{"geometry": {"type": "Point", "coordinates": [-97.1017230491, 31.670638964]}, "type": "Feature", "properties": {"collection_times": [{"days": "Mon-Sat", "time": "6:00pm"}, {"days": "Sun", "time": "Closed"}], "id": "7664000000", "name": "USPS COLLECTION BOX - BLUE BOX", "address": {"city": "ELM MOTT", "state": "TX", "street": "252 W ELM MOTT DR", "postcode": "76640"}}},
{"geometry": {"type": "Point", "coordinates": [-97.1017230491, 31.670638964]}, "type": "Feature", "properties": {"collection_times": [{"days": "Mon-Fri", "time": "4:00pm"}, {"days": "Sat", "time": "9:15am"}, {"days": "Sun", "time": "Closed"}], "id": "7664000001", "name": "USPS COLLECTION BOX - PO LOBBY", "address": {"city": "ELM MOTT", "state": "TX", "street": "252 W ELM MOTT DR", "postcode": "76640"}}},
{"geometry": {"type": "Point", "coordinates": [-97.1017230491, 31.670638964]}, "type": "Feature", "properties": {"collection_times": [{"days": "Mon-Sat", "time": "6:00pm"}, {"days": "Sun", "time": "Closed"}], "id": "7664000003", "name": "USPS COLLECTION BOX - BLUE BOX", "address": {"city": "ELM MOTT", "state": "TX", "street": "252 W ELM MOTT DR", "postcode": "76640"}}},
{"geometry": {"type": "Point", "coordinates": [-96.8075920351, 32.0812063886]}, "type": "Feature", "properties": {"collection_times": [{"days": "Mon-Sat", "time": "4:30pm"}, {"days": "Sun", "time": "Closed"}], "id": "7664100001", "name": "USPS COLLECTION BOX - BLUE BOX", "address": {"city": "FROST", "state": "TX", "street": "301 N GARITTY ST", "postcode": "76641"}}},
{"geometry": {"type": "Point", "coordinates": [-96.8076116758, 32.0811545179]}, "type": "Feature", "properties": {"collection_times": [{"days": "Mon-Fri", "time": "3:00pm"}, {"days": "Sat", "time": "9:45am"}, {"days": "Sun", "time": "Closed"}], "id": "7664100002", "name": "USPS COLLECTION BOX - PO LOBBY", "address": {"city": "FROST", "state": "TX", "street": "301 N GARITTY ST", "postcode": "76641"}}},
{"geometry": {"type": "Point", "coordinates": [-96.5336422119, 31.5230808975]}, "type": "Feature", "properties": {"collection_times": [{"days": "Mon-Sat", "time": "5:00pm"}, {"days": "Sun", "time": "Closed"}], "id": "7664200003", "name": "USPS COLLECTION BOX - BLUE BOX", "address": {"city": "GROESBECK", "state": "TX", "street": "112 S DR J B RIGGS DR", "postcode": "76642"}}},
{"geometry": {"type": "Point", "coordinates": [-96.5336422119, 31.5230808975]}, "type": "Feature", "properties": {"collection_times": [{"days": "Mon-Sat", "time": "5:00pm"}, {"days": "Sun", "time": "Closed"}], "id": "7664200004", "name": "USPS COLLECTION BOX - BLUE BOX", "address": {"city": "GROESBECK", "state": "TX", "street": "112 S DR J B RIGGS DR", "postcode": "76642"}}},
{"geometry": {"type": "Point", "coordinates": [-96.5336422119, 31.5230808975]}, "type": "Feature", "properties": {"collection_times": [{"days": "Mon-Fri", "time": "4:00pm"}, {"days": "Sat", "time": "10:00am"}, {"days": "Sun", "time": "Closed"}], "id": "7664200005", "name": "USPS COLLECTION BOX - PO LOBBY", "address": {"city": "GROESBECK", "state": "TX", "street": "112 S DR J B RIGGS DR", "postcode": "76642"}}},
{"geometry": {"type": "Point", "coordinates": [-97.2036214745, 31.4483501714]}, "type": "Feature", "properties": {"collection_times": [{"days": "Mon-Sat", "time": "5:35pm"}, {"days": "Sun", "time": "Closed"}], "id": "7664300001", "name": "USPS COLLECTION BOX - BLUE BOX", "address": {"city": "HEWITT", "state": "TX", "street": "901 S HEWITT DR", "postcode": "76643"}}},
{"geometry": {"type": "Point", "coordinates": [-97.2034871024, 31.4489049931]}, "type": "Feature", "properties": {"collection_times": [{"days": "Mon-Fri", "time": "4:30pm"}, {"days": "Sat", "time": "12:00pm"}, {"days": "Sun", "time": "Closed"}], "id": "7664300004", "name": "USPS COLLECTION BOX - PO LOBBY", "address": {"city": "HEWITT", "state": "TX", "street": "901 S HEWITT DR", "postcode": "76643"}}},
{"geometry": {"type": "Point", "coordinates": [-97.2034871024, 31.4489049931]}, "type": "Feature", "properties": {"collection_times": [{"days": "Mon-Fri", "time": "4:30pm"}, {"days": "Sat", "time": "12:00pm"}, {"days": "Sun", "time": "Closed"}], "id": "7664300006", "name": "USPS COLLECTION BOX - PO LOBBY", "address": {"city": "HEWITT", "state": "TX", "street": "901 S HEWITT DR", "postcode": "76643"}}},
{"geometry": {"type": "Point", "coordinates": [-97.1266291222, 32.0152903239]}, "type": "Feature", "properties": {"collection_times": [{"days": "Mon-Sat", "time": "5:05pm"}, {"days": "Sun", "time": "Closed"}], "id": "7664500000", "name": "USPS COLLECTION BOX - EXPRESS", "address": {"city": "HILLSBORO", "state": "TX", "street": "202 I 35 HWY SW", "postcode": "76645"}}},
{"geometry": {"type": "Point", "coordinates": [-97.0968098668, 32.0095575031]}, "type": "Feature", "properties": {"collection_times": [{"days": "Mon-Sat", "time": "5:05pm"}, {"days": "Sun", "time": "Closed"}], "id": "7664500001", "name": "USPS COLLECTION BOX - BLUE BOX", "address": {"city": "HILLSBORO", "state": "TX", "street": "202 I 35 HWY SW", "postcode": "76645"}}},
{"geometry": {"type": "Point", "coordinates": [-97.131371916, 32.011829832]}, "type": "Feature", "properties": {"collection_times": [{"days": "Mon-Sat", "time": "5:20pm"}, {"days": "Sun", "time": "Closed"}], "id": "7664500003", "name": "USPS COLLECTION BOX - BLUE BOX", "address": {"city": "HILLSBORO", "state": "TX", "street": "100 W FRANKLIN ST", "postcode": "76645"}}},
{"geometry": {"type": "Point", "coordinates": [-97.131371916, 32.011829832]}, "type": "Feature", "properties": {"collection_times": [{"days": "Mon-Sat", "time": "5:20pm"}, {"days": "Sun", "time": "Closed"}], "id": "7664500004", "name": "USPS COLLECTION BOX - BLUE BOX", "address": {"city": "HILLSBORO", "state": "TX", "street": "100 W FRANKLIN ST", "postcode": "76645"}}},
{"geometry": {"type": "Point", "coordinates": [-97.1266160872, 32.0152816795]}, "type": "Feature", "properties": {"collection_times": [{"days": "Mon-Sat", "time": "5:05pm"}, {"days": "Sun", "time": "Closed"}], "id": "7664500006", "name": "USPS COLLECTION BOX - BLUE BOX", "address": {"city": "HILLSBORO", "state": "TX", "street": "1501 CORSICANA HWY", "postcode": "76645"}}},
{"geometry": {"type": "Point", "coordinates": [-97.1196940663, 32.0062232071]}, "type": "Feature", "properties": {"collection_times": [{"days": "Mon-Sat", "time": "2:30pm"}, {"days": "Sun", "time": "Closed"}], "id": "7664500013", "name": "USPS COLLECTION BOX - BLUE BOX", "address": {"city": "HILLSBORO", "state": "TX", "street": "520 CORSICANA HWY", "postcode": "76645"}}},
{"geometry": {"type": "Point", "coordinates": [-97.0872132957, 32.0168024395]}, "type": "Feature", "properties": {"collection_times": [{"days": "Mon-Sat", "time": "12:15pm"}, {"days": "Sun", "time": "Closed"}], "id": "7664500015", "name": "USPS COLLECTION BOX - BLUE BOX", "address": {"city": "HILLSBORO", "state": "TX", "street": "1815 OLD BRANDON RD", "postcode": "76645"}}},
{"geometry": {"type": "Point", "coordinates": [-97.1266291222, 32.0152903239]}, "type": "Feature", "properties": {"collection_times": [{"days": "Mon-Sat", "time": "10:00am"}, {"days": "Sun", "time": "Closed"}], "id": "7664500016", "name": "USPS COLLECTION BOX - BLUE BOX", "address": {"city": "HILLSBORO", "state": "TX", "street": "222 E FRANKLIN ST", "postcode": "76645"}}},
{"geometry": {"type": "Point", "coordinates": [-97.131371916, 32.011829832]}, "type": "Feature", "properties": {"collection_times": [{"days": "Mon-Fri", "time": "4:30pm"}, {"days": "Sat", "time": "11:30am"}, {"days": "Sun", "time": "Closed"}], "id": "7664500018", "name": "USPS COLLECTION BOX - PO LOBBY", "address": {"city": "HILLSBORO", "state": "TX", "street": "100 W FRANKLIN ST", "postcode": "76645"}}},
{"geometry": {"type": "Point", "coordinates": [-97.0946546367, 32.0107786634]}, "type": "Feature", "properties": {"collection_times": [{"days": "Mon-Sat", "time": "11:15am"}, {"days": "Sun", "time": "Closed"}], "id": "7664500022", "name": "USPS COLLECTION BOX - BLUE BOX", "address": {"city": "HILLSBORO", "state": "TX", "street": "104 I 35 HWY SE", "postcode": "76645"}}},
{"geometry": {"type": "Point", "coordinates": [-96.7965266848, 31.8476428374]}, "type": "Feature", "properties": {"collection_times": [{"days": "Mon-Sat", "time": "4:45pm"}, {"days": "Sun", "time": "Closed"}], "id": "7664800000", "name": "USPS COLLECTION BOX - BLUE BOX", "address": {"city": "HUBBARD", "state": "TX", "street": "306 N MAGNOLIA AVE", "postcode": "76648"}}},
{"geometry": {"type": "Point", "coordinates": [-96.7965266848, 31.8476428374]}, "type": "Feature", "properties": {"collection_times": [{"days": "Mon-Fri", "time": "4:00pm"}, {"days": "Sat", "time": "12:00pm"}, {"days": "Sun", "time": "Closed"}], "id": "7664800002", "name": "USPS COLLECTION BOX - PO LOBBY", "address": {"city": "HUBBARD", "state": "TX", "street": "306 N MAGNOLIA AVE", "postcode": "76648"}}},
{"geometry": {"type": "Point", "coordinates": [-97.8716118872, 31.9848522758]}, "type": "Feature", "properties": {"collection_times": [{"days": "Mon-Fri", "time": "12:00pm"}, {"days": "Sat", "time": "11:00am"}, {"days": "Sun", "time": "Closed"}], "id": "7664900000", "name": "USPS COLLECTION BOX - PO LOBBY", "address": {"city": "IREDELL", "state": "TX", "street": "306 S EASTLAND", "postcode": "76649"}}},
{"geometry": {"type": "Point", "coordinates": [-97.8716118872, 31.9848522758]}, "type": "Feature", "properties": {"collection_times": [{"days": "Mon-Sat", "time": "4:05pm"}, {"days": "Sun", "time": "Closed"}], "id": "7664900002", "name": "USPS COLLECTION BOX - BLUE BOX", "address": {"city": "IREDELL", "state": "TX", "street": "306 S EASTLAND", "postcode": "76649"}}},
{"geometry": {"type": "Point", "coordinates": [-96.871297753, 31.992181836]}, "type": "Feature", "properties": {"collection_times": [{"days": "Mon-Fri", "time": "9:45am"}, {"days": "Sat", "time": "10:30am"}, {"days": "Sun", "time": "Closed"}], "id": "7665000001", "name": "USPS COLLECTION BOX - PO LOBBY", "address": {"city": "IRENE", "state": "TX", "street": "116 1ST ST", "postcode": "76650"}}},
{"geometry": {"type": "Point", "coordinates": [-96.8850399874, 32.1835065657]}, "type": "Feature", "properties": {"collection_times": [{"days": "Mon-Sat", "time": "4:30pm"}, {"days": "Sun", "time": "Closed"}], "id": "7665100001", "name": "USPS COLLECTION BOX - BLUE BOX", "address": {"city": "ITALY", "state": "TX", "street": "105 POPLAR ST", "postcode": "76651"}}},
{"geometry": {"type": "Point", "coordinates": [-96.8850399874, 32.1835065657]}, "type": "Feature", "properties": {"collection_times": [{"days": "Mon-Fri", "time": "4:15pm"}, {"days": "Sat", "time": "10:00am"}, {"days": "Sun", "time": "Closed"}], "id": "7665100003", "name": "USPS COLLECTION BOX - PO LOBBY", "address": {"city": "ITALY", "state": "TX", "street": "105 POPLAR ST", "postcode": "76651"}}},
{"geometry": {"type": "Point", "coordinates": [-96.899986708, 32.196452729]}, "type": "Feature", "properties": {"collection_times": [{"days": "Mon-Sat", "time": "1:00pm"}, {"days": "Sun", "time": "Closed"}], "id": "7665100004", "name": "USPS COLLECTION BOX - BLUE BOX", "address": {"city": "ITALY", "state": "TX", "street": "101 L R CAMPBELL RD", "postcode": "76651"}}},
{"geometry": {"type": "Point", "coordinates": [-97.5918591173, 32.114690545]}, "type": "Feature", "properties": {"collection_times": [{"days": "Mon-Sat", "time": "4:20pm"}, {"days": "Sun", "time": "Closed"}], "id": "7665200000", "name": "USPS COLLECTION BOX - BLUE BOX", "address": {"city": "KOPPERL", "state": "TX", "street": "106 FM 1859", "postcode": "76652"}}},
{"geometry": {"type": "Point", "coordinates": [-97.5918591173, 32.114690545]}, "type": "Feature", "properties": {"collection_times": [{"days": "Mon-Fri", "time": "12:00pm"}, {"days": "Sat", "time": "9:45am"}, {"days": "Sun", "time": "Closed"}], "id": "7665200001", "name": "USPS COLLECTION BOX - PO LOBBY", "address": {"city": "KOPPERL", "state": "TX", "street": "106 FM 1859", "postcode": "76652"}}},
{"geometry": {"type": "Point", "coordinates": [-96.6278952, 31.307417082]}, "type": "Feature", "properties": {"collection_times": [{"days": "Mon-Sat", "time": "4:00pm"}, {"days": "Sun", "time": "Closed"}], "id": "7665300001", "name": "USPS COLLECTION BOX - BLUE BOX", "address": {"city": "KOSSE", "state": "TX", "street": "107 W ADAMS ST", "postcode": "76653"}}},
{"geometry": {"type": "Point", "coordinates": [-96.6278952, 31.307417082]}, "type": "Feature", "properties": {"collection_times": [{"days": "Mon-Fri", "time": "12:15pm"}, {"days": "Sat", "time": "9:30am"}, {"days": "Sun", "time": "Closed"}], "id": "7665300002", "name": "USPS COLLECTION BOX - PO LOBBY", "address": {"city": "KOSSE", "state": "TX", "street": "107 W ADAMS ST", "postcode": "76653"}}},
{"geometry": {"type": "Point", "coordinates": [-96.6278952, 31.307417082]}, "type": "Feature", "properties": {"collection_times": [{"days": "Mon-Fri", "time": "12:15pm"}, {"days": "Sat", "time": "9:30am"}, {"days": "Sun", "time": "Closed"}], "id": "7665300003", "name": "USPS COLLECTION BOX - PO LOBBY", "address": {"city": "KOSSE", "state": "TX", "street": "107 W ADAMS ST", "postcode": "76653"}}},
{"geometry": {"type": "Point", "coordinates": [-97.0171174809, 31.7311808881]}, "type": "Feature", "properties": {"collection_times": [{"days": "Mon-Sat", "time": "5:30pm"}, {"days": "Sun", "time": "Closed"}], "id": "7665400000", "name": "USPS COLLECTION BOX - BLUE BOX", "address": {"city": "LEROY", "state": "TX", "street": "115 W COMMERCE", "postcode": "76654"}}},
{"geometry": {"type": "Point", "coordinates": [-97.0171174809, 31.7311808881]}, "type": "Feature", "properties": {"collection_times": [{"days": "Mon-Fri", "time": "11:45am"}, {"days": "Sat", "time": "9:30am"}, {"days": "Sun", "time": "Closed"}], "id": "7665400001", "name": "USPS COLLECTION BOX - PO LOBBY", "address": {"city": "LEROY", "state": "TX", "street": "115 W COMMERCE", "postcode": "76654"}}},
{"geometry": {"type": "Point", "coordinates": [-97.2226220102, 31.3977464141]}, "type": "Feature", "properties": {"collection_times": [{"days": "Mon-Fri", "time": "4:30pm"}, {"days": "Sat", "time": "10:00am"}, {"days": "Sun", "time": "Closed"}], "id": "7665500001", "name": "USPS COLLECTION BOX - PO LOBBY", "address": {"city": "LORENA", "state": "TX", "street": "1190 OLD LORENA RD", "postcode": "76655"}}},
{"geometry": {"type": "Point", "coordinates": [-97.2226220102, 31.3977464141]}, "type": "Feature", "properties": {"collection_times": [{"days": "Mon-Fri", "time": "4:30pm"}, {"days": "Sat", "time": "10:00am"}, {"days": "Sun", "time": "Closed"}], "id": "7665500003", "name": "USPS COLLECTION BOX - PO LOBBY", "address": {"city": "LORENA", "state": "TX", "street": "1190 OLD LORENA RD", "postcode": "76655"}}},
{"geometry": {"type": "Point", "coordinates": [-97.2106013162, 31.3920596604]}, "type": "Feature", "properties": {"collection_times": [{"days": "Mon-Fri", "time": "12:00pm"}, {"days": "Sat-Sun", "time": "Closed"}], "id": "7665500005", "name": "USPS COLLECTION BOX - BLUE BOX", "address": {"city": "LORENA", "state": "TX", "street": "406 N FRONTAGE RD", "postcode": "76655"}}},
{"geometry": {"type": "Point", "coordinates": [-97.2226220102, 31.3977464141]}, "type": "Feature", "properties": {"collection_times": [{"days": "Mon-Sat", "time": "5:15pm"}, {"days": "Sun", "time": "Closed"}], "id": "7665500006", "name": "USPS COLLECTION BOX - BLUE BOX", "address": {"city": "LORENA", "state": "TX", "street": "1190 OLD LORENA RD", "postcode": "76655"}}},
{"geometry": {"type": "Point", "coordinates": [-97.0615951558, 31.1909302287]}, "type": "Feature", "properties": {"collection_times": [{"days": "Mon-Sat", "time": "4:00pm"}, {"days": "Sun", "time": "Closed"}], "id": "7665600000", "name": "USPS COLLECTION BOX - BLUE BOX", "address": {"city": "LOTT", "state": "TX", "street": "217 E GASSAWAY", "postcode": "76656"}}},
{"geometry": {"type": "Point", "coordinates": [-97.0615951558, 31.1909302287]}, "type": "Feature", "properties": {"collection_times": [{"days": "Mon-Fri", "time": "3:30pm"}, {"days": "Sat", "time": "10:00am"}, {"days": "Sun", "time": "Closed"}], "id": "7665600001", "name": "USPS COLLECTION BOX - PO LOBBY", "address": {"city": "LOTT", "state": "TX", "street": "217 E GASSAWAY", "postcode": "76656"}}},
{"geometry": {"type": "Point", "coordinates": [-97.4056390403, 31.4384929804]}, "type": "Feature", "properties": {"collection_times": [{"days": "Mon-Sat", "time": "4:45pm"}, {"days": "Sun", "time": "Closed"}], "id": "7665700000", "name": "USPS COLLECTION BOX - BLUE BOX", "address": {"city": "MCGREGOR", "state": "TX", "street": "423 S MAIN ST", "postcode": "76657"}}},
{"geometry": {"type": "Point", "coordinates": [-97.4056390403, 31.4384929804]}, "type": "Feature", "properties": {"collection_times": [{"days": "Mon-Sat", "time": "4:45pm"}, {"days": "Sun", "time": "Closed"}], "id": "7665700004", "name": "USPS COLLECTION BOX - BLUE BOX", "address": {"city": "MCGREGOR", "state": "TX", "street": "423 S MAIN ST", "postcode": "76657"}}},
{"geometry": {"type": "Point", "coordinates": [-97.4055979603, 31.4386669241]}, "type": "Feature", "properties": {"collection_times": [{"days": "Mon-Fri", "time": "4:30pm"}, {"days": "Sat", "time": "9:00am"}, {"days": "Sun", "time": "Closed"}], "id": "7665700006", "name": "USPS COLLECTION BOX - PO LOBBY", "address": {"city": "MCGREGOR", "state": "TX", "street": "408 S MAIN ST", "postcode": "76657"}}},
{"geometry": {"type": "Point", "coordinates": [-96.8954027, 31.9171935851]}, "type": "Feature", "properties": {"collection_times": [{"days": "Mon-Fri", "time": "11:45am"}, {"days": "Sat", "time": "9:15am"}, {"days": "Sun", "time": "Closed"}], "id": "7666000001", "name": "USPS COLLECTION BOX - PO LOBBY", "address": {"city": "MALONE", "state": "TX", "street": "213 N PECAN", "postcode": "76660"}}},
{"geometry": {"type": "Point", "coordinates": [-96.8963929447, 31.3085793978]}, "type": "Feature", "properties": {"collection_times": [{"days": "Mon-Sat", "time": "5:00pm"}, {"days": "Sun", "time": "Closed"}], "id": "7666100005", "name": "USPS COLLECTION BOX - BLUE BOX", "address": {"city": "MARLIN", "state": "TX", "street": "200 WINTER ST", "postcode": "76661"}}},
{"geometry": {"type": "Point", "coordinates": [-96.897720294, 31.3074952705]}, "type": "Feature", "properties": {"collection_times": [{"days": "Mon-Fri", "time": "4:30pm"}, {"days": "Sat", "time": "11:30am"}, {"days": "Sun", "time": "Closed"}], "id": "7666100016", "name": "USPS COLLECTION BOX - PO LOBBY", "address": {"city": "MARLIN", "state": "TX", "street": "207 COLEMAN ST", "postcode": "76661"}}},
{"geometry": {"type": "Point", "coordinates": [-96.8353008644, 31.5415878901]}, "type": "Feature", "properties": {"collection_times": [{"days": "Mon-Sat", "time": "5:30pm"}, {"days": "Sun", "time": "Closed"}], "id": "7666400000", "name": "USPS COLLECTION BOX - BLUE BOX", "address": {"city": "MART", "state": "TX", "street": "301 E TEXAS AVE", "postcode": "76664"}}},
{"geometry": {"type": "Point", "coordinates": [-96.8353008644, 31.5415878901]}, "type": "Feature", "properties": {"collection_times": [{"days": "Mon-Sat", "time": "5:30pm"}, {"days": "Sun", "time": "Closed"}], "id": "7666400001", "name": "USPS COLLECTION BOX - BLUE BOX", "address": {"city": "MART", "state": "TX", "street": "301 E TEXAS AVE", "postcode": "76664"}}},
{"geometry": {"type": "Point", "coordinates": [-96.8353008644, 31.5415878901]}, "type": "Feature", "properties": {"collection_times": [{"days": "Mon-Fri", "time": "4:30pm"}, {"days": "Sat", "time": "11:00am"}, {"days": "Sun", "time": "Closed"}], "id": "7666400004", "name": "USPS COLLECTION BOX - PO LOBBY", "address": {"city": "MART", "state": "TX", "street": "301 E TEXAS AVE", "postcode": "76664"}}},
{"geometry": {"type": "Point", "coordinates": [-96.8353008644, 31.5415878901]}, "type": "Feature", "properties": {"collection_times": [{"days": "Mon-Fri", "time": "4:30pm"}, {"days": "Sat", "time": "11:00am"}, {"days": "Sun", "time": "Closed"}], "id": "7666400005", "name": "USPS COLLECTION BOX - PO LOBBY", "address": {"city": "MART", "state": "TX", "street": "301 E TEXAS AVE", "postcode": "76664"}}},
{"geometry": {"type": "Point", "coordinates": [-97.6640316164, 31.9170265902]}, "type": "Feature", "properties": {"collection_times": [{"days": "Mon-Sat", "time": "5:10pm"}, {"days": "Sun", "time": "Closed"}], "id": "7666500000", "name": "USPS COLLECTION BOX - BLUE BOX", "address": {"city": "MERIDIAN", "state": "TX", "street": "504 W MORGAN", "postcode": "76665"}}},
{"geometry": {"type": "Point", "coordinates": [-97.6274767768, 31.9239473155]}, "type": "Feature", "properties": {"collection_times": [{"days": "Mon-Fri", "time": "4:00pm"}, {"days": "Sat", "time": "10:00am"}, {"days": "Sun", "time": "Closed"}], "id": "7666500001", "name": "USPS COLLECTION BOX - PO LOBBY", "address": {"city": "MERIDIAN", "state": "TX", "street": "512 E LIVE OAK", "postcode": "76665"}}},
{"geometry": {"type": "Point", "coordinates": [-97.657203654, 31.9233443483]}, "type": "Feature", "properties": {"collection_times": [{"days": "Mon-Sat", "time": "5:00pm"}, {"days": "Sun", "time": "Closed"}], "id": "7666500002", "name": "USPS COLLECTION BOX - BLUE BOX", "address": {"city": "MERIDIAN", "state": "TX", "street": "100 N MAIN", "postcode": "76665"}}},
{"geometry": {"type": "Point", "coordinates": [-97.6274767768, 31.9239473155]}, "type": "Feature", "properties": {"collection_times": [{"days": "Mon-Sat", "time": "4:50pm"}, {"days": "Sun", "time": "Closed"}], "id": "7666500003", "name": "USPS COLLECTION BOX - BLUE BOX", "address": {"city": "MERIDIAN", "state": "TX", "street": "512 E LIVE OAK", "postcode": "76665"}}},
{"geometry": {"type": "Point", "coordinates": [-96.8968603619, 32.0584664079]}, "type": "Feature", "properties": {"collection_times": [{"days": "Mon-Fri", "time": "10:00am"}, {"days": "Sat", "time": "8:30am"}, {"days": "Sun", "time": "Closed"}], "id": "7666600001", "name": "USPS COLLECTION BOX - PO LOBBY", "address": {"city": "MERTENS", "state": "TX", "street": "101 E HIGHWAY 22", "postcode": "76666"}}},
{"geometry": {"type": "Point", "coordinates": [-96.8968603619, 32.0584664079]}, "type": "Feature", "properties": {"collection_times": [{"days": "Mon-Sat", "time": "4:45pm"}, {"days": "Sun", "time": "Closed"}], "id": "7666600002", "name": "USPS COLLECTION BOX - BLUE BOX", "address": {"city": "MERTENS", "state": "TX", "street": "101 E HIGHWAY 22", "postcode": "76666"}}},
{"geometry": {"type": "Point", "coordinates": [-96.4825885845, 31.6802859814]}, "type": "Feature", "properties": {"collection_times": [{"days": "Mon-Sat", "time": "5:00pm"}, {"days": "Sun", "time": "Closed"}], "id": "7666700001", "name": "USPS COLLECTION BOX - BLUE BOX", "address": {"city": "MEXIA", "state": "TX", "street": "100 N MCKINNEY ST", "postcode": "76667"}}},
{"geometry": {"type": "Point", "coordinates": [-96.4711093882, 31.6846865121]}, "type": "Feature", "properties": {"collection_times": [{"days": "Mon-Sat", "time": "2:30pm"}, {"days": "Sun", "time": "Closed"}], "id": "7666700010", "name": "USPS COLLECTION BOX - BLUE BOX", "address": {"city": "MEXIA", "state": "TX", "street": "1007 E MILAM ST", "postcode": "76667"}}},
{"geometry": {"type": "Point", "coordinates": [-96.5343156395, 31.7012823178]}, "type": "Feature", "properties": {"collection_times": [{"days": "Mon-Sat", "time": "1:00pm"}, {"days": "Sun", "time": "Closed"}], "id": "7666700011", "name": "USPS COLLECTION BOX - BLUE BOX", "address": {"city": "MEXIA", "state": "TX", "street": "540 CHAPEL DR", "postcode": "76667"}}},
{"geometry": {"type": "Point", "coordinates": [-96.4825885845, 31.6802859814]}, "type": "Feature", "properties": {"collection_times": [{"days": "Mon-Fri", "time": "4:30pm"}, {"days": "Sat", "time": "1:30pm"}, {"days": "Sun", "time": "Closed"}], "id": "7666700012", "name": "USPS COLLECTION BOX - PO LOBBY", "address": {"city": "MEXIA", "state": "TX", "street": "100 N MCKINNEY ST", "postcode": "76667"}}},
{"geometry": {"type": "Point", "coordinates": [-96.9453688988, 32.1257567548]}, "type": "Feature", "properties": {"collection_times": [{"days": "Mon-Sat", "time": "4:45pm"}, {"days": "Sun", "time": "Closed"}], "id": "7667000000", "name": "USPS COLLECTION BOX - BLUE BOX", "address": {"city": "MILFORD", "state": "TX", "street": "200 N MAIN", "postcode": "76670"}}},
{"geometry": {"type": "Point", "coordinates": [-96.9453688988, 32.1257567548]}, "type": "Feature", "properties": {"collection_times": [{"days": "Mon-Fri", "time": "12:00pm"}, {"days": "Sat", "time": "9:30am"}, {"days": "Sun", "time": "Closed"}], "id": "7667000001", "name": "USPS COLLECTION BOX - PO LOBBY", "address": {"city": "MILFORD", "state": "TX", "street": "200 N MAIN", "postcode": "76670"}}},
{"geometry": {"type": "Point", "coordinates": [-97.5900987647, 32.0185772805]}, "type": "Feature", "properties": {"collection_times": [{"days": "Mon-Sat", "time": "4:35pm"}, {"days": "Sun", "time": "Closed"}], "id": "7667100000", "name": "USPS COLLECTION BOX - BLUE BOX", "address": {"city": "MORGAN", "state": "TX", "street": "1002 HARRIS", "postcode": "76671"}}},
{"geometry": {"type": "Point", "coordinates": [-97.5900987647, 32.0185772805]}, "type": "Feature", "properties": {"collection_times": [{"days": "Mon-Fri", "time": "12:00pm"}, {"days": "Sat", "time": "10:00am"}, {"days": "Sun", "time": "Closed"}], "id": "7667100001", "name": "USPS COLLECTION BOX - PO LOBBY", "address": {"city": "MORGAN", "state": "TX", "street": "1002 HARRIS", "postcode": "76671"}}},
{"geometry": {"type": "Point", "coordinates": [-97.5900987647, 32.0185772805]}, "type": "Feature", "properties": {"collection_times": [{"days": "Mon-Sat", "time": "1:00pm"}, {"days": "Sun", "time": "Closed"}], "id": "7667100003", "name": "USPS COLLECTION BOX - BLUE BOX", "address": {"city": "MORGAN", "state": "TX", "street": "13452 FM 56", "postcode": "76671"}}},
{"geometry": {"type": "Point", "coordinates": [-96.8875582296, 31.749940838]}, "type": "Feature", "properties": {"collection_times": [{"days": "Mon-Sat", "time": "5:00pm"}, {"days": "Sun", "time": "Closed"}], "id": "7667300000", "name": "USPS COLLECTION BOX - BLUE BOX", "address": {"city": "MOUNT CALM", "state": "TX", "street": "221 STATE HIGHWAY 31", "postcode": "76673"}}},
{"geometry": {"type": "Point", "coordinates": [-96.8875582296, 31.749940838]}, "type": "Feature", "properties": {"collection_times": [{"days": "Mon-Fri", "time": "12:00pm"}, {"days": "Sat", "time": "10:45am"}, {"days": "Sun", "time": "Closed"}], "id": "7667300004", "name": "USPS COLLECTION BOX - PO LOBBY", "address": {"city": "MOUNT CALM", "state": "TX", "street": "221 STATE HIGHWAY 31", "postcode": "76673"}}},
{"geometry": {"type": "Point", "coordinates": [-96.9273295889, 31.8596504634]}, "type": "Feature", "properties": {"collection_times": [{"days": "Mon-Sat", "time": "3:45pm"}, {"days": "Sun", "time": "Closed"}], "id": "7667600000", "name": "USPS COLLECTION BOX - BLUE BOX", "address": {"city": "PENELOPE", "state": "TX", "street": "122 E COMMERCE", "postcode": "76676"}}},
{"geometry": {"type": "Point", "coordinates": [-96.9273295889, 31.8596504634]}, "type": "Feature", "properties": {"collection_times": [{"days": "Mon-Fri", "time": "10:45am"}, {"days": "Sat", "time": "8:45am"}, {"days": "Sun", "time": "Closed"}], "id": "7667600001", "name": "USPS COLLECTION BOX - PO LOBBY", "address": {"city": "PENELOPE", "state": "TX", "street": "122 E COMMERCE", "postcode": "76676"}}},
{"geometry": {"type": "Point", "coordinates": [-96.7757673101, 31.6877517527]}, "type": "Feature", "properties": {"collection_times": [{"days": "Mon-Sat", "time": "4:00pm"}, {"days": "Sun", "time": "Closed"}], "id": "7667800000", "name": "USPS COLLECTION BOX - BLUE BOX", "address": {"city": "PRAIRIE HILL", "state": "TX", "street": "4874 HIGHWAY 73 W", "postcode": "76678"}}},
{"geometry": {"type": "Point", "coordinates": [-96.7757673101, 31.6877517527]}, "type": "Feature", "properties": {"collection_times": [{"days": "Mon-Fri", "time": "10:00am"}, {"days": "Sat", "time": "9:30am"}, {"days": "Sun", "time": "Closed"}], "id": "7667800004", "name": "USPS COLLECTION BOX - PO LOBBY", "address": {"city": "PRAIRIE HILL", "state": "TX", "street": "4874 HIGHWAY 73 W", "postcode": "76678"}}},
{"geometry": {"type": "Point", "coordinates": [-96.6153901659, 31.9486276695]}, "type": "Feature", "properties": {"collection_times": [{"days": "Mon-Fri", "time": "11:45am"}, {"days": "Sat", "time": "9:30am"}, {"days": "Sun", "time": "Closed"}], "id": "7667900000", "name": "USPS COLLECTION BOX - PO LOBBY", "address": {"city": "PURDON", "state": "TX", "street": "700 N BROWN ST", "postcode": "76679"}}},
{"geometry": {"type": "Point", "coordinates": [-96.6153901659, 31.9486276695]}, "type": "Feature", "properties": {"collection_times": [{"days": "Mon-Sat", "time": "4:00pm"}, {"days": "Sun", "time": "Closed"}], "id": "7667900001", "name": "USPS COLLECTION BOX - BLUE BOX", "address": {"city": "PURDON", "state": "TX", "street": "700 N BROWN ST", "postcode": "76679"}}},
{"geometry": {"type": "Point", "coordinates": [-96.7537906075, 31.2398364904]}, "type": "Feature", "properties": {"collection_times": [{"days": "Mon-Sat", "time": "4:45pm"}, {"days": "Sun", "time": "Closed"}], "id": "7668000000", "name": "USPS COLLECTION BOX - BLUE BOX", "address": {"city": "REAGAN", "state": "TX", "street": "3700 FM 413", "postcode": "76680"}}},
{"geometry": {"type": "Point", "coordinates": [-96.7537906075, 31.2398364904]}, "type": "Feature", "properties": {"collection_times": [{"days": "Mon-Fri", "time": "10:00am"}, {"days": "Sat", "time": "9:45am"}, {"days": "Sun", "time": "Closed"}], "id": "7668000001", "name": "USPS COLLECTION BOX - PO LOBBY", "address": {"city": "REAGAN", "state": "TX", "street": "3700 FM 413", "postcode": "76680"}}},
{"geometry": {"type": "Point", "coordinates": [-96.4278372599, 31.9266442664]}, "type": "Feature", "properties": {"collection_times": [{"days": "Mon-Sat", "time": "4:30pm"}, {"days": "Sun", "time": "Closed"}], "id": "7668100000", "name": "USPS COLLECTION BOX - BLUE BOX", "address": {"city": "RICHLAND", "state": "TX", "street": "107 E MAIN ST", "postcode": "76681"}}},
{"geometry": {"type": "Point", "coordinates": [-96.4278372599, 31.9266442664]}, "type": "Feature", "properties": {"collection_times": [{"days": "Mon-Fri", "time": "12:00pm"}, {"days": "Sat", "time": "9:30am"}, {"days": "Sun", "time": "Closed"}], "id": "7668100001", "name": "USPS COLLECTION BOX - PO LOBBY", "address": {"city": "RICHLAND", "state": "TX", "street": "107 E MAIN ST", "postcode": "76681"}}},
{"geometry": {"type": "Point", "coordinates": [-96.8970682513, 31.4512450379]}, "type": "Feature", "properties": {"collection_times": [{"days": "Mon-Sat", "time": "5:30pm"}, {"days": "Sun", "time": "Closed"}], "id": "7668200000", "name": "USPS COLLECTION BOX - BLUE BOX", "address": {"city": "RIESEL", "state": "TX", "street": "202 E ALEXANDER ST", "postcode": "76682"}}},
{"geometry": {"type": "Point", "coordinates": [-96.8970682513, 31.4512450379]}, "type": "Feature", "properties": {"collection_times": [{"days": "Mon-Fri", "time": "4:00pm"}, {"days": "Sat", "time": "9:30am"}, {"days": "Sun", "time": "Closed"}], "id": "7668200001", "name": "USPS COLLECTION BOX - PO LOBBY", "address": {"city": "RIESEL", "state": "TX", "street": "202 E ALEXANDER ST", "postcode": "76682"}}},
{"geometry": {"type": "Point", "coordinates": [-97.1218493259, 31.7150940886]}, "type": "Feature", "properties": {"collection_times": [{"days": "Mon-Sat", "time": "5:45pm"}, {"days": "Sun", "time": "Closed"}], "id": "7668400000", "name": "USPS COLLECTION BOX - BLUE BOX", "address": {"city": "ROSS", "state": "TX", "street": "1441 ROSS RD", "postcode": "76684"}}},
{"geometry": {"type": "Point", "coordinates": [-97.1218493259, 31.7150940886]}, "type": "Feature", "properties": {"collection_times": [{"days": "Mon-Fri", "time": "12:00pm"}, {"days": "Sat", "time": "9:30am"}, {"days": "Sun", "time": "Closed"}], "id": "7668400001", "name": "USPS COLLECTION BOX - PO LOBBY", "address": {"city": "ROSS", "state": "TX", "street": "1441 ROSS RD", "postcode": "76684"}}},
{"geometry": {"type": "Point", "coordinates": [-97.0316407453, 31.3469722051]}, "type": "Feature", "properties": {"collection_times": [{"days": "Mon-Sat", "time": "11:45am"}, {"days": "Sun", "time": "Closed"}], "id": "7668500000", "name": "USPS COLLECTION BOX - PO LOBBY", "address": {"city": "SATIN", "state": "TX", "street": "135 COUNTY ROAD 4039", "postcode": "76685"}}},
{"geometry": {"type": "Point", "coordinates": [-96.5473477036, 31.7417856275]}, "type": "Feature", "properties": {"collection_times": [{"days": "Mon-Sat", "time": "4:30pm"}, {"days": "Sun", "time": "Closed"}], "id": "7668600000", "name": "USPS COLLECTION BOX - BLUE BOX", "address": {"city": "TEHUACANA", "state": "TX", "street": "208 S RAILROAD ST", "postcode": "76686"}}},
{"geometry": {"type": "Point", "coordinates": [-96.5473477036, 31.7417856275]}, "type": "Feature", "properties": {"collection_times": [{"days": "Mon-Fri", "time": "11:00am"}, {"days": "Sat", "time": "8:45am"}, {"days": "Sun", "time": "Closed"}], "id": "7668600002", "name": "USPS COLLECTION BOX - PO LOBBY", "address": {"city": "TEHUACANA", "state": "TX", "street": "208 S RAILROAD ST", "postcode": "76686"}}},
{"geometry": {"type": "Point", "coordinates": [-96.5723611828, 31.4119814403]}, "type": "Feature", "properties": {"collection_times": [{"days": "Mon-Sat", "time": "4:45pm"}, {"days": "Sun", "time": "Closed"}], "id": "7668700000", "name": "USPS COLLECTION BOX - BLUE BOX", "address": {"city": "THORNTON", "state": "TX", "street": "1008 MARSHALL ST", "postcode": "76687"}}},
{"geometry": {"type": "Point", "coordinates": [-96.5723611828, 31.4119814403]}, "type": "Feature", "properties": {"collection_times": [{"days": "Mon-Fri", "time": "12:00pm"}, {"days": "Sat", "time": "10:00am"}, {"days": "Sun", "time": "Closed"}], "id": "7668700001", "name": "USPS COLLECTION BOX - PO LOBBY", "address": {"city": "THORNTON", "state": "TX", "street": "1008 MARSHALL ST", "postcode": "76687"}}},
{"geometry": {"type": "Point", "coordinates": [-97.544926326, 31.6539342278]}, "type": "Feature", "properties": {"collection_times": [{"days": "Mon-Sat", "time": "4:45pm"}, {"days": "Sun", "time": "Closed"}], "id": "7668900001", "name": "USPS COLLECTION BOX - BLUE BOX", "address": {"city": "VALLEY MILLS", "state": "TX", "street": "501 AVENUE D", "postcode": "76689"}}},
{"geometry": {"type": "Point", "coordinates": [-97.544926326, 31.6539342278]}, "type": "Feature", "properties": {"collection_times": [{"days": "Mon-Fri", "time": "3:30pm"}, {"days": "Sat", "time": "11:00am"}, {"days": "Sun", "time": "Closed"}], "id": "7668900002", "name": "USPS COLLECTION BOX - PO LOBBY", "address": {"city": "VALLEY MILLS", "state": "TX", "street": "501 AVENUE D", "postcode": "76689"}}},
{"geometry": {"type": "Point", "coordinates": [-97.7746857328, 32.0719249161]}, "type": "Feature", "properties": {"collection_times": [{"days": "Mon-Sat", "time": "4:20pm"}, {"days": "Sun", "time": "Closed"}], "id": "7669000000", "name": "USPS COLLECTION BOX - BLUE BOX", "address": {"city": "WALNUT SPRINGS", "state": "TX", "street": "4105 3RD ST", "postcode": "76690"}}},
{"geometry": {"type": "Point", "coordinates": [-97.7746857328, 32.0719249161]}, "type": "Feature", "properties": {"collection_times": [{"days": "Mon-Fri", "time": "12:00pm"}, {"days": "Sat", "time": "10:00am"}, {"days": "Sun", "time": "Closed"}], "id": "7669000001", "name": "USPS COLLECTION BOX - PO LOBBY", "address": {"city": "WALNUT SPRINGS", "state": "TX", "street": "4105 3RD ST", "postcode": "76690"}}},
{"geometry": {"type": "Point", "coordinates": [-97.7746857328, 32.0719249161]}, "type": "Feature", "properties": {"collection_times": [{"days": "Mon-Fri", "time": "12:00pm"}, {"days": "Sat", "time": "10:00am"}, {"days": "Sun", "time": "Closed"}], "id": "7669000002", "name": "USPS COLLECTION BOX - PO LOBBY", "address": {"city": "WALNUT SPRINGS", "state": "TX", "street": "4105 3RD ST", "postcode": "76690"}}},
{"geometry": {"type": "Point", "coordinates": [-97.0937133303, 31.8038551528]}, "type": "Feature", "properties": {"collection_times": [{"days": "Mon-Fri", "time": "4:00pm"}, {"days": "Sat", "time": "10:00am"}, {"days": "Sun", "time": "Closed"}], "id": "7669100008", "name": "USPS COLLECTION BOX - PO LOBBY", "address": {"city": "WEST", "state": "TX", "street": "301 W COLUMBUS ST", "postcode": "76691"}}},
{"geometry": {"type": "Point", "coordinates": [-97.0937133303, 31.8038551528]}, "type": "Feature", "properties": {"collection_times": [{"days": "Mon-Sat", "time": "5:00pm"}, {"days": "Sun", "time": "Closed"}], "id": "7669100011", "name": "USPS COLLECTION BOX - BLUE BOX", "address": {"city": "WEST", "state": "TX", "street": "301 W COLUMBUS ST", "postcode": "76691"}}},
{"geometry": {"type": "Point", "coordinates": [-97.3168104572, 31.95204051]}, "type": "Feature", "properties": {"collection_times": [{"days": "Mon-Sat", "time": "5:00pm"}, {"days": "Sun", "time": "Closed"}], "id": "7669200005", "name": "USPS COLLECTION BOX - BLUE BOX", "address": {"city": "WHITNEY", "state": "TX", "street": "516 E JEFFERSON AVE", "postcode": "76692"}}},
{"geometry": {"type": "Point", "coordinates": [-97.3168104572, 31.95204051]}, "type": "Feature", "properties": {"collection_times": [{"days": "Mon-Fri", "time": "4:00pm"}, {"days": "Sat", "time": "11:30am"}, {"days": "Sun", "time": "Closed"}], "id": "7669200009", "name": "USPS COLLECTION BOX - PO LOBBY", "address": {"city": "WHITNEY", "state": "TX", "street": "516 E JEFFERSON AVE", "postcode": "76692"}}},
{"geometry": {"type": "Point", "coordinates": [-97.3436664919, 31.9723442895]}, "type": "Feature", "properties": {"collection_times": [{"days": "Mon-Sat", "time": "1:00pm"}, {"days": "Sun", "time": "Closed"}], "id": "7669200011", "name": "USPS COLLECTION BOX - BLUE BOX", "address": {"city": "WHITNEY", "state": "TX", "street": "886 FM 2960", "postcode": "76692"}}},
{"geometry": {"type": "Point", "coordinates": [-97.388012989, 31.9506564126]}, "type": "Feature", "properties": {"collection_times": [{"days": "Mon-Sat", "time": "1:00pm"}, {"days": "Sun", "time": "Closed"}], "id": "7669200012", "name": "USPS COLLECTION BOX - BLUE BOX", "address": {"city": "WHITNEY", "state": "TX", "street": "321 FM 1713", "postcode": "76692"}}},
{"geometry": {"type": "Point", "coordinates": [-96.4598606524, 31.7874728003]}, "type": "Feature", "properties": {"collection_times": [{"days": "Mon-Sat", "time": "4:50pm"}, {"days": "Sun", "time": "Closed"}], "id": "7669300000", "name": "USPS COLLECTION BOX - BLUE BOX", "address": {"city": "WORTHAM", "state": "TX", "street": "203 W MAIN ST", "postcode": "76693"}}},
{"geometry": {"type": "Point", "coordinates": [-96.4598606524, 31.7874728003]}, "type": "Feature", "properties": {"collection_times": [{"days": "Mon-Fri", "time": "3:45pm"}, {"days": "Sat", "time": "9:45am"}, {"days": "Sun", "time": "Closed"}], "id": "7669300001", "name": "USPS COLLECTION BOX - PO LOBBY", "address": {"city": "WORTHAM", "state": "TX", "street": "203 W MAIN ST", "postcode": "76693"}}}
]}
