{"type": "FeatureCollection", "features": [
{"geometry": {"type": "Point", "coordinates": [-97.132976181, 31.5577454706]}, "type": "Feature", "properties": {"collection_times": [{"days": "Mon-Fri", "time": "4:00pm"}, {"days": "Sat", "time": "3:00pm"}, {"days": "Sun", "time": "Closed"}], "id": "7670100000", "name": "USPS COLLECTION BOX - BLUE BOX", "address": {"city": "WACO", "state": "TX", "street": "215 N 5TH ST", "postcode": "76701"}}},
{"geometry": {"type": "Point", "coordinates": [-97.1328625415, 31.5559487776]}, "type": "Feature", "properties": {"collection_times": [{"days": "Mon-Fri", "time": "4:00pm"}, {"days": "Sat", "time": "3:00pm"}, {"days": "Sun", "time": "Closed"}], "id": "7670100002", "name": "USPS COLLECTION BOX - BLUE BOX", "address": {"city": "WACO", "state": "TX", "street": "100 N 6TH ST", "postcode": "76701"}}},
{"geometry": {"type": "Point", "coordinates": [-97.1338189488, 31.5569262244]}, "type": "Feature", "properties": {"collection_times": [{"days": "Mon-Fri", "time": "4:00pm"}, {"days": "Sat", "time": "3:00pm"}, {"days": "Sun", "time": "Closed"}], "id": "7670100003", "name": "USPS COLLECTION BOX - BLUE BOX", "address": {"city": "WACO", "state": "TX", "street": "219 N 6TH ST", "postcode": "76701"}}},
{"geometry": {"type": "Point", "coordinates": [-97.1312663563, 31.5574185013]}, "type": "Feature", "properties": {"collection_times": [{"days": "Mon-Fri", "time": "4:00pm"}, {"days": "Sat", "time": "3:00pm"}, {"days": "Sun", "time": "Closed"}], "id": "7670100007", "name": "USPS COLLECTION BOX - BLUE BOX", "address": {"city": "WACO", "state": "TX", "street": "425 AUSTIN AVE", "postcode": "76701"}}},
{"geometry": {"type": "Point", "coordinates": [-97.1336296466, 31.5536618283]}, "type": "Feature", "properties": {"collection_times": [{"days": "Mon-Fri", "time": "4:30pm"}, {"days": "Sat", "time": "3:00pm"}, {"days": "Sun", "time": "Closed"}], "id": "7670100017", "name": "USPS COLLECTION BOX - BLUE BOX", "address": {"city": "WACO", "state": "TX", "street": "805 FRANKLIN AVE", "postcode": "76701"}}},
{"geometry": {"type": "Point", "coordinates": [-97.1336296466, 31.5536618283]}, "type": "Feature", "properties": {"collection_times": [{"days": "Mon-Fri", "time": "4:30pm"}, {"days": "Sat", "time": "3:00pm"}, {"days": "Sun", "time": "Closed"}], "id": "7670100018", "name": "USPS COLLECTION BOX - BLUE BOX", "address": {"city": "WACO", "state": "TX", "street": "805 FRANKLIN AVE", "postcode": "76701"}}},
{"geometry": {"type": "Point", "coordinates": [-97.1327797052, 31.5559165152]}, "type": "Feature", "properties": {"collection_times": [{"days": "Mon-Fri", "time": "4:00pm"}, {"days": "Sat", "time": "3:00pm"}, {"days": "Sun", "time": "Closed"}], "id": "7670100022", "name": "USPS COLLECTION BOX - BLUE BOX", "address": {"city": "WACO", "state": "TX", "street": "600 AUSTIN AVE", "postcode": "76701"}}},
{"geometry": {"type": "Point", "coordinates": [-97.1389911389, 31.5521592399]}, "type": "Feature", "properties": {"collection_times": [{"days": "Mon-Fri", "time": "4:00pm"}, {"days": "Sat", "time": "3:00pm"}, {"days": "Sun", "time": "Closed"}], "id": "7670100026", "name": "USPS COLLECTION BOX - BLUE BOX", "address": {"city": "WACO", "state": "TX", "street": "1124 WASHINGTON AVE", "postcode": "76701"}}},
{"geometry": {"type": "Point", "coordinates": [-97.1263099277, 31.553291493]}, "type": "Feature", "properties": {"collection_times": [{"days": "Mon-Fri", "time": "5:00pm"}, {"days": "Sat", "time": "3:30pm"}, {"days": "Sun", "time": "Closed"}], "id": "7670100029", "name": "USPS COLLECTION BOX - PO LOBBY", "address": {"city": "WACO", "state": "TX", "street": "424 CLAY AVE", "postcode": "76701"}}},
{"geometry": {"type": "Point", "coordinates": [-97.1338189488, 31.5569262244]}, "type": "Feature", "properties": {"collection_times": [{"days": "Mon-Fri", "time": "4:00pm"}, {"days": "Sat", "time": "3:00pm"}, {"days": "Sun", "time": "Closed"}], "id": "7670100034", "name": "USPS COLLECTION BOX - BLUE BOX", "address": {"city": "WACO", "state": "TX", "street": "219 N 6TH ST", "postcode": "76701"}}},
{"geometry": {"type": "Point", "coordinates": [-97.132976181, 31.5577454706]}, "type": "Feature", "properties": {"collection_times": [{"days": "Mon-Fri", "time": "4:00pm"}, {"days": "Sat", "time": "3:00pm"}, {"days": "Sun", "time": "Closed"}], "id": "7670100035", "name": "USPS COLLECTION BOX - BLUE BOX", "address": {"city": "WACO", "state": "TX", "street": "215 N 5TH ST", "postcode": "76701"}}},
{"geometry": {"type": "Point", "coordinates": [-97.1263099277, 31.553291493]}, "type": "Feature", "properties": {"collection_times": [{"days": "Mon-Fri", "time": "5:00pm"}, {"days": "Sat", "time": "3:30pm"}, {"days": "Sun", "time": "Closed"}], "id": "7670100044", "name": "USPS COLLECTION BOX - PO LOBBY", "address": {"city": "WACO", "state": "TX", "street": "424 CLAY AVE", "postcode": "76701"}}},
{"geometry": {"type": "Point", "coordinates": [-97.1263099277, 31.553291493]}, "type": "Feature", "properties": {"collection_times": [{"days": "Mon-Fri", "time": "5:00pm"}, {"days": "Sat", "time": "3:30pm"}, {"days": "Sun", "time": "Closed"}], "id": "7670100045", "name": "USPS COLLECTION BOX - PO LOBBY", "address": {"city": "WACO", "state": "TX", "street": "424 CLAY AVE", "postcode": "76701"}}},
{"geometry": {"type": "Point", "coordinates": [-97.1263099277, 31.553291493]}, "type": "Feature", "properties": {"collection_times": [{"days": "Mon-Fri", "time": "5:00pm"}, {"days": "Sat", "time": "3:30pm"}, {"days": "Sun", "time": "Closed"}], "id": "7670100047", "name": "USPS COLLECTION BOX - BLUE BOX", "address": {"city": "WACO", "state": "TX", "street": "424 CLAY AVE", "postcode": "76701"}}},
{"geometry": {"type": "Point", "coordinates": [-97.1263099277, 31.553291493]}, "type": "Feature", "properties": {"collection_times": [{"days": "Mon-Fri", "time": "5:00pm"}, {"days": "Sat", "time": "3:30pm"}, {"days": "Sun", "time": "Closed"}], "id": "7670100048", "name": "USPS COLLECTION BOX - BLUE BOX", "address": {"city": "WACO", "state": "TX", "street": "424 CLAY AVE", "postcode": "76701"}}},
{"geometry": {"type": "Point", "coordinates": [-97.1263099277, 31.553291493]}, "type": "Feature", "properties": {"collection_times": [{"days": "Mon-Fri", "time": "5:00pm"}, {"days": "Sat", "time": "3:30pm"}, {"days": "Sun", "time": "Closed"}], "id": "7670100049", "name": "USPS COLLECTION BOX - BLUE BOX", "address": {"city": "WACO", "state": "TX", "street": "424 CLAY AVE", "postcode": "76701"}}},
{"geometry": {"type": "Point", "coordinates": [-97.1263099277, 31.553291493]}, "type": "Feature", "properties": {"collection_times": [{"days": "Mon-Fri", "time": "5:00pm"}, {"days": "Sat", "time": "3:30pm"}, {"days": "Sun", "time": "Closed"}], "id": "7670100050", "name": "USPS COLLECTION BOX - BLUE BOX", "address": {"city": "WACO", "state": "TX", "street": "424 CLAY AVE", "postcode": "76701"}}},
{"geometry": {"type": "Point", "coordinates": [-97.1377393013, 31.553220714]}, "type": "Feature", "properties": {"collection_times": [{"days": "Mon-Fri", "time": "5:00pm"}, {"days": "Sat", "time": "3:30pm"}, {"days": "Sun", "time": "Closed"}], "id": "7670100051", "name": "USPS COLLECTION BOX - EXPRESS", "address": {"city": "WACO", "state": "TX", "street": "424 CLAY AVE", "postcode": "76701"}}},
{"geometry": {"type": "Point", "coordinates": [-97.1345459199, 31.554520713]}, "type": "Feature", "properties": {"collection_times": [{"days": "Mon-Fri", "time": "4:00pm"}, {"days": "Sat", "time": "3:00pm"}, {"days": "Sun", "time": "Closed"}], "id": "7670100052", "name": "USPS COLLECTION BOX - BLUE BOX", "address": {"city": "WACO", "state": "TX", "street": "801 AUSTIN AVE", "postcode": "76701"}}},
{"geometry": {"type": "Point", "coordinates": [-97.1981586378, 31.5158165387]}, "type": "Feature", "properties": {"collection_times": [{"days": "Mon-Fri", "time": "6:00pm"}, {"days": "Sat", "time": "5:30pm"}, {"days": "Sun", "time": "Closed"}], "id": "7670200001", "name": "USPS COLLECTION BOX - BLUE BOX", "address": {"city": "WACO", "state": "TX", "street": "430 W STATE HIGHWAY 6", "postcode": "76702"}}},
{"geometry": {"type": "Point", "coordinates": [-97.1981586378, 31.5158165387]}, "type": "Feature", "properties": {"collection_times": [{"days": "Mon-Fri", "time": "6:00pm"}, {"days": "Sat", "time": "5:30pm"}, {"days": "Sun", "time": "Closed"}], "id": "7670200002", "name": "USPS COLLECTION BOX - BLUE BOX", "address": {"city": "WACO", "state": "TX", "street": "430 W STATE HIGHWAY 6", "postcode": "76702"}}},
{"geometry": {"type": "Point", "coordinates": [-97.2003464855, 31.5165227975]}, "type": "Feature", "properties": {"collection_times": [{"days": "Mon-Fri", "time": "6:00pm"}, {"days": "Sat", "time": "5:30pm"}, {"days": "Sun", "time": "Closed"}], "id": "7670200003", "name": "USPS COLLECTION BOX - EXPRESS", "address": {"city": "WACO", "state": "TX", "street": "430 W STATE HIGHWAY 6", "postcode": "76702"}}},
{"geometry": {"type": "Point", "coordinates": [-97.1981586378, 31.5158165387]}, "type": "Feature", "properties": {"collection_times": [{"days": "Mon-Fri", "time": "6:00pm"}, {"days": "Sat", "time": "5:30pm"}, {"days": "Sun", "time": "Closed"}], "id": "7670200004", "name": "USPS COLLECTION BOX - PO LOBBY", "address": {"city": "WACO", "state": "TX", "street": "430 W STATE HIGHWAY 6", "postcode": "76702"}}},
{"geometry": {"type": "Point", "coordinates": [-97.1981586378, 31.5158165387]}, "type": "Feature", "properties": {"collection_times": [{"days": "Mon-Fri", "time": "6:00pm"}, {"days": "Sat", "time": "5:30pm"}, {"days": "Sun", "time": "Closed"}], "id": "7670200005", "name": "USPS COLLECTION BOX - PO LOBBY", "address": {"city": "WACO", "state": "TX", "street": "430 W STATE HIGHWAY 6", "postcode": "76702"}}},
{"geometry": {"type": "Point", "coordinates": [-97.1981586378, 31.5158165387]}, "type": "Feature", "properties": {"collection_times": [{"days": "Mon-Fri", "time": "6:00pm"}, {"days": "Sat", "time": "5:30pm"}, {"days": "Sun", "time": "Closed"}], "id": "7670200006", "name": "USPS COLLECTION BOX - APC", "address": {"city": "WACO", "state": "TX", "street": "430 W STATE HIGHWAY 6", "postcode": "76702"}}},
{"geometry": {"type": "Point", "coordinates": [-97.1246997738, 31.5912102809]}, "type": "Feature", "properties": {"collection_times": [{"days": "Mon-Sat", "time": "3:00pm"}, {"days": "Sun", "time": "Closed"}], "id": "7670400000", "name": "USPS COLLECTION BOX - BLUE BOX", "address": {"city": "WACO", "state": "TX", "street": "1612 GHOLSON RD", "postcode": "76704"}}},
{"geometry": {"type": "Point", "coordinates": [-97.1233405672, 31.5663890474]}, "type": "Feature", "properties": {"collection_times": [{"days": "Mon-Sat", "time": "2:30pm"}, {"days": "Sun", "time": "Closed"}], "id": "7670400002", "name": "USPS COLLECTION BOX - BLUE BOX", "address": {"city": "WACO", "state": "TX", "street": "609 ELM ST", "postcode": "76704"}}},
{"geometry": {"type": "Point", "coordinates": [-97.1066762935, 31.6025407142]}, "type": "Feature", "properties": {"collection_times": [{"days": "Mon-Fri", "time": "5:00pm"}, {"days": "Sat", "time": "3:00pm"}, {"days": "Sun", "time": "Closed"}], "id": "7670500004", "name": "USPS COLLECTION BOX - PO LOBBY", "address": {"city": "WACO", "state": "TX", "street": "901 BANK DR", "postcode": "76705"}}},
{"geometry": {"type": "Point", "coordinates": [-97.1012168972, 31.5891265024]}, "type": "Feature", "properties": {"collection_times": [{"days": "Mon-Sat", "time": "1:30pm"}, {"days": "Sun", "time": "Closed"}], "id": "7670500007", "name": "USPS COLLECTION BOX - BLUE BOX", "address": {"city": "WACO", "state": "TX", "street": "3015 BELLMEAD DR", "postcode": "76705"}}},
{"geometry": {"type": "Point", "coordinates": [-97.1031357922, 31.6238371589]}, "type": "Feature", "properties": {"collection_times": [{"days": "Mon-Sat", "time": "1:30pm"}, {"days": "Sun", "time": "Closed"}], "id": "7670500008", "name": "USPS COLLECTION BOX - BLUE BOX", "address": {"city": "WACO", "state": "TX", "street": "501 E CRAVEN AVE", "postcode": "76705"}}},
{"geometry": {"type": "Point", "coordinates": [-97.1066762935, 31.6025407142]}, "type": "Feature", "properties": {"collection_times": [{"days": "Mon-Fri", "time": "5:00pm"}, {"days": "Sat", "time": "3:00pm"}, {"days": "Sun", "time": "Closed"}], "id": "7670500010", "name": "USPS COLLECTION BOX - BLUE BOX", "address": {"city": "WACO", "state": "TX", "street": "901 BANK DR", "postcode": "76705"}}},
{"geometry": {"type": "Point", "coordinates": [-97.1066762935, 31.6025407142]}, "type": "Feature", "properties": {"collection_times": [{"days": "Mon-Fri", "time": "5:00pm"}, {"days": "Sat", "time": "3:00pm"}, {"days": "Sun", "time": "Closed"}], "id": "7670500011", "name": "USPS COLLECTION BOX - BLUE BOX", "address": {"city": "WACO", "state": "TX", "street": "901 BANK DR", "postcode": "76705"}}},
{"geometry": {"type": "Point", "coordinates": [-97.1066762935, 31.6025407142]}, "type": "Feature", "properties": {"collection_times": [{"days": "Mon-Fri", "time": "5:00pm"}, {"days": "Sat", "time": "3:00pm"}, {"days": "Sun", "time": "Closed"}], "id": "7670500012", "name": "USPS COLLECTION BOX - BLUE BOX", "address": {"city": "WACO", "state": "TX", "street": "901 BANK DR", "postcode": "76705"}}},
{"geometry": {"type": "Point", "coordinates": [-97.1066762935, 31.6025407142]}, "type": "Feature", "properties": {"collection_times": [{"days": "Mon-Fri", "time": "5:00pm"}, {"days": "Sat", "time": "3:00pm"}, {"days": "Sun", "time": "Closed"}], "id": "7670500013", "name": "USPS COLLECTION BOX - PO LOBBY", "address": {"city": "WACO", "state": "TX", "street": "901 BANK DR", "postcode": "76705"}}},
{"geometry": {"type": "Point", "coordinates": [-97.0032079957, 31.5695282318]}, "type": "Feature", "properties": {"collection_times": [{"days": "Mon-Fri", "time": "1:00pm"}, {"days": "Sat", "time": "12:00pm"}, {"days": "Sun", "time": "Closed"}], "id": "7670500018", "name": "USPS COLLECTION BOX - BLUE BOX", "address": {"city": "WACO", "state": "TX", "street": "216 BLUFFVIEW", "postcode": "76705"}}},
{"geometry": {"type": "Point", "coordinates": [-97.0842634175, 31.6355106902]}, "type": "Feature", "properties": {"collection_times": [{"days": "Mon-Sat", "time": "1:30pm"}, {"days": "Sun", "time": "Closed"}], "id": "7670500019", "name": "USPS COLLECTION BOX - BLUE BOX", "address": {"city": "WACO", "state": "TX", "street": "3801 CAMPUS DR", "postcode": "76705"}}},
{"geometry": {"type": "Point", "coordinates": [-97.1197876803, 31.5422443787]}, "type": "Feature", "properties": {"collection_times": [{"days": "Mon-Fri", "time": "3:00pm"}, {"days": "Sat", "time": "1:00pm"}, {"days": "Sun", "time": "Closed"}], "id": "7670600002", "name": "USPS COLLECTION BOX - BLUE BOX", "address": {"city": "WACO", "state": "TX", "street": "1720 S 8TH ST", "postcode": "76706"}}},
{"geometry": {"type": "Point", "coordinates": [-97.0926932981, 31.4907357573]}, "type": "Feature", "properties": {"collection_times": [{"days": "Mon-Fri", "time": "3:00pm"}, {"days": "Sat", "time": "1:00pm"}, {"days": "Sun", "time": "Closed"}], "id": "7670600003", "name": "USPS COLLECTION BOX - BLUE BOX", "address": {"city": "WACO", "state": "TX", "street": "500 STUDENT UNION ST", "postcode": "76706"}}},
{"geometry": {"type": "Point", "coordinates": [-97.1188147926, 31.4759476262]}, "type": "Feature", "properties": {"collection_times": [{"days": "Mon-Sat", "time": "2:00pm"}, {"days": "Sun", "time": "Closed"}], "id": "7670600010", "name": "USPS COLLECTION BOX - BLUE BOX", "address": {"city": "WACO", "state": "TX", "street": "107 DEANNA ST", "postcode": "76706"}}},
{"geometry": {"type": "Point", "coordinates": [-97.1226440222, 31.5556669375]}, "type": "Feature", "properties": {"collection_times": [{"days": "Mon-Fri", "time": "3:00pm"}, {"days": "Sat", "time": "1:00pm"}, {"days": "Sun", "time": "Closed"}], "id": "7670600020", "name": "USPS COLLECTION BOX - BLUE BOX", "address": {"city": "WACO", "state": "TX", "street": "700 S UNIVERSITY PARKS DR", "postcode": "76706"}}},
{"geometry": {"type": "Point", "coordinates": [-97.1145548048, 31.4676413915]}, "type": "Feature", "properties": {"collection_times": [{"days": "Mon-Sat", "time": "2:00pm"}, {"days": "Sun", "time": "Closed"}], "id": "7670600034", "name": "USPS COLLECTION BOX - BLUE BOX", "address": {"city": "WACO", "state": "TX", "street": "410 S ROBINSON DR", "postcode": "76706"}}},
{"geometry": {"type": "Point", "coordinates": [-97.1408160776, 31.5623690051]}, "type": "Feature", "properties": {"collection_times": [{"days": "Mon-Sat", "time": "1:30pm"}, {"days": "Sun", "time": "Closed"}], "id": "7670700001", "name": "USPS COLLECTION BOX - BLUE BOX", "address": {"city": "WACO", "state": "TX", "street": "1100 N 6TH ST", "postcode": "76707"}}},
{"geometry": {"type": "Point", "coordinates": [-97.1545321357, 31.5587987187]}, "type": "Feature", "properties": {"collection_times": [{"days": "Mon-Sat", "time": "1:15pm"}, {"days": "Sun", "time": "Closed"}], "id": "7670700004", "name": "USPS COLLECTION BOX - BLUE BOX", "address": {"city": "WACO", "state": "TX", "street": "1700 PROVIDENCE DR", "postcode": "76707"}}},
{"geometry": {"type": "Point", "coordinates": [-97.1352536047, 31.5638174735]}, "type": "Feature", "properties": {"collection_times": [{"days": "Mon-Fri", "time": "1:45pm"}, {"days": "Sat-Sun", "time": "Closed"}], "id": "7670700006", "name": "USPS COLLECTION BOX - BLUE BOX", "address": {"city": "WACO", "state": "TX", "street": "225 W WACO DR", "postcode": "76707"}}},
{"geometry": {"type": "Point", "coordinates": [-97.16066, 31.550652]}, "type": "Feature", "properties": {"collection_times": [{"days": "Mon-Sat", "time": "1:45pm"}, {"days": "Sun", "time": "Closed"}], "id": "7670700008", "name": "USPS COLLECTION BOX - BLUE BOX", "address": {"city": "WACO", "state": "TX", "street": "1320 N 25TH ST", "postcode": "76707"}}},
{"geometry": {"type": "Point", "coordinates": [-97.1655595141, 31.5569675229]}, "type": "Feature", "properties": {"collection_times": [{"days": "Mon-Sat", "time": "2:00pm"}, {"days": "Sun", "time": "Closed"}], "id": "7670700010", "name": "USPS COLLECTION BOX - BLUE BOX", "address": {"city": "WACO", "state": "TX", "street": "1901 N 25TH ST", "postcode": "76707"}}},
{"geometry": {"type": "Point", "coordinates": [-97.1755166622, 31.5837419262]}, "type": "Feature", "properties": {"collection_times": [{"days": "Mon-Sat", "time": "1:15pm"}, {"days": "Sun", "time": "Closed"}], "id": "7670800000", "name": "USPS COLLECTION BOX - BLUE BOX", "address": {"city": "WACO", "state": "TX", "street": "4200 N 19TH ST", "postcode": "76708"}}},
{"geometry": {"type": "Point", "coordinates": [-97.1861935094, 31.5920139891]}, "type": "Feature", "properties": {"collection_times": [{"days": "Mon-Sat", "time": "1:00pm"}, {"days": "Sun", "time": "Closed"}], "id": "7670800006", "name": "USPS COLLECTION BOX - BLUE BOX", "address": {"city": "WACO", "state": "TX", "street": "1901 LAKE SHORE DR", "postcode": "76708"}}},
{"geometry": {"type": "Point", "coordinates": [-97.1765433923, 31.5553662061]}, "type": "Feature", "properties": {"collection_times": [{"days": "Mon-Sat", "time": "2:00pm"}, {"days": "Sun", "time": "Closed"}], "id": "7670800014", "name": "USPS COLLECTION BOX - BLUE BOX", "address": {"city": "WACO", "state": "TX", "street": "2136 N 33RD ST", "postcode": "76708"}}},
{"geometry": {"type": "Point", "coordinates": [-97.1734109183, 31.5582429548]}, "type": "Feature", "properties": {"collection_times": [{"days": "Mon-Sat", "time": "2:00pm"}, {"days": "Sun", "time": "Closed"}], "id": "7670800016", "name": "USPS COLLECTION BOX - BLUE BOX", "address": {"city": "WACO", "state": "TX", "street": "2214 N 30TH ST", "postcode": "76708"}}},
{"geometry": {"type": "Point", "coordinates": [-97.1774776571, 31.5863711687]}, "type": "Feature", "properties": {"collection_times": [{"days": "Mon-Fri", "time": "5:00pm"}, {"days": "Sat", "time": "3:30pm"}, {"days": "Sun", "time": "Closed"}], "id": "7670800025", "name": "USPS COLLECTION BOX - PO LOBBY", "address": {"city": "WACO", "state": "TX", "street": "4428 N 19TH ST", "postcode": "76708"}}},
{"geometry": {"type": "Point", "coordinates": [-97.1774776571, 31.5863711687]}, "type": "Feature", "properties": {"collection_times": [{"days": "Mon-Fri", "time": "5:00pm"}, {"days": "Sat", "time": "3:30pm"}, {"days": "Sun", "time": "Closed"}], "id": "7670800026", "name": "USPS COLLECTION BOX - PO LOBBY", "address": {"city": "WACO", "state": "TX", "street": "4428 N 19TH ST", "postcode": "76708"}}},
{"geometry": {"type": "Point", "coordinates": [-97.1774776571, 31.5863711687]}, "type": "Feature", "properties": {"collection_times": [{"days": "Mon-Fri", "time": "5:00pm"}, {"days": "Sat", "time": "3:30pm"}, {"days": "Sun", "time": "Closed"}], "id": "7670800027", "name": "USPS COLLECTION BOX - PO LOBBY", "address": {"city": "WACO", "state": "TX", "street": "4428 N 19TH ST", "postcode": "76708"}}},
{"geometry": {"type": "Point", "coordinates": [-97.1774776571, 31.5863711687]}, "type": "Feature", "properties": {"collection_times": [{"days": "Mon-Fri", "time": "5:00pm"}, {"days": "Sat", "time": "3:30pm"}, {"days": "Sun", "time": "Closed"}], "id": "7670800028", "name": "USPS COLLECTION BOX - BLUE BOX", "address": {"city": "WACO", "state": "TX", "street": "4428 N 19TH ST", "postcode": "76708"}}},
{"geometry": {"type": "Point", "coordinates": [-97.1630216697, 31.5686543356]}, "type": "Feature", "properties": {"collection_times": [{"days": "Mon-Sat", "time": "1:15pm"}, {"days": "Sun", "time": "Closed"}], "id": "7670800029", "name": "USPS COLLECTION BOX - BLUE BOX", "address": {"city": "WACO", "state": "TX", "street": "1800 MITCHELL AVE", "postcode": "76708"}}},
{"geometry": {"type": "Point", "coordinates": [-97.1920999291, 31.5334102434]}, "type": "Feature", "properties": {"collection_times": [{"days": "Mon-Sat", "time": "2:30pm"}, {"days": "Sun", "time": "Closed"}], "id": "7671000006", "name": "USPS COLLECTION BOX - BLUE BOX", "address": {"city": "WACO", "state": "TX", "street": "5400 BOSQUE BLVD", "postcode": "76710"}}},
{"geometry": {"type": "Point", "coordinates": [-97.1966562561, 31.5310558912]}, "type": "Feature", "properties": {"collection_times": [{"days": "Mon-Sat", "time": "2:30pm"}, {"days": "Sun", "time": "Closed"}], "id": "7671000008", "name": "USPS COLLECTION BOX - BLUE BOX", "address": {"city": "WACO", "state": "TX", "street": "5900 BOSQUE BLVD", "postcode": "76710"}}},
{"geometry": {"type": "Point", "coordinates": [-97.177372709, 31.540998388]}, "type": "Feature", "properties": {"collection_times": [{"days": "Mon-Sat", "time": "2:30pm"}, {"days": "Sun", "time": "Closed"}], "id": "7671000012", "name": "USPS COLLECTION BOX - BLUE BOX", "address": {"city": "WACO", "state": "TX", "street": "3920 BOSQUE BLVD", "postcode": "76710"}}},
{"geometry": {"type": "Point", "coordinates": [-97.1883673053, 31.5353627414]}, "type": "Feature", "properties": {"collection_times": [{"days": "Mon-Sat", "time": "2:30pm"}, {"days": "Sun", "time": "Closed"}], "id": "7671000015", "name": "USPS COLLECTION BOX - BLUE BOX", "address": {"city": "WACO", "state": "TX", "street": "4372 LAKE SHORE DR", "postcode": "76710"}}},
{"geometry": {"type": "Point", "coordinates": [-97.1879963443, 31.5136485076]}, "type": "Feature", "properties": {"collection_times": [{"days": "Mon-Sat", "time": "2:30pm"}, {"days": "Sun", "time": "Closed"}], "id": "7671000022", "name": "USPS COLLECTION BOX - BLUE BOX", "address": {"city": "WACO", "state": "TX", "street": "6001 W WACO DR", "postcode": "76710"}}},
{"geometry": {"type": "Point", "coordinates": [-97.1721916336, 31.5289607166]}, "type": "Feature", "properties": {"collection_times": [{"days": "Mon-Sat", "time": "2:30pm"}, {"days": "Sun", "time": "Closed"}], "id": "7671000024", "name": "USPS COLLECTION BOX - BLUE BOX", "address": {"city": "WACO", "state": "TX", "street": "539 N VALLEY MILLS DR", "postcode": "76710"}}},
{"geometry": {"type": "Point", "coordinates": [-97.1712090156, 31.5285822584]}, "type": "Feature", "properties": {"collection_times": [{"days": "Mon-Sat", "time": "2:30pm"}, {"days": "Sun", "time": "Closed"}], "id": "7671000027", "name": "USPS COLLECTION BOX - BLUE BOX", "address": {"city": "WACO", "state": "TX", "street": "500 N VALLEY MILLS DR", "postcode": "76710"}}},
{"geometry": {"type": "Point", "coordinates": [-97.1902204365, 31.5365988263]}, "type": "Feature", "properties": {"collection_times": [{"days": "Mon-Sat", "time": "2:30pm"}, {"days": "Sun", "time": "Closed"}], "id": "7671000031", "name": "USPS COLLECTION BOX - BLUE BOX", "address": {"city": "WACO", "state": "TX", "street": "5000 LAKEWOOD DR", "postcode": "76710"}}},
{"geometry": {"type": "Point", "coordinates": [-97.2006600222, 31.5194159627]}, "type": "Feature", "properties": {"collection_times": [{"days": "Mon-Sat", "time": "2:30pm"}, {"days": "Sun", "time": "Closed"}], "id": "7671000042", "name": "USPS COLLECTION BOX - BLUE BOX", "address": {"city": "WACO", "state": "TX", "street": "6801 SANGER AVE", "postcode": "76710"}}},
{"geometry": {"type": "Point", "coordinates": [-97.1919910963, 31.528409]}, "type": "Feature", "properties": {"collection_times": [{"days": "Mon-Fri", "time": "5:00pm"}, {"days": "Sat", "time": "4:00pm"}, {"days": "Sun", "time": "Closed"}], "id": "7671000047", "name": "USPS COLLECTION BOX - BLUE BOX", "address": {"city": "WACO", "state": "TX", "street": "800 WOODED ACRES DR", "postcode": "76710"}}},
{"geometry": {"type": "Point", "coordinates": [-97.1919910963, 31.528409]}, "type": "Feature", "properties": {"collection_times": [{"days": "Mon-Fri", "time": "5:00pm"}, {"days": "Sat", "time": "4:00pm"}, {"days": "Sun", "time": "Closed"}], "id": "7671000048", "name": "USPS COLLECTION BOX - BLUE BOX", "address": {"city": "WACO", "state": "TX", "street": "800 WOODED ACRES DR", "postcode": "76710"}}},
{"geometry": {"type": "Point", "coordinates": [-97.1919910963, 31.528409]}, "type": "Feature", "properties": {"collection_times": [{"days": "Mon-Fri", "time": "5:00pm"}, {"days": "Sat", "time": "11:00am"}, {"days": "Sun", "time": "Closed"}], "id": "7671000062", "name": "USPS COLLECTION BOX - PO LOBBY", "address": {"city": "WACO", "state": "TX", "street": "800 WOODED ACRES DR", "postcode": "76710"}}},
{"geometry": {"type": "Point", "coordinates": [-97.2006600222, 31.5194159627]}, "type": "Feature", "properties": {"collection_times": [{"days": "Mon-Sat", "time": "2:30pm"}, {"days": "Sun", "time": "Closed"}], "id": "7671000063", "name": "USPS COLLECTION BOX - BLUE BOX", "address": {"city": "WACO", "state": "TX", "street": "6801 SANGER AVE", "postcode": "76710"}}},
{"geometry": {"type": "Point", "coordinates": [-97.1919910963, 31.528409]}, "type": "Feature", "properties": {"collection_times": [{"days": "Mon-Fri", "time": "5:00pm"}, {"days": "Sat", "time": "11:00am"}, {"days": "Sun", "time": "Closed"}], "id": "7671000066", "name": "USPS COLLECTION BOX - PO LOBBY", "address": {"city": "WACO", "state": "TX", "street": "800 WOODED ACRES DR", "postcode": "76710"}}},
{"geometry": {"type": "Point", "coordinates": [-97.1920999291, 31.5334102434]}, "type": "Feature", "properties": {"collection_times": [{"days": "Mon-Sat", "time": "2:30pm"}, {"days": "Sun", "time": "Closed"}], "id": "7671000067", "name": "USPS COLLECTION BOX - BLUE BOX", "address": {"city": "WACO", "state": "TX", "street": "5400 BOSQUE BLVD", "postcode": "76710"}}},
{"geometry": {"type": "Point", "coordinates": [-97.1902204365, 31.5365988263]}, "type": "Feature", "properties": {"collection_times": [{"days": "Mon-Sat", "time": "2:30pm"}, {"days": "Sun", "time": "Closed"}], "id": "7671000071", "name": "USPS COLLECTION BOX - BLUE BOX", "address": {"city": "WACO", "state": "TX", "street": "5000 LAKEWOOD DR", "postcode": "76710"}}},
{"geometry": {"type": "Point", "coordinates": [-97.1951017647, 31.5618815319]}, "type": "Feature", "properties": {"collection_times": [{"days": "Mon-Sat", "time": "2:30pm"}, {"days": "Sun", "time": "Closed"}], "id": "7671000073", "name": "USPS COLLECTION BOX - BLUE BOX", "address": {"city": "WACO", "state": "TX", "street": "4315 LAKE SHORE DR", "postcode": "76710"}}},
{"geometry": {"type": "Point", "coordinates": [-97.1919910963, 31.528409]}, "type": "Feature", "properties": {"collection_times": [{"days": "Mon-Fri", "time": "5:00pm"}, {"days": "Sat", "time": "4:00pm"}, {"days": "Sun", "time": "Closed"}], "id": "7671000074", "name": "USPS COLLECTION BOX - APC", "address": {"city": "WACO", "state": "TX", "street": "800 WOODED ACRES DR", "postcode": "76710"}}},
{"geometry": {"type": "Point", "coordinates": [-97.1500095967, 31.5192819216]}, "type": "Feature", "properties": {"collection_times": [{"days": "Mon-Sat", "time": "1:00pm"}, {"days": "Sun", "time": "Closed"}], "id": "7671100004", "name": "USPS COLLECTION BOX - BLUE BOX", "address": {"city": "WACO", "state": "TX", "street": "1821 S VALLEY MILLS DR", "postcode": "76711"}}},
{"geometry": {"type": "Point", "coordinates": [-97.1633184747, 31.5131128887]}, "type": "Feature", "properties": {"collection_times": [{"days": "Mon-Fri", "time": "2:00pm"}, {"days": "Sat", "time": "1:00pm"}, {"days": "Sun", "time": "Closed"}], "id": "7671100006", "name": "USPS COLLECTION BOX - BLUE BOX", "address": {"city": "WACO", "state": "TX", "street": "4800 MEMORIAL DR", "postcode": "76711"}}},
{"geometry": {"type": "Point", "coordinates": [-97.2283210808, 31.5068900428]}, "type": "Feature", "properties": {"collection_times": [{"days": "Mon-Fri", "time": "3:00pm"}, {"days": "Sat", "time": "1:30pm"}, {"days": "Sun", "time": "Closed"}], "id": "7671200022", "name": "USPS COLLECTION BOX - BLUE BOX", "address": {"city": "WACO", "state": "TX", "street": "924 ESTATES DR", "postcode": "76712"}}},
{"geometry": {"type": "Point", "coordinates": [-97.2119661807, 31.5005235813]}, "type": "Feature", "properties": {"collection_times": [{"days": "Mon-Fri", "time": "3:00pm"}, {"days": "Sat", "time": "1:30pm"}, {"days": "Sun", "time": "Closed"}], "id": "7671200024", "name": "USPS COLLECTION BOX - BLUE BOX", "address": {"city": "WACO", "state": "TX", "street": "8320 W HIGHWAY 84", "postcode": "76712"}}},
{"geometry": {"type": "Point", "coordinates": [-97.2538813578, 31.530369976]}, "type": "Feature", "properties": {"collection_times": [{"days": "Mon-Fri", "time": "3:00pm"}, {"days": "Sat", "time": "1:00pm"}, {"days": "Sun", "time": "Closed"}], "id": "7671200026", "name": "USPS COLLECTION BOX - BLUE BOX", "address": {"city": "WACO", "state": "TX", "street": "100 HILLCREST MEDICAL BLVD", "postcode": "76712"}}},
{"geometry": {"type": "Point", "coordinates": [-97.1981575909, 31.5137308104]}, "type": "Feature", "properties": {"collection_times": [{"days": "Mon-Fri", "time": "3:00pm"}, {"days": "Sat", "time": "1:30pm"}, {"days": "Sun", "time": "Closed"}], "id": "7671200027", "name": "USPS COLLECTION BOX - BLUE BOX", "address": {"city": "WACO", "state": "TX", "street": "6901 MEDICAL PKWY", "postcode": "76712"}}},
{"geometry": {"type": "Point", "coordinates": [-97.2184166018, 31.4976858583]}, "type": "Feature", "properties": {"collection_times": [{"days": "Mon-Fri", "time": "3:00pm"}, {"days": "Sat", "time": "12:00pm"}, {"days": "Sun", "time": "Closed"}], "id": "7671200042", "name": "USPS COLLECTION BOX - BLUE BOX", "address": {"city": "WACO", "state": "TX", "street": "8810 WOODWAY DR STE 302", "postcode": "76712"}}},
{"geometry": {"type": "Point", "coordinates": [-97.2202698419, 31.4964910091]}, "type": "Feature", "properties": {"collection_times": [{"days": "Mon-Fri", "time": "3:00pm"}, {"days": "Sat", "time": "1:30pm"}, {"days": "Sun", "time": "Closed"}], "id": "7671200044", "name": "USPS COLLECTION BOX - BLUE BOX", "address": {"city": "WACO", "state": "TX", "street": "9100 WOODWAY DR", "postcode": "76712"}}}
]}
