{"type": "FeatureCollection", "features": [
{"geometry": {"type": "Point", "coordinates": [-98.9830497796, 31.7188461261]}, "type": "Feature", "properties": {"collection_times": [{"days": "Mon-Sat", "time": "5:00pm"}, {"days": "Sun", "time": "Closed"}], "id": "7680100001", "name": "USPS COLLECTION BOX - BLUE BOX", "address": {"city": "BROWNWOOD", "state": "TX", "street": "600 BROWN ST", "postcode": "76801"}}},
{"geometry": {"type": "Point", "coordinates": [-98.9806823771, 31.7227426752]}, "type": "Feature", "properties": {"collection_times": [{"days": "Mon-Sat", "time": "8:30am"}, {"days": "Sun", "time": "Closed"}], "id": "7680100011", "name": "USPS COLLECTION BOX - BLUE BOX", "address": {"city": "BROWNWOOD", "state": "TX", "street": "200 S BROADWAY ST", "postcode": "76801"}}},
{"geometry": {"type": "Point", "coordinates": [-98.9807859439, 31.7227712326]}, "type": "Feature", "properties": {"collection_times": [{"days": "Mon-Sat", "time": "8:30am"}, {"days": "Sun", "time": "Closed"}], "id": "7680100017", "name": "USPS COLLECTION BOX - BLUE BOX", "address": {"city": "BROWNWOOD", "state": "TX", "street": "200 S BROADWAY ST", "postcode": "76801"}}},
{"geometry": {"type": "Point", "coordinates": [-98.9958134955, 31.702863277]}, "type": "Feature", "properties": {"collection_times": [{"days": "Mon-Fri", "time": "2:00pm"}, {"days": "Sat", "time": "9:15am"}, {"days": "Sun", "time": "Closed"}], "id": "7680100020", "name": "USPS COLLECTION BOX - BLUE BOX", "address": {"city": "BROWNWOOD", "state": "TX", "street": "2608 HIGHWAY 377 S", "postcode": "76801"}}},
{"geometry": {"type": "Point", "coordinates": [-98.998334907, 31.6897961506]}, "type": "Feature", "properties": {"collection_times": [{"days": "Mon-Sat", "time": "10:30am"}, {"days": "Sun", "time": "Closed"}], "id": "7680100023", "name": "USPS COLLECTION BOX - BLUE BOX", "address": {"city": "BROWNWOOD", "state": "TX", "street": "3706 HIGHWAY 377 S", "postcode": "76801"}}},
{"geometry": {"type": "Point", "coordinates": [-98.9948629836, 31.681191331]}, "type": "Feature", "properties": {"collection_times": [{"days": "Mon-Sat", "time": "8:30am"}, {"days": "Sun", "time": "Closed"}], "id": "7680100026", "name": "USPS COLLECTION BOX - BLUE BOX", "address": {"city": "BROWNWOOD", "state": "TX", "street": "101 S PARK DR", "postcode": "76801"}}},
{"geometry": {"type": "Point", "coordinates": [-98.9836220773, 31.71926025]}, "type": "Feature", "properties": {"collection_times": [{"days": "Mon-Sat", "time": "5:00pm"}, {"days": "Sun", "time": "Closed"}], "id": "7680100035", "name": "USPS COLLECTION BOX - PO LOBBY", "address": {"city": "BROWNWOOD", "state": "TX", "street": "600 CENTER AVE", "postcode": "76801"}}},
{"geometry": {"type": "Point", "coordinates": [-98.9836220773, 31.71926025]}, "type": "Feature", "properties": {"collection_times": [{"days": "Mon-Sat", "time": "5:00pm"}, {"days": "Sun", "time": "Closed"}], "id": "7680100036", "name": "USPS COLLECTION BOX - PO LOBBY", "address": {"city": "BROWNWOOD", "state": "TX", "street": "600 CENTER AVE", "postcode": "76801"}}},
{"geometry": {"type": "Point", "coordinates": [-98.9427435052, 31.7439112193]}, "type": "Feature", "properties": {"collection_times": [{"days": "Mon-Sat", "time": "4:15pm"}, {"days": "Sun", "time": "Closed"}], "id": "7680200004", "name": "USPS COLLECTION BOX - BLUE BOX", "address": {"city": "BROWNWOOD", "state": "TX", "street": "101 CRESCENT DR", "postcode": "76802"}}},
{"geometry": {"type": "Point", "coordinates": [-98.964670999, 31.7345516161]}, "type": "Feature", "properties": {"collection_times": [{"days": "Mon-Sat", "time": "2:00pm"}, {"days": "Sun", "time": "Closed"}], "id": "7680200005", "name": "USPS COLLECTION BOX - BLUE BOX", "address": {"city": "BROWNWOOD", "state": "TX", "street": "303 EARLY BLVD", "postcode": "76802"}}},
{"geometry": {"type": "Point", "coordinates": [-98.9652419268, 31.7345916152]}, "type": "Feature", "properties": {"collection_times": [{"days": "Mon-Sat", "time": "10:30am"}, {"days": "Sun", "time": "Closed"}], "id": "7680200007", "name": "USPS COLLECTION BOX - BLUE BOX", "address": {"city": "BROWNWOOD", "state": "TX", "street": "300 EARLY BLVD", "postcode": "76802"}}},
{"geometry": {"type": "Point", "coordinates": [-98.9427435052, 31.7439112193]}, "type": "Feature", "properties": {"collection_times": [{"days": "Mon-Fri", "time": "4:15pm"}, {"days": "Sat-Sun", "time": "Closed"}], "id": "7680200008", "name": "USPS COLLECTION BOX - PO LOBBY", "address": {"city": "BROWNWOOD", "state": "TX", "street": "101 CRESCENT DR", "postcode": "76802"}}},
{"geometry": {"type": "Point", "coordinates": [-98.9427435052, 31.7439112193]}, "type": "Feature", "properties": {"collection_times": [{"days": "Mon-Sat", "time": "4:15pm"}, {"days": "Sun", "time": "Closed"}], "id": "7680200009", "name": "USPS COLLECTION BOX - BLUE BOX", "address": {"city": "BROWNWOOD", "state": "TX", "street": "101 CRESCENT DR", "postcode": "76802"}}},
{"geometry": {"type": "Point", "coordinates": [-99.0190875777, 30.7235940538]}, "type": "Feature", "properties": {"collection_times": [{"days": "Mon-Sat", "time": "9:15am"}, {"days": "Sun", "time": "Closed"}], "id": "7682000000", "name": "USPS COLLECTION BOX - BLUE BOX", "address": {"city": "ART", "state": "TX", "street": "7866 E STATE HIGHWAY 29", "postcode": "76820"}}},
{"geometry": {"type": "Point", "coordinates": [-99.1125111162, 30.7385485536]}, "type": "Feature", "properties": {"collection_times": [{"days": "Mon-Sat", "time": "9:15am"}, {"days": "Sun", "time": "Closed"}], "id": "7682000001", "name": "USPS COLLECTION BOX - PO LOBBY", "address": {"city": "ART", "state": "TX", "street": "7866 E STATE HIGHWAY 29", "postcode": "76820"}}},
{"geometry": {"type": "Point", "coordinates": [-99.9472906293, 31.7365802887]}, "type": "Feature", "properties": {"collection_times": [{"days": "Mon-Fri", "time": "5:00pm"}, {"days": "Sat", "time": "9:00am"}, {"days": "Sun", "time": "Closed"}], "id": "7682100000", "name": "USPS COLLECTION BOX - PO LOBBY", "address": {"city": "BALLINGER", "state": "TX", "street": "116 S 8TH ST", "postcode": "76821"}}},
{"geometry": {"type": "Point", "coordinates": [-99.9472906293, 31.7365802887]}, "type": "Feature", "properties": {"collection_times": [{"days": "Mon-Fri", "time": "5:00pm"}, {"days": "Sat", "time": "9:00am"}, {"days": "Sun", "time": "Closed"}], "id": "7682100001", "name": "USPS COLLECTION BOX - BLUE BOX", "address": {"city": "BALLINGER", "state": "TX", "street": "116 S 8TH ST", "postcode": "76821"}}},
{"geometry": {"type": "Point", "coordinates": [-99.9472906293, 31.7365802887]}, "type": "Feature", "properties": {"collection_times": [{"days": "Mon-Fri", "time": "5:00pm"}, {"days": "Sat", "time": "9:00am"}, {"days": "Sun", "time": "Closed"}], "id": "7682100002", "name": "USPS COLLECTION BOX - BLUE BOX", "address": {"city": "BALLINGER", "state": "TX", "street": "116 S 8TH ST", "postcode": "76821"}}},
{"geometry": {"type": "Point", "coordinates": [-99.9472906293, 31.7365802887]}, "type": "Feature", "properties": {"collection_times": [{"days": "Mon-Fri", "time": "5:00pm"}, {"days": "Sat", "time": "9:00am"}, {"days": "Sun", "time": "Closed"}], "id": "7682100003", "name": "USPS COLLECTION BOX - BLUE BOX", "address": {"city": "BALLINGER", "state": "TX", "street": "116 S 8TH ST", "postcode": "76821"}}},
{"geometry": {"type": "Point", "coordinates": [-99.948104996, 31.7373685763]}, "type": "Feature", "properties": {"collection_times": [{"days": "Mon-Fri", "time": "5:00pm"}, {"days": "Sat", "time": "9:00am"}, {"days": "Sun", "time": "Closed"}], "id": "7682100004", "name": "USPS COLLECTION BOX - BLUE BOX", "address": {"city": "BALLINGER", "state": "TX", "street": "116 S 8TH ST", "postcode": "76821"}}},
{"geometry": {"type": "Point", "coordinates": [-99.1302691425, 31.7159331292]}, "type": "Feature", "properties": {"collection_times": [{"days": "Mon-Fri", "time": "4:30pm"}, {"days": "Sat", "time": "8:45am"}, {"days": "Sun", "time": "Closed"}], "id": "7682300000", "name": "USPS COLLECTION BOX - BLUE BOX", "address": {"city": "BANGS", "state": "TX", "street": "300 E SANTA FE ST", "postcode": "76823"}}},
{"geometry": {"type": "Point", "coordinates": [-99.1302691425, 31.7159331292]}, "type": "Feature", "properties": {"collection_times": [{"days": "Mon-Fri", "time": "4:30pm"}, {"days": "Sat", "time": "8:45am"}, {"days": "Sun", "time": "Closed"}], "id": "7682300002", "name": "USPS COLLECTION BOX - PO LOBBY", "address": {"city": "BANGS", "state": "TX", "street": "300 E SANTA FE ST", "postcode": "76823"}}},
{"geometry": {"type": "Point", "coordinates": [-98.5125690082, 31.0993592139]}, "type": "Feature", "properties": {"collection_times": [{"days": "Mon-Sat", "time": "10:15am"}, {"days": "Sun", "time": "Closed"}], "id": "7682400000", "name": "USPS COLLECTION BOX - PO LOBBY", "address": {"city": "BEND", "state": "TX", "street": "22902 W FM 580", "postcode": "76824"}}},
{"geometry": {"type": "Point", "coordinates": [-99.3413748059, 31.1179423061]}, "type": "Feature", "properties": {"collection_times": [{"days": "Mon-Sat", "time": "12:30pm"}, {"days": "Sun", "time": "Closed"}], "id": "7682500000", "name": "USPS COLLECTION BOX - BLUE BOX", "address": {"city": "BRADY", "state": "TX", "street": "1809 S CHINA ST", "postcode": "76825"}}},
{"geometry": {"type": "Point", "coordinates": [-99.3349308514, 31.1356027275]}, "type": "Feature", "properties": {"collection_times": [{"days": "Mon-Sat", "time": "3:15pm"}, {"days": "Sun", "time": "Closed"}], "id": "7682500001", "name": "USPS COLLECTION BOX - BLUE BOX", "address": {"city": "BRADY", "state": "TX", "street": "100 W MAIN ST", "postcode": "76825"}}},
{"geometry": {"type": "Point", "coordinates": [-99.333170735, 31.1338604635]}, "type": "Feature", "properties": {"collection_times": [{"days": "Mon-Fri", "time": "4:30pm"}, {"days": "Sat", "time": "3:30pm"}, {"days": "Sun", "time": "Closed"}], "id": "7682500002", "name": "USPS COLLECTION BOX - BLUE BOX", "address": {"city": "BRADY", "state": "TX", "street": "210 S ELM ST", "postcode": "76825"}}},
{"geometry": {"type": "Point", "coordinates": [-99.3341396454, 31.1344282696]}, "type": "Feature", "properties": {"collection_times": [{"days": "Mon-Fri", "time": "4:30pm"}, {"days": "Sat", "time": "3:30pm"}, {"days": "Sun", "time": "Closed"}], "id": "7682500003", "name": "USPS COLLECTION BOX - PO LOBBY", "address": {"city": "BRADY", "state": "TX", "street": "229 S BLACKBURN ST", "postcode": "76825"}}},
{"geometry": {"type": "Point", "coordinates": [-99.3341396454, 31.1344282696]}, "type": "Feature", "properties": {"collection_times": [{"days": "Mon-Fri", "time": "4:30pm"}, {"days": "Sat", "time": "3:30pm"}, {"days": "Sun", "time": "Closed"}], "id": "7682500004", "name": "USPS COLLECTION BOX - PO LOBBY", "address": {"city": "BRADY", "state": "TX", "street": "229 S BLACKBURN ST", "postcode": "76825"}}},
{"geometry": {"type": "Point", "coordinates": [-99.3341396454, 31.1344282696]}, "type": "Feature", "properties": {"collection_times": [{"days": "Mon-Fri", "time": "4:30pm"}, {"days": "Sat", "time": "3:30pm"}, {"days": "Sun", "time": "Closed"}], "id": "7682500005", "name": "USPS COLLECTION BOX - PO LOBBY", "address": {"city": "BRADY", "state": "TX", "street": "229 S BLACKBURN ST", "postcode": "76825"}}},
{"geometry": {"type": "Point", "coordinates": [-99.3341396454, 31.1344282696]}, "type": "Feature", "properties": {"collection_times": [{"days": "Mon-Fri", "time": "4:30pm"}, {"days": "Sat", "time": "3:30pm"}, {"days": "Sun", "time": "Closed"}], "id": "7682500006", "name": "USPS COLLECTION BOX - PO LOBBY", "address": {"city": "BRADY", "state": "TX", "street": "229 S BLACKBURN ST", "postcode": "76825"}}},
{"geometry": {"type": "Point", "coordinates": [-99.333170735, 31.1338604635]}, "type": "Feature", "properties": {"collection_times": [{"days": "Mon-Fri", "time": "4:30pm"}, {"days": "Sat", "time": "3:30pm"}, {"days": "Sun", "time": "Closed"}], "id": "7682500007", "name": "USPS COLLECTION BOX - BLUE BOX", "address": {"city": "BRADY", "state": "TX", "street": "210 S ELM ST", "postcode": "76825"}}},
{"geometry": {"type": "Point", "coordinates": [-99.3341396454, 31.1344282696]}, "type": "Feature", "properties": {"collection_times": [{"days": "Mon-Fri", "time": "4:30pm"}, {"days": "Sat", "time": "3:30pm"}, {"days": "Sun", "time": "Closed"}], "id": "7682500008", "name": "USPS COLLECTION BOX - PO LOBBY", "address": {"city": "BRADY", "state": "TX", "street": "229 S BLACKBURN ST", "postcode": "76825"}}},
{"geometry": {"type": "Point", "coordinates": [-99.1810031962, 31.5472676037]}, "type": "Feature", "properties": {"collection_times": [{"days": "Mon-Fri", "time": "2:45pm"}, {"days": "Sat", "time": "8:45am"}, {"days": "Sun", "time": "Closed"}], "id": "7682700000", "name": "USPS COLLECTION BOX - BLUE BOX", "address": {"city": "BROOKESMITH", "state": "TX", "street": "13375 FM 586 S", "postcode": "76827"}}},
{"geometry": {"type": "Point", "coordinates": [-99.1810031962, 31.5472676037]}, "type": "Feature", "properties": {"collection_times": [{"days": "Mon-Fri", "time": "2:45pm"}, {"days": "Sat", "time": "8:45am"}, {"days": "Sun", "time": "Closed"}], "id": "7682700001", "name": "USPS COLLECTION BOX - PO LOBBY", "address": {"city": "BROOKESMITH", "state": "TX", "street": "13375 FM 586 S", "postcode": "76827"}}},
{"geometry": {"type": "Point", "coordinates": [-99.230635106, 31.9965883588]}, "type": "Feature", "properties": {"collection_times": [{"days": "Mon-Sat", "time": "12:00pm"}, {"days": "Sun", "time": "Closed"}], "id": "7682800000", "name": "USPS COLLECTION BOX - PO LOBBY", "address": {"city": "BURKETT", "state": "TX", "street": "357 BAYOU ST", "postcode": "76828"}}},
{"geometry": {"type": "Point", "coordinates": [-98.9266894782, 30.6997563252]}, "type": "Feature", "properties": {"collection_times": [{"days": "Mon-Sat", "time": "11:00am"}, {"days": "Sun", "time": "Closed"}], "id": "7683100000", "name": "USPS COLLECTION BOX - BLUE BOX", "address": {"city": "CASTELL", "state": "TX", "street": "19479 RANCH ROAD 152", "postcode": "76831"}}},
{"geometry": {"type": "Point", "coordinates": [-98.7679394856, 30.9745801909]}, "type": "Feature", "properties": {"collection_times": [{"days": "Mon-Fri", "time": "2:00pm"}, {"days": "Sat", "time": "10:30am"}, {"days": "Sun", "time": "Closed"}], "id": "7683200000", "name": "USPS COLLECTION BOX - BLUE BOX", "address": {"city": "CHEROKEE", "state": "TX", "street": "206 N HIGHWAY 16", "postcode": "76832"}}},
{"geometry": {"type": "Point", "coordinates": [-98.7679394856, 30.9745801909]}, "type": "Feature", "properties": {"collection_times": [{"days": "Mon-Fri", "time": "2:00pm"}, {"days": "Sat", "time": "10:30am"}, {"days": "Sun", "time": "Closed"}], "id": "7683200001", "name": "USPS COLLECTION BOX - PO LOBBY", "address": {"city": "CHEROKEE", "state": "TX", "street": "206 N HIGHWAY 16", "postcode": "76832"}}},
{"geometry": {"type": "Point", "coordinates": [-99.4241089213, 31.8300185453]}, "type": "Feature", "properties": {"collection_times": [{"days": "Mon-Fri", "time": "4:30pm"}, {"days": "Sat", "time": "3:00pm"}, {"days": "Sun", "time": "Closed"}], "id": "7683400001", "name": "USPS COLLECTION BOX - BLUE BOX", "address": {"city": "COLEMAN", "state": "TX", "street": "201 W PECAN ST", "postcode": "76834"}}},
{"geometry": {"type": "Point", "coordinates": [-99.4241089213, 31.8300185453]}, "type": "Feature", "properties": {"collection_times": [{"days": "Mon-Fri", "time": "4:30pm"}, {"days": "Sat", "time": "3:00pm"}, {"days": "Sun", "time": "Closed"}], "id": "7683400002", "name": "USPS COLLECTION BOX - BLUE BOX", "address": {"city": "COLEMAN", "state": "TX", "street": "201 W PECAN ST", "postcode": "76834"}}},
{"geometry": {"type": "Point", "coordinates": [-99.4241089213, 31.8300185453]}, "type": "Feature", "properties": {"collection_times": [{"days": "Mon-Fri", "time": "4:30pm"}, {"days": "Sat", "time": "3:00pm"}, {"days": "Sun", "time": "Closed"}], "id": "7683400004", "name": "USPS COLLECTION BOX - PO LOBBY", "address": {"city": "COLEMAN", "state": "TX", "street": "201 W PECAN ST", "postcode": "76834"}}},
{"geometry": {"type": "Point", "coordinates": [-99.4242742866, 31.8300642932]}, "type": "Feature", "properties": {"collection_times": [{"days": "Mon-Fri", "time": "4:30pm"}, {"days": "Sat", "time": "3:00pm"}, {"days": "Sun", "time": "Closed"}], "id": "7683400005", "name": "USPS COLLECTION BOX - BLUE BOX", "address": {"city": "COLEMAN", "state": "TX", "street": "201 W PECAN ST", "postcode": "76834"}}},
{"geometry": {"type": "Point", "coordinates": [-99.5516274491, 31.413733472]}, "type": "Feature", "properties": {"collection_times": [{"days": "Mon-Sat", "time": "9:30am"}, {"days": "Sun", "time": "Closed"}], "id": "7683600000", "name": "USPS COLLECTION BOX - PO LOBBY", "address": {"city": "DOOLE", "state": "TX", "street": "6662 FM RD 503 N", "postcode": "76836"}}},
{"geometry": {"type": "Point", "coordinates": [-99.8433337095, 31.2163932408]}, "type": "Feature", "properties": {"collection_times": [{"days": "Mon-Fri", "time": "4:30pm"}, {"days": "Sat", "time": "9:00am"}, {"days": "Sun", "time": "Closed"}], "id": "7683700001", "name": "USPS COLLECTION BOX - BLUE BOX", "address": {"city": "EDEN", "state": "TX", "street": "100 W BROADWAY ST", "postcode": "76837"}}},
{"geometry": {"type": "Point", "coordinates": [-99.8433337095, 31.2163932408]}, "type": "Feature", "properties": {"collection_times": [{"days": "Mon-Fri", "time": "4:30pm"}, {"days": "Sat", "time": "9:00am"}, {"days": "Sun", "time": "Closed"}], "id": "7683700002", "name": "USPS COLLECTION BOX - PO LOBBY", "address": {"city": "EDEN", "state": "TX", "street": "100 W BROADWAY ST", "postcode": "76837"}}},
{"geometry": {"type": "Point", "coordinates": [-99.8433337095, 31.2163932408]}, "type": "Feature", "properties": {"collection_times": [{"days": "Mon-Fri", "time": "4:30pm"}, {"days": "Sat", "time": "9:00am"}, {"days": "Sun", "time": "Closed"}], "id": "7683700003", "name": "USPS COLLECTION BOX - PO LOBBY", "address": {"city": "EDEN", "state": "TX", "street": "100 W BROADWAY ST", "postcode": "76837"}}},
{"geometry": {"type": "Point", "coordinates": [-100.0651872412, 30.8404452987]}, "type": "Feature", "properties": {"collection_times": [{"days": "Mon-Sat", "time": "11:00am"}, {"days": "Sun", "time": "Closed"}], "id": "7684100000", "name": "USPS COLLECTION BOX - BLUE BOX", "address": {"city": "FORT MCKAVETT", "state": "TX", "street": "6576 FM 864", "postcode": "76841"}}},
{"geometry": {"type": "Point", "coordinates": [-100.0651872412, 30.8404452987]}, "type": "Feature", "properties": {"collection_times": [{"days": "Mon-Sat", "time": "11:00am"}, {"days": "Sun", "time": "Closed"}], "id": "7684100001", "name": "USPS COLLECTION BOX - PO LOBBY", "address": {"city": "FORT MCKAVETT", "state": "TX", "street": "6576 FM 864", "postcode": "76841"}}},
{"geometry": {"type": "Point", "coordinates": [-98.5694953144, 31.4538678854]}, "type": "Feature", "properties": {"collection_times": [{"days": "Mon-Fri", "time": "4:00pm"}, {"days": "Sat", "time": "10:00am"}, {"days": "Sun", "time": "Closed"}], "id": "7684400000", "name": "USPS COLLECTION BOX - BLUE BOX", "address": {"city": "GOLDTHWAITE", "state": "TX", "street": "1401 W FRONT ST", "postcode": "76844"}}},
{"geometry": {"type": "Point", "coordinates": [-98.569524668, 31.4538555729]}, "type": "Feature", "properties": {"collection_times": [{"days": "Mon-Fri", "time": "4:00pm"}, {"days": "Sat", "time": "10:00am"}, {"days": "Sun", "time": "Closed"}], "id": "7684400001", "name": "USPS COLLECTION BOX - PO LOBBY", "address": {"city": "GOLDTHWAITE", "state": "TX", "street": "1401 W FRONT ST", "postcode": "76844"}}},
{"geometry": {"type": "Point", "coordinates": [-98.569524668, 31.4538555729]}, "type": "Feature", "properties": {"collection_times": [{"days": "Mon-Fri", "time": "4:00pm"}, {"days": "Sat", "time": "10:00am"}, {"days": "Sun", "time": "Closed"}], "id": "7684400002", "name": "USPS COLLECTION BOX - PO LOBBY", "address": {"city": "GOLDTHWAITE", "state": "TX", "street": "1401 W FRONT ST", "postcode": "76844"}}},
{"geometry": {"type": "Point", "coordinates": [-98.5694953144, 31.4538678854]}, "type": "Feature", "properties": {"collection_times": [{"days": "Mon-Fri", "time": "4:00pm"}, {"days": "Sat", "time": "10:00am"}, {"days": "Sun", "time": "Closed"}], "id": "7684400004", "name": "USPS COLLECTION BOX - BLUE BOX", "address": {"city": "GOLDTHWAITE", "state": "TX", "street": "1401 W FRONT ST", "postcode": "76844"}}},
{"geometry": {"type": "Point", "coordinates": [-99.4773106933, 31.554207182]}, "type": "Feature", "properties": {"collection_times": [{"days": "Mon-Fri", "time": "10:45am"}, {"days": "Sat", "time": "9:45am"}, {"days": "Sun", "time": "Closed"}], "id": "7684500000", "name": "USPS COLLECTION BOX - PO LOBBY", "address": {"city": "GOULDBUSK", "state": "TX", "street": "135 MAIN ST", "postcode": "76845"}}},
{"geometry": {"type": "Point", "coordinates": [-99.5401638959, 30.8691433257]}, "type": "Feature", "properties": {"collection_times": [{"days": "Mon-Sat", "time": "10:30am"}, {"days": "Sun", "time": "Closed"}], "id": "7684800000", "name": "USPS COLLECTION BOX - PO LOBBY", "address": {"city": "HEXT", "state": "TX", "street": "15193 STATE HIGHWAY 29", "postcode": "76848"}}},
{"geometry": {"type": "Point", "coordinates": [-99.7675914838, 30.4883802047]}, "type": "Feature", "properties": {"collection_times": [{"days": "Mon-Sat", "time": "3:30pm"}, {"days": "Sun", "time": "Closed"}], "id": "7684900000", "name": "USPS COLLECTION BOX - BLUE BOX", "address": {"city": "JUNCTION", "state": "TX", "street": "612 COLLEGE ST", "postcode": "76849"}}},
{"geometry": {"type": "Point", "coordinates": [-99.7675914838, 30.4883802047]}, "type": "Feature", "properties": {"collection_times": [{"days": "Mon-Sat", "time": "3:30pm"}, {"days": "Sun", "time": "Closed"}], "id": "7684900001", "name": "USPS COLLECTION BOX - PO LOBBY", "address": {"city": "JUNCTION", "state": "TX", "street": "612 COLLEGE ST", "postcode": "76849"}}},
{"geometry": {"type": "Point", "coordinates": [-99.4256322341, 31.3374060596]}, "type": "Feature", "properties": {"collection_times": [{"days": "Mon-Fri", "time": "12:00pm"}, {"days": "Sat", "time": "10:30am"}, {"days": "Sun", "time": "Closed"}], "id": "7685200000", "name": "USPS COLLECTION BOX - BLUE BOX", "address": {"city": "LOHN", "state": "TX", "street": "1156 FM 504", "postcode": "76852"}}},
{"geometry": {"type": "Point", "coordinates": [-99.4256322341, 31.3374060596]}, "type": "Feature", "properties": {"collection_times": [{"days": "Mon-Fri", "time": "12:00pm"}, {"days": "Sat", "time": "10:30am"}, {"days": "Sun", "time": "Closed"}], "id": "7685200001", "name": "USPS COLLECTION BOX - PO LOBBY", "address": {"city": "LOHN", "state": "TX", "street": "1156 FM 504", "postcode": "76852"}}},
{"geometry": {"type": "Point", "coordinates": [-98.3894210465, 31.2152313356]}, "type": "Feature", "properties": {"collection_times": [{"days": "Mon-Fri", "time": "3:30pm"}, {"days": "Sat", "time": "10:00am"}, {"days": "Sun", "time": "Closed"}], "id": "7685300000", "name": "USPS COLLECTION BOX - BLUE BOX", "address": {"city": "LOMETA", "state": "TX", "street": "116 E ELM ST", "postcode": "76853"}}},
{"geometry": {"type": "Point", "coordinates": [-98.3894210465, 31.2152313356]}, "type": "Feature", "properties": {"collection_times": [{"days": "Mon-Fri", "time": "3:30pm"}, {"days": "Sat", "time": "10:00am"}, {"days": "Sun", "time": "Closed"}], "id": "7685300001", "name": "USPS COLLECTION BOX - PO LOBBY", "address": {"city": "LOMETA", "state": "TX", "street": "116 E ELM ST", "postcode": "76853"}}},
{"geometry": {"type": "Point", "coordinates": [-99.6737912284, 30.5492559229]}, "type": "Feature", "properties": {"collection_times": [{"days": "Mon-Fri", "time": "12:30pm"}, {"days": "Sat", "time": "10:00am"}, {"days": "Sun", "time": "Closed"}], "id": "7685400000", "name": "USPS COLLECTION BOX - BLUE BOX", "address": {"city": "LONDON", "state": "TX", "street": "17295 N US HIGHWAY 377", "postcode": "76854"}}},
{"geometry": {"type": "Point", "coordinates": [-99.6737912284, 30.5492559229]}, "type": "Feature", "properties": {"collection_times": [{"days": "Mon-Fri", "time": "12:30pm"}, {"days": "Sat", "time": "10:00am"}, {"days": "Sun", "time": "Closed"}], "id": "7685400001", "name": "USPS COLLECTION BOX - PO LOBBY", "address": {"city": "LONDON", "state": "TX", "street": "17295 N US HIGHWAY 377", "postcode": "76854"}}},
{"geometry": {"type": "Point", "coordinates": [-99.2331615324, 30.747839331]}, "type": "Feature", "properties": {"collection_times": [{"days": "Mon-Fri", "time": "12:00pm"}, {"days": "Sat-Sun", "time": "Closed"}], "id": "7685600000", "name": "USPS COLLECTION BOX - BLUE BOX", "address": {"city": "MASON", "state": "TX", "street": "206 MOODY ST", "postcode": "76856"}}},
{"geometry": {"type": "Point", "coordinates": [-98.9995942195, 30.4761645462]}, "type": "Feature", "properties": {"collection_times": [{"days": "Mon-Fri", "time": "3:45pm"}, {"days": "Sat", "time": "12:00pm"}, {"days": "Sun", "time": "Closed"}], "id": "7685600001", "name": "USPS COLLECTION BOX - PO LOBBY", "address": {"city": "MASON", "state": "TX", "street": "704 WREN ST", "postcode": "76856"}}},
{"geometry": {"type": "Point", "coordinates": [-98.9995942195, 30.4761645462]}, "type": "Feature", "properties": {"collection_times": [{"days": "Mon-Fri", "time": "3:45pm"}, {"days": "Sat", "time": "12:00pm"}, {"days": "Sun", "time": "Closed"}], "id": "7685600004", "name": "USPS COLLECTION BOX - BLUE BOX", "address": {"city": "MASON", "state": "TX", "street": "704 WREN ST", "postcode": "76856"}}},
{"geometry": {"type": "Point", "coordinates": [-98.9204471415, 31.9717549006]}, "type": "Feature", "properties": {"collection_times": [{"days": "Mon-Fri", "time": "3:30pm"}, {"days": "Sat", "time": "9:00am"}, {"days": "Sun", "time": "Closed"}], "id": "7685700000", "name": "USPS COLLECTION BOX - BLUE BOX", "address": {"city": "MAY", "state": "TX", "street": "18807 N HIGHWAY 183", "postcode": "76857"}}},
{"geometry": {"type": "Point", "coordinates": [-98.9591373663, 31.9448996321]}, "type": "Feature", "properties": {"collection_times": [{"days": "Mon-Sat", "time": "10:00am"}, {"days": "Sun", "time": "Closed"}], "id": "7685700001", "name": "USPS COLLECTION BOX - BLUE BOX", "address": {"city": "MAY", "state": "TX", "street": "4 HARBOR DR", "postcode": "76857"}}},
{"geometry": {"type": "Point", "coordinates": [-98.9204471415, 31.9717549006]}, "type": "Feature", "properties": {"collection_times": [{"days": "Mon-Fri", "time": "3:30pm"}, {"days": "Sat", "time": "9:00am"}, {"days": "Sun", "time": "Closed"}], "id": "7685700002", "name": "USPS COLLECTION BOX - PO LOBBY", "address": {"city": "MAY", "state": "TX", "street": "18807 N HIGHWAY 183", "postcode": "76857"}}},
{"geometry": {"type": "Point", "coordinates": [-99.6527191443, 31.2329769404]}, "type": "Feature", "properties": {"collection_times": [{"days": "Mon-Fri", "time": "2:45pm"}, {"days": "Sat", "time": "9:00am"}, {"days": "Sun", "time": "Closed"}], "id": "7685800000", "name": "USPS COLLECTION BOX - PO LOBBY", "address": {"city": "MELVIN", "state": "TX", "street": "105 E MESQUITE ST", "postcode": "76858"}}},
{"geometry": {"type": "Point", "coordinates": [-99.6527191443, 31.2329769404]}, "type": "Feature", "properties": {"collection_times": [{"days": "Mon-Fri", "time": "2:45pm"}, {"days": "Sat", "time": "9:00am"}, {"days": "Sun", "time": "Closed"}], "id": "7685800001", "name": "USPS COLLECTION BOX - BLUE BOX", "address": {"city": "MELVIN", "state": "TX", "street": "105 E MESQUITE ST", "postcode": "76858"}}},
{"geometry": {"type": "Point", "coordinates": [-99.6527191443, 31.2329769404]}, "type": "Feature", "properties": {"collection_times": [{"days": "Mon-Fri", "time": "2:45pm"}, {"days": "Sat", "time": "9:00am"}, {"days": "Sun", "time": "Closed"}], "id": "7685800002", "name": "USPS COLLECTION BOX - PO LOBBY", "address": {"city": "MELVIN", "state": "TX", "street": "105 E MESQUITE ST", "postcode": "76858"}}},
{"geometry": {"type": "Point", "coordinates": [-99.8074062706, 30.917311779]}, "type": "Feature", "properties": {"collection_times": [{"days": "Mon-Fri", "time": "4:00pm"}, {"days": "Sat", "time": "10:30am"}, {"days": "Sun", "time": "Closed"}], "id": "7685900000", "name": "USPS COLLECTION BOX - BLUE BOX", "address": {"city": "MENARD", "state": "TX", "street": "911 FRISCO ST", "postcode": "76859"}}},
{"geometry": {"type": "Point", "coordinates": [-99.8074062706, 30.917311779]}, "type": "Feature", "properties": {"collection_times": [{"days": "Mon-Fri", "time": "4:00pm"}, {"days": "Sat", "time": "10:30am"}, {"days": "Sun", "time": "Closed"}], "id": "7685900001", "name": "USPS COLLECTION BOX - PO LOBBY", "address": {"city": "MENARD", "state": "TX", "street": "911 FRISCO ST", "postcode": "76859"}}},
{"geometry": {"type": "Point", "coordinates": [-99.8074062706, 30.917311779]}, "type": "Feature", "properties": {"collection_times": [{"days": "Mon-Fri", "time": "4:00pm"}, {"days": "Sat", "time": "10:30am"}, {"days": "Sun", "time": "Closed"}], "id": "7685900002", "name": "USPS COLLECTION BOX - BLUE BOX", "address": {"city": "MENARD", "state": "TX", "street": "911 FRISCO ST", "postcode": "76859"}}},
{"geometry": {"type": "Point", "coordinates": [-99.8074062706, 30.917311779]}, "type": "Feature", "properties": {"collection_times": [{"days": "Mon-Fri", "time": "4:00pm"}, {"days": "Sat", "time": "10:30am"}, {"days": "Sun", "time": "Closed"}], "id": "7685900003", "name": "USPS COLLECTION BOX - PO LOBBY", "address": {"city": "MENARD", "state": "TX", "street": "911 FRISCO ST", "postcode": "76859"}}},
{"geometry": {"type": "Point", "coordinates": [-100.1832533046, 31.5993287885]}, "type": "Feature", "properties": {"collection_times": [{"days": "Mon-Fri", "time": "3:30pm"}, {"days": "Sat", "time": "9:00am"}, {"days": "Sun", "time": "Closed"}], "id": "7686100000", "name": "USPS COLLECTION BOX - BLUE BOX", "address": {"city": "MILES", "state": "TX", "street": "300 ROBINSON ST", "postcode": "76861"}}},
{"geometry": {"type": "Point", "coordinates": [-100.1832533046, 31.5993287885]}, "type": "Feature", "properties": {"collection_times": [{"days": "Mon-Fri", "time": "3:30pm"}, {"days": "Sat", "time": "9:00am"}, {"days": "Sun", "time": "Closed"}], "id": "7686100001", "name": "USPS COLLECTION BOX - PO LOBBY", "address": {"city": "MILES", "state": "TX", "street": "300 ROBINSON ST", "postcode": "76861"}}},
{"geometry": {"type": "Point", "coordinates": [-99.7511293868, 31.4090265924]}, "type": "Feature", "properties": {"collection_times": [{"days": "Mon-Fri", "time": "11:00am"}, {"days": "Sat", "time": "10:45am"}, {"days": "Sun", "time": "Closed"}], "id": "7686200000", "name": "USPS COLLECTION BOX - BLUE BOX", "address": {"city": "MILLERSVIEW", "state": "TX", "street": "8090 FM 765 E", "postcode": "76862"}}},
{"geometry": {"type": "Point", "coordinates": [-99.7511293868, 31.4090265924]}, "type": "Feature", "properties": {"collection_times": [{"days": "Mon-Fri", "time": "11:00am"}, {"days": "Sat", "time": "10:45am"}, {"days": "Sun", "time": "Closed"}], "id": "7686200001", "name": "USPS COLLECTION BOX - PO LOBBY", "address": {"city": "MILLERSVIEW", "state": "TX", "street": "8090 FM 765 E", "postcode": "76862"}}},
{"geometry": {"type": "Point", "coordinates": [-98.6678664638, 31.5579381395]}, "type": "Feature", "properties": {"collection_times": [{"days": "Mon-Fri", "time": "11:30am"}, {"days": "Sat", "time": "9:15am"}, {"days": "Sun", "time": "Closed"}], "id": "7686400001", "name": "USPS COLLECTION BOX - PO LOBBY", "address": {"city": "MULLIN", "state": "TX", "street": "108 E SHERMAN ST", "postcode": "76864"}}},
{"geometry": {"type": "Point", "coordinates": [-99.9314956339, 31.4794021553]}, "type": "Feature", "properties": {"collection_times": [{"days": "Mon-Fri", "time": "11:30am"}, {"days": "Sat", "time": "10:00am"}, {"days": "Sun", "time": "Closed"}], "id": "7686600001", "name": "USPS COLLECTION BOX - PO LOBBY", "address": {"city": "PAINT ROCK", "state": "TX", "street": "331 S ROBERTS AVE", "postcode": "76866"}}},
{"geometry": {"type": "Point", "coordinates": [-99.9314956339, 31.4794021553]}, "type": "Feature", "properties": {"collection_times": [{"days": "Mon-Fri", "time": "3:45pm"}, {"days": "Sat", "time": "10:00am"}, {"days": "Sun", "time": "Closed"}], "id": "7686600003", "name": "USPS COLLECTION BOX - BLUE BOX", "address": {"city": "PAINT ROCK", "state": "TX", "street": "331 S ROBERTS AVE", "postcode": "76866"}}},
{"geometry": {"type": "Point", "coordinates": [-99.0311569586, 30.8875869454]}, "type": "Feature", "properties": {"collection_times": [{"days": "Mon-Fri", "time": "1:30pm"}, {"days": "Sat", "time": "10:00am"}, {"days": "Sun", "time": "Closed"}], "id": "7686900000", "name": "USPS COLLECTION BOX - BLUE BOX", "address": {"city": "PONTOTOC", "state": "TX", "street": "17658 COLLEGE ST", "postcode": "76869"}}},
{"geometry": {"type": "Point", "coordinates": [-99.0311569586, 30.8875869454]}, "type": "Feature", "properties": {"collection_times": [{"days": "Mon-Fri", "time": "1:30pm"}, {"days": "Sat", "time": "10:00am"}, {"days": "Sun", "time": "Closed"}], "id": "7686900001", "name": "USPS COLLECTION BOX - PO LOBBY", "address": {"city": "PONTOTOC", "state": "TX", "street": "17658 COLLEGE ST", "postcode": "76869"}}},
{"geometry": {"type": "Point", "coordinates": [-98.5108255809, 31.6701048232]}, "type": "Feature", "properties": {"collection_times": [{"days": "Mon-Sat", "time": "10:15am"}, {"days": "Sun", "time": "Closed"}], "id": "7687000000", "name": "USPS COLLECTION BOX - BLUE BOX", "address": {"city": "PRIDDY", "state": "TX", "street": "13420 HIGHWAY 16 N", "postcode": "76870"}}},
{"geometry": {"type": "Point", "coordinates": [-98.5108255809, 31.6701048232]}, "type": "Feature", "properties": {"collection_times": [{"days": "Mon-Sat", "time": "10:15am"}, {"days": "Sun", "time": "Closed"}], "id": "7687000001", "name": "USPS COLLECTION BOX - PO LOBBY", "address": {"city": "PRIDDY", "state": "TX", "street": "13420 HIGHWAY 16 N", "postcode": "76870"}}},
{"geometry": {"type": "Point", "coordinates": [-98.9449955236, 31.2739599305]}, "type": "Feature", "properties": {"collection_times": [{"days": "Mon-Fri", "time": "3:30pm"}, {"days": "Sat", "time": "9:30am"}, {"days": "Sun", "time": "Closed"}], "id": "7687100000", "name": "USPS COLLECTION BOX - BLUE BOX", "address": {"city": "RICHLAND SPRINGS", "state": "TX", "street": "105 W MAIN ST", "postcode": "76871"}}},
{"geometry": {"type": "Point", "coordinates": [-98.9449955236, 31.2739599305]}, "type": "Feature", "properties": {"collection_times": [{"days": "Mon-Fri", "time": "11:15am"}, {"days": "Sat", "time": "9:30am"}, {"days": "Sun", "time": "Closed"}], "id": "7687100001", "name": "USPS COLLECTION BOX - PO LOBBY", "address": {"city": "RICHLAND SPRINGS", "state": "TX", "street": "105 W MAIN ST", "postcode": "76871"}}},
{"geometry": {"type": "Point", "coordinates": [-98.9449955236, 31.2739599305]}, "type": "Feature", "properties": {"collection_times": [{"days": "Mon-Fri", "time": "11:15am"}, {"days": "Sat", "time": "9:30am"}, {"days": "Sun", "time": "Closed"}], "id": "7687100002", "name": "USPS COLLECTION BOX - PO LOBBY", "address": {"city": "RICHLAND SPRINGS", "state": "TX", "street": "105 W MAIN ST", "postcode": "76871"}}},
{"geometry": {"type": "Point", "coordinates": [-99.1473999051, 31.3290859425]}, "type": "Feature", "properties": {"collection_times": [{"days": "Mon-Fri", "time": "4:00pm"}, {"days": "Sat", "time": "9:30am"}, {"days": "Sun", "time": "Closed"}], "id": "7687200000", "name": "USPS COLLECTION BOX - BLUE BOX", "address": {"city": "ROCHELLE", "state": "TX", "street": "5702 CREW AVE", "postcode": "76872"}}},
{"geometry": {"type": "Point", "coordinates": [-99.1473999051, 31.3290859425]}, "type": "Feature", "properties": {"collection_times": [{"days": "Mon-Fri", "time": "4:00pm"}, {"days": "Sat", "time": "9:30am"}, {"days": "Sun", "time": "Closed"}], "id": "7687200001", "name": "USPS COLLECTION BOX - PO LOBBY", "address": {"city": "ROCHELLE", "state": "TX", "street": "5702 CREW AVE", "postcode": "76872"}}},
{"geometry": {"type": "Point", "coordinates": [-99.1473999051, 31.3290859425]}, "type": "Feature", "properties": {"collection_times": [{"days": "Mon-Fri", "time": "4:00pm"}, {"days": "Sat", "time": "9:30am"}, {"days": "Sun", "time": "Closed"}], "id": "7687200002", "name": "USPS COLLECTION BOX - PO LOBBY", "address": {"city": "ROCHELLE", "state": "TX", "street": "5702 CREW AVE", "postcode": "76872"}}},
{"geometry": {"type": "Point", "coordinates": [-99.3715770476, 31.4867760295]}, "type": "Feature", "properties": {"collection_times": [{"days": "Mon-Fri", "time": "11:30am"}, {"days": "Sat", "time": "11:00am"}, {"days": "Sun", "time": "Closed"}], "id": "7687300000", "name": "USPS COLLECTION BOX - PO LOBBY", "address": {"city": "ROCKWOOD", "state": "TX", "street": "135 POLK AVE", "postcode": "76873"}}},
{"geometry": {"type": "Point", "coordinates": [-100.1124439715, 30.5056415728]}, "type": "Feature", "properties": {"collection_times": [{"days": "Mon-Sat", "time": "12:00pm"}, {"days": "Sun", "time": "Closed"}], "id": "7687400000", "name": "USPS COLLECTION BOX - BLUE BOX", "address": {"city": "ROOSEVELT", "state": "TX", "street": "3861 STATE LOOP 291", "postcode": "76874"}}},
{"geometry": {"type": "Point", "coordinates": [-100.1124439715, 30.5056415728]}, "type": "Feature", "properties": {"collection_times": [{"days": "Mon-Sat", "time": "12:00pm"}, {"days": "Sun", "time": "Closed"}], "id": "7687400001", "name": "USPS COLLECTION BOX - PO LOBBY", "address": {"city": "ROOSEVELT", "state": "TX", "street": "3861 STATE LOOP 291", "postcode": "76874"}}},
{"geometry": {"type": "Point", "coordinates": [-100.0094185879, 31.6300309407]}, "type": "Feature", "properties": {"collection_times": [{"days": "Mon-Fri", "time": "11:00am"}, {"days": "Sat", "time": "8:00am"}, {"days": "Sun", "time": "Closed"}], "id": "7687500000", "name": "USPS COLLECTION BOX - BLUE BOX", "address": {"city": "ROWENA", "state": "TX", "street": "501 MARY ST", "postcode": "76875"}}},
{"geometry": {"type": "Point", "coordinates": [-100.0094185879, 31.6300309407]}, "type": "Feature", "properties": {"collection_times": [{"days": "Mon-Fri", "time": "11:00am"}, {"days": "Sat", "time": "8:00am"}, {"days": "Sun", "time": "Closed"}], "id": "7687500002", "name": "USPS COLLECTION BOX - PO LOBBY", "address": {"city": "ROWENA", "state": "TX", "street": "501 MARY ST", "postcode": "76875"}}},
{"geometry": {"type": "Point", "coordinates": [-98.71847514, 31.1926139595]}, "type": "Feature", "properties": {"collection_times": [{"days": "Mon-Fri", "time": "4:00pm"}, {"days": "Sat", "time": "3:15pm"}, {"days": "Sun", "time": "Closed"}], "id": "7687700000", "name": "USPS COLLECTION BOX - PO LOBBY", "address": {"city": "SAN SABA", "state": "TX", "street": "603 S HIGH ST", "postcode": "76877"}}},
{"geometry": {"type": "Point", "coordinates": [-98.71847514, 31.1926139595]}, "type": "Feature", "properties": {"collection_times": [{"days": "Mon-Fri", "time": "4:00pm"}, {"days": "Sat", "time": "3:15pm"}, {"days": "Sun", "time": "Closed"}], "id": "7687700001", "name": "USPS COLLECTION BOX - PO LOBBY", "address": {"city": "SAN SABA", "state": "TX", "street": "603 S HIGH ST", "postcode": "76877"}}},
{"geometry": {"type": "Point", "coordinates": [-98.7174035031, 31.195775524]}, "type": "Feature", "properties": {"collection_times": [{"days": "Mon-Fri", "time": "3:15pm"}, {"days": "Sat", "time": "2:30pm"}, {"days": "Sun", "time": "Closed"}], "id": "7687700002", "name": "USPS COLLECTION BOX - BLUE BOX", "address": {"city": "SAN SABA", "state": "TX", "street": "102 S CHEROKEE ST", "postcode": "76877"}}},
{"geometry": {"type": "Point", "coordinates": [-98.7174346923, 31.1910936198]}, "type": "Feature", "properties": {"collection_times": [{"days": "Mon-Fri", "time": "4:00pm"}, {"days": "Sat", "time": "3:15pm"}, {"days": "Sun", "time": "Closed"}], "id": "7687700004", "name": "USPS COLLECTION BOX - BLUE BOX", "address": {"city": "SAN SABA", "state": "TX", "street": "608 S CHEROKEE ST", "postcode": "76877"}}},
{"geometry": {"type": "Point", "coordinates": [-98.7174346923, 31.1910936198]}, "type": "Feature", "properties": {"collection_times": [{"days": "Mon-Fri", "time": "4:00pm"}, {"days": "Sat", "time": "3:15pm"}, {"days": "Sun", "time": "Closed"}], "id": "7687700005", "name": "USPS COLLECTION BOX - BLUE BOX", "address": {"city": "SAN SABA", "state": "TX", "street": "608 S CHEROKEE ST", "postcode": "76877"}}},
{"geometry": {"type": "Point", "coordinates": [-99.3221142778, 31.743321369]}, "type": "Feature", "properties": {"collection_times": [{"days": "Mon-Fri", "time": "3:45pm"}, {"days": "Sat", "time": "8:45am"}, {"days": "Sun", "time": "Closed"}], "id": "7687800000", "name": "USPS COLLECTION BOX - BLUE BOX", "address": {"city": "SANTA ANNA", "state": "TX", "street": "207 N 1ST ST", "postcode": "76878"}}},
{"geometry": {"type": "Point", "coordinates": [-99.3221142778, 31.743321369]}, "type": "Feature", "properties": {"collection_times": [{"days": "Mon-Fri", "time": "3:45pm"}, {"days": "Sat", "time": "8:45am"}, {"days": "Sun", "time": "Closed"}], "id": "7687800002", "name": "USPS COLLECTION BOX - PO LOBBY", "address": {"city": "SANTA ANNA", "state": "TX", "street": "207 N 1ST ST", "postcode": "76878"}}},
{"geometry": {"type": "Point", "coordinates": [-99.3330489019, 31.4627353752]}, "type": "Feature", "properties": {"collection_times": [{"days": "Mon-Sat", "time": "10:30am"}, {"days": "Sun", "time": "Closed"}], "id": "7688000000", "name": "USPS COLLECTION BOX - PO LOBBY", "address": {"city": "STAR", "state": "TX", "street": "39 FM 1047 S", "postcode": "76880"}}},
{"geometry": {"type": "Point", "coordinates": [-99.3330489019, 31.4627353752]}, "type": "Feature", "properties": {"collection_times": [{"days": "Mon-Sat", "time": "10:30am"}, {"days": "Sun", "time": "Closed"}], "id": "7688000001", "name": "USPS COLLECTION BOX - BLUE BOX", "address": {"city": "STAR", "state": "TX", "street": "39 FM 1047 S", "postcode": "76880"}}},
{"geometry": {"type": "Point", "coordinates": [-99.7144874015, 31.7765742484]}, "type": "Feature", "properties": {"collection_times": [{"days": "Mon-Fri", "time": "12:00pm"}, {"days": "Sat", "time": "8:30am"}, {"days": "Sun", "time": "Closed"}], "id": "7688200002", "name": "USPS COLLECTION BOX - PO LOBBY", "address": {"city": "TALPA", "state": "TX", "street": "110 2ND ST", "postcode": "76882"}}},
{"geometry": {"type": "Point", "coordinates": [-99.5885536515, 31.7463960748]}, "type": "Feature", "properties": {"collection_times": [{"days": "Mon-Fri", "time": "11:00am"}, {"days": "Sat", "time": "8:45am"}, {"days": "Sun", "time": "Closed"}], "id": "7688400001", "name": "USPS COLLECTION BOX - BLUE BOX", "address": {"city": "VALERA", "state": "TX", "street": "10490 US HIGHWAY 67", "postcode": "76884"}}},
{"geometry": {"type": "Point", "coordinates": [-98.839336774, 30.8410889143]}, "type": "Feature", "properties": {"collection_times": [{"days": "Mon-Sat", "time": "12:45pm"}, {"days": "Sun", "time": "Closed"}], "id": "7688500000", "name": "USPS COLLECTION BOX - BLUE BOX", "address": {"city": "VALLEY SPRING", "state": "TX", "street": "11936 W STATE HIGHWAY 71", "postcode": "76885"}}},
{"geometry": {"type": "Point", "coordinates": [-98.839336774, 30.8410889143]}, "type": "Feature", "properties": {"collection_times": [{"days": "Mon-Sat", "time": "12:45pm"}, {"days": "Sun", "time": "Closed"}], "id": "7688500001", "name": "USPS COLLECTION BOX - PO LOBBY", "address": {"city": "VALLEY SPRING", "state": "TX", "street": "11936 W STATE HIGHWAY 71", "postcode": "76885"}}},
{"geometry": {"type": "Point", "coordinates": [-100.2599484508, 31.4765136994]}, "type": "Feature", "properties": {"collection_times": [{"days": "Mon-Fri", "time": "1:00pm"}, {"days": "Sat", "time": "11:30am"}, {"days": "Sun", "time": "Closed"}], "id": "7688600000", "name": "USPS COLLECTION BOX - PO LOBBY", "address": {"city": "VERIBEST", "state": "TX", "street": "10777 FM 380", "postcode": "76886"}}},
{"geometry": {"type": "Point", "coordinates": [-100.2599484508, 31.4765136994]}, "type": "Feature", "properties": {"collection_times": [{"days": "Mon-Fri", "time": "1:00pm"}, {"days": "Sat", "time": "11:30am"}, {"days": "Sun", "time": "Closed"}], "id": "7688600001", "name": "USPS COLLECTION BOX - BLUE BOX", "address": {"city": "VERIBEST", "state": "TX", "street": "10777 FM 380", "postcode": "76886"}}},
{"geometry": {"type": "Point", "coordinates": [-99.1464195635, 30.9853909441]}, "type": "Feature", "properties": {"collection_times": [{"days": "Mon-Fri", "time": "2:00pm"}, {"days": "Sat", "time": "11:00am"}, {"days": "Sun", "time": "Closed"}], "id": "7688700000", "name": "USPS COLLECTION BOX - BLUE BOX", "address": {"city": "VOCA", "state": "TX", "street": "255 N FM 1851", "postcode": "76887"}}},
{"geometry": {"type": "Point", "coordinates": [-99.1464195635, 30.9853909441]}, "type": "Feature", "properties": {"collection_times": [{"days": "Mon-Fri", "time": "2:00pm"}, {"days": "Sat", "time": "11:00am"}, {"days": "Sun", "time": "Closed"}], "id": "7688700001", "name": "USPS COLLECTION BOX - PO LOBBY", "address": {"city": "VOCA", "state": "TX", "street": "255 N FM 1851", "postcode": "76887"}}},
{"geometry": {"type": "Point", "coordinates": [-98.7908071508, 31.6713916414]}, "type": "Feature", "properties": {"collection_times": [{"days": "Mon-Fri", "time": "4:00pm"}, {"days": "Sat", "time": "8:30am"}, {"days": "Sun", "time": "Closed"}], "id": "7689000000", "name": "USPS COLLECTION BOX - BLUE BOX", "address": {"city": "ZEPHYR", "state": "TX", "street": "11680 HIGHWAY 84 E", "postcode": "76890"}}},
{"geometry": {"type": "Point", "coordinates": [-98.7908071508, 31.6713916414]}, "type": "Feature", "properties": {"collection_times": [{"days": "Mon-Fri", "time": "4:00pm"}, {"days": "Sat", "time": "8:30am"}, {"days": "Sun", "time": "Closed"}], "id": "7689000001", "name": "USPS COLLECTION BOX - PO LOBBY", "address": {"city": "ZEPHYR", "state": "TX", "street": "11680 HIGHWAY 84 E", "postcode": "76890"}}}
]}
