{"type": "FeatureCollection", "features": [
{"geometry": {"type": "Point", "coordinates": [-100.464718588, 31.4522852871]}, "type": "Feature", "properties": {"collection_times": [{"days": "Mon-Fri", "time": "4:30pm"}, {"days": "Sat", "time": "4:15pm"}, {"days": "Sun", "time": "Closed"}], "id": "7690100002", "name": "USPS COLLECTION BOX - BLUE BOX", "address": {"city": "SAN ANGELO", "state": "TX", "street": "2126 W HARRIS AVE", "postcode": "76901"}}},
{"geometry": {"type": "Point", "coordinates": [-100.4728537316, 31.466757786]}, "type": "Feature", "properties": {"collection_times": [{"days": "Mon-Fri", "time": "3:00pm"}, {"days": "Sat", "time": "2:30pm"}, {"days": "Sun", "time": "Closed"}], "id": "7690100006", "name": "USPS COLLECTION BOX - BLUE BOX", "address": {"city": "SAN ANGELO", "state": "TX", "street": "1616 HOWARD ST", "postcode": "76901"}}},
{"geometry": {"type": "Point", "coordinates": [-100.477636404, 31.4807938173]}, "type": "Feature", "properties": {"collection_times": [{"days": "Mon-Fri", "time": "4:30pm"}, {"days": "Sat", "time": "2:30pm"}, {"days": "Sun", "time": "Closed"}], "id": "7690100008", "name": "USPS COLLECTION BOX - BLUE BOX", "address": {"city": "SAN ANGELO", "state": "TX", "street": "20 HOWARD ST", "postcode": "76901"}}},
{"geometry": {"type": "Point", "coordinates": [-100.4799625424, 31.445315082]}, "type": "Feature", "properties": {"collection_times": [{"days": "Mon-Fri", "time": "4:15pm"}, {"days": "Sat", "time": "4:00pm"}, {"days": "Sun", "time": "Closed"}], "id": "7690100009", "name": "USPS COLLECTION BOX - BLUE BOX", "address": {"city": "SAN ANGELO", "state": "TX", "street": "3270 SHERWOOD WAY", "postcode": "76901"}}},
{"geometry": {"type": "Point", "coordinates": [-100.454132825, 31.4564771112]}, "type": "Feature", "properties": {"collection_times": [{"days": "Mon-Fri", "time": "4:30pm"}, {"days": "Sat-Sun", "time": "Closed"}], "id": "7690100011", "name": "USPS COLLECTION BOX - BLUE BOX", "address": {"city": "SAN ANGELO", "state": "TX", "street": "1300 W BEAUREGARD AVE", "postcode": "76901"}}},
{"geometry": {"type": "Point", "coordinates": [-100.4871428998, 31.4412377416]}, "type": "Feature", "properties": {"collection_times": [{"days": "Mon-Fri", "time": "4:15pm"}, {"days": "Sat", "time": "4:00pm"}, {"days": "Sun", "time": "Closed"}], "id": "7690100012", "name": "USPS COLLECTION BOX - BLUE BOX", "address": {"city": "SAN ANGELO", "state": "TX", "street": "3901 SHERWOOD WAY", "postcode": "76901"}}},
{"geometry": {"type": "Point", "coordinates": [-100.4421949318, 31.4608115854]}, "type": "Feature", "properties": {"collection_times": [{"days": "Mon-Fri", "time": "4:30pm"}, {"days": "Sat-Sun", "time": "Closed"}], "id": "7690300000", "name": "USPS COLLECTION BOX - BLUE BOX", "address": {"city": "SAN ANGELO", "state": "TX", "street": "101 S KOENIGHEIM ST", "postcode": "76903"}}},
{"geometry": {"type": "Point", "coordinates": [-100.4421949318, 31.4608115854]}, "type": "Feature", "properties": {"collection_times": [{"days": "Mon-Fri", "time": "4:30pm"}, {"days": "Sat-Sun", "time": "Closed"}], "id": "7690300001", "name": "USPS COLLECTION BOX - BLUE BOX", "address": {"city": "SAN ANGELO", "state": "TX", "street": "101 S KOENIGHEIM ST", "postcode": "76903"}}},
{"geometry": {"type": "Point", "coordinates": [-100.438022901, 31.4591657344]}, "type": "Feature", "properties": {"collection_times": [{"days": "Mon-Fri", "time": "9:00am"}, {"days": "Sat-Sun", "time": "Closed"}], "id": "7690300004", "name": "USPS COLLECTION BOX - BLUE BOX", "address": {"city": "SAN ANGELO", "state": "TX", "street": "133 W CONCHO AVE", "postcode": "76903"}}},
{"geometry": {"type": "Point", "coordinates": [-100.4366771948, 31.4624222035]}, "type": "Feature", "properties": {"collection_times": [{"days": "Mon-Fri", "time": "4:15pm"}, {"days": "Sat-Sun", "time": "Closed"}], "id": "7690300006", "name": "USPS COLLECTION BOX - BLUE BOX", "address": {"city": "SAN ANGELO", "state": "TX", "street": "52 W COLLEGE AVE", "postcode": "76903"}}},
{"geometry": {"type": "Point", "coordinates": [-100.4394289427, 31.461637413]}, "type": "Feature", "properties": {"collection_times": [{"days": "Mon-Fri", "time": "4:15pm"}, {"days": "Sat-Sun", "time": "Closed"}], "id": "7690300009", "name": "USPS COLLECTION BOX - BLUE BOX", "address": {"city": "SAN ANGELO", "state": "TX", "street": "113 W BEAUREGARD AVE", "postcode": "76903"}}},
{"geometry": {"type": "Point", "coordinates": [-100.4355360749, 31.4614072361]}, "type": "Feature", "properties": {"collection_times": [{"days": "Mon-Fri", "time": "4:00pm"}, {"days": "Sat-Sun", "time": "Closed"}], "id": "7690300011", "name": "USPS COLLECTION BOX - BLUE BOX", "address": {"city": "SAN ANGELO", "state": "TX", "street": "33 E TWOHIG AVE", "postcode": "76903"}}},
{"geometry": {"type": "Point", "coordinates": [-100.4321912117, 31.4773993537]}, "type": "Feature", "properties": {"collection_times": [{"days": "Mon-Fri", "time": "3:45pm"}, {"days": "Sat-Sun", "time": "Closed"}], "id": "7690300014", "name": "USPS COLLECTION BOX - BLUE BOX", "address": {"city": "SAN ANGELO", "state": "TX", "street": "902 N MAIN ST", "postcode": "76903"}}},
{"geometry": {"type": "Point", "coordinates": [-100.4382312033, 31.4821268922]}, "type": "Feature", "properties": {"collection_times": [{"days": "Mon-Fri", "time": "3:30pm"}, {"days": "Sat", "time": "2:45pm"}, {"days": "Sun", "time": "Closed"}], "id": "7690300015", "name": "USPS COLLECTION BOX - BLUE BOX", "address": {"city": "SAN ANGELO", "state": "TX", "street": "726 E 19TH ST", "postcode": "76903"}}},
{"geometry": {"type": "Point", "coordinates": [-100.4347051907, 31.4459937516]}, "type": "Feature", "properties": {"collection_times": [{"days": "Mon-Sat", "time": "3:00pm"}, {"days": "Sun", "time": "Closed"}], "id": "7690300024", "name": "USPS COLLECTION BOX - BLUE BOX", "address": {"city": "SAN ANGELO", "state": "TX", "street": "1505 S CHADBOURNE ST", "postcode": "76903"}}},
{"geometry": {"type": "Point", "coordinates": [-100.4422146162, 31.4496515311]}, "type": "Feature", "properties": {"collection_times": [{"days": "Mon-Fri", "time": "3:45pm"}, {"days": "Sat-Sun", "time": "Closed"}], "id": "7690300026", "name": "USPS COLLECTION BOX - BLUE BOX", "address": {"city": "SAN ANGELO", "state": "TX", "street": "1207 S ABE ST", "postcode": "76903"}}},
{"geometry": {"type": "Point", "coordinates": [-100.4445827854, 31.4615667193]}, "type": "Feature", "properties": {"collection_times": [{"days": "Mon-Fri", "time": "5:30pm"}, {"days": "Sat", "time": "4:30pm"}, {"days": "Sun", "time": "Closed"}], "id": "7690300054", "name": "USPS COLLECTION BOX - BLUE BOX", "address": {"city": "SAN ANGELO", "state": "TX", "street": "1 N ABE ST", "postcode": "76903"}}},
{"geometry": {"type": "Point", "coordinates": [-100.4445827854, 31.4615667193]}, "type": "Feature", "properties": {"collection_times": [{"days": "Mon-Fri", "time": "5:30pm"}, {"days": "Sat", "time": "4:30pm"}, {"days": "Sun", "time": "Closed"}], "id": "7690300055", "name": "USPS COLLECTION BOX - BLUE BOX", "address": {"city": "SAN ANGELO", "state": "TX", "street": "1 N ABE ST", "postcode": "76903"}}},
{"geometry": {"type": "Point", "coordinates": [-100.4445827854, 31.4615667193]}, "type": "Feature", "properties": {"collection_times": [{"days": "Mon-Fri", "time": "5:30pm"}, {"days": "Sat", "time": "4:30pm"}, {"days": "Sun", "time": "Closed"}], "id": "7690300056", "name": "USPS COLLECTION BOX - PO LOBBY", "address": {"city": "SAN ANGELO", "state": "TX", "street": "1 N ABE ST", "postcode": "76903"}}},
{"geometry": {"type": "Point", "coordinates": [-100.4445827854, 31.4615667193]}, "type": "Feature", "properties": {"collection_times": [{"days": "Mon-Fri", "time": "5:30pm"}, {"days": "Sat", "time": "4:30pm"}, {"days": "Sun", "time": "Closed"}], "id": "7690300057", "name": "USPS COLLECTION BOX - PO LOBBY", "address": {"city": "SAN ANGELO", "state": "TX", "street": "1 N ABE ST", "postcode": "76903"}}},
{"geometry": {"type": "Point", "coordinates": [-100.4445827854, 31.4615667193]}, "type": "Feature", "properties": {"collection_times": [{"days": "Mon-Fri", "time": "5:30pm"}, {"days": "Sat", "time": "4:30pm"}, {"days": "Sun", "time": "Closed"}], "id": "7690300059", "name": "USPS COLLECTION BOX - PO LOBBY", "address": {"city": "SAN ANGELO", "state": "TX", "street": "1 N ABE ST", "postcode": "76903"}}},
{"geometry": {"type": "Point", "coordinates": [-100.4351342886, 31.464536069]}, "type": "Feature", "properties": {"collection_times": [{"days": "Mon-Sat", "time": "3:00pm"}, {"days": "Sun", "time": "Closed"}], "id": "7690300061", "name": "USPS COLLECTION BOX - BLUE BOX", "address": {"city": "SAN ANGELO", "state": "TX", "street": "120 E HARRIS AVE", "postcode": "76903"}}},
{"geometry": {"type": "Point", "coordinates": [-100.4445827854, 31.4615667193]}, "type": "Feature", "properties": {"collection_times": [{"days": "Mon-Fri", "time": "5:30pm"}, {"days": "Sat", "time": "4:30pm"}, {"days": "Sun", "time": "Closed"}], "id": "7690300063", "name": "USPS COLLECTION BOX - APC", "address": {"city": "SAN ANGELO", "state": "TX", "street": "1 N ABE ST", "postcode": "76903"}}},
{"geometry": {"type": "Point", "coordinates": [-100.4589769685, 31.4867190819]}, "type": "Feature", "properties": {"collection_times": [{"days": "Mon-Fri", "time": "3:30pm"}, {"days": "Sat", "time": "2:30pm"}, {"days": "Sun", "time": "Closed"}], "id": "7690300064", "name": "USPS COLLECTION BOX - BLUE BOX", "address": {"city": "SAN ANGELO", "state": "TX", "street": "623 W 29TH ST", "postcode": "76903"}}},
{"geometry": {"type": "Point", "coordinates": [-100.4797721967, 31.4189564007]}, "type": "Feature", "properties": {"collection_times": [{"days": "Mon-Fri", "time": "9:00am"}, {"days": "Sat-Sun", "time": "Closed"}], "id": "7690400003", "name": "USPS COLLECTION BOX - BLUE BOX", "address": {"city": "SAN ANGELO", "state": "TX", "street": "2702 LOOP 306", "postcode": "76904"}}},
{"geometry": {"type": "Point", "coordinates": [-100.4701421292, 31.4199954007]}, "type": "Feature", "properties": {"collection_times": [{"days": "Mon-Fri", "time": "3:45pm"}, {"days": "Sat-Sun", "time": "Closed"}], "id": "7690400007", "name": "USPS COLLECTION BOX - BLUE BOX", "address": {"city": "SAN ANGELO", "state": "TX", "street": "3501 KNICKERBOCKER RD", "postcode": "76904"}}},
{"geometry": {"type": "Point", "coordinates": [-100.4588294027, 31.4285956667]}, "type": "Feature", "properties": {"collection_times": [{"days": "Mon-Fri", "time": "4:00pm"}, {"days": "Sat", "time": "3:30pm"}, {"days": "Sun", "time": "Closed"}], "id": "7690400022", "name": "USPS COLLECTION BOX - BLUE BOX", "address": {"city": "SAN ANGELO", "state": "TX", "street": "1821 KNICKERBOCKER RD", "postcode": "76904"}}},
{"geometry": {"type": "Point", "coordinates": [-100.4796424012, 31.436887494]}, "type": "Feature", "properties": {"collection_times": [{"days": "Mon-Fri", "time": "4:15pm"}, {"days": "Sat", "time": "4:00pm"}, {"days": "Sun", "time": "Closed"}], "id": "7690400028", "name": "USPS COLLECTION BOX - BLUE BOX", "address": {"city": "SAN ANGELO", "state": "TX", "street": "2425 COLLEGE HILLS BLVD", "postcode": "76904"}}},
{"geometry": {"type": "Point", "coordinates": [-100.4701162728, 31.4201470607]}, "type": "Feature", "properties": {"collection_times": [{"days": "Mon-Fri", "time": "4:00pm"}, {"days": "Sat", "time": "3:30pm"}, {"days": "Sun", "time": "Closed"}], "id": "7690400030", "name": "USPS COLLECTION BOX - BLUE BOX", "address": {"city": "SAN ANGELO", "state": "TX", "street": "2300 SUNSET DR", "postcode": "76904"}}},
{"geometry": {"type": "Point", "coordinates": [-100.4701162728, 31.4201470607]}, "type": "Feature", "properties": {"collection_times": [{"days": "Mon-Fri", "time": "4:00pm"}, {"days": "Sat", "time": "3:30pm"}, {"days": "Sun", "time": "Closed"}], "id": "7690400031", "name": "USPS COLLECTION BOX - BLUE BOX", "address": {"city": "SAN ANGELO", "state": "TX", "street": "2300 SUNSET DR", "postcode": "76904"}}},
{"geometry": {"type": "Point", "coordinates": [-100.4759246543, 31.4134404346]}, "type": "Feature", "properties": {"collection_times": [{"days": "Mon-Sat", "time": "3:45pm"}, {"days": "Sun", "time": "Closed"}], "id": "7690400032", "name": "USPS COLLECTION BOX - BLUE BOX", "address": {"city": "SAN ANGELO", "state": "TX", "street": "2311 SOUTHLAND BLVD", "postcode": "76904"}}},
{"geometry": {"type": "Point", "coordinates": [-100.4946169497, 31.4280137816]}, "type": "Feature", "properties": {"collection_times": [{"days": "Mon-Sat", "time": "3:00pm"}, {"days": "Sun", "time": "Closed"}], "id": "7690400033", "name": "USPS COLLECTION BOX - BLUE BOX", "address": {"city": "SAN ANGELO", "state": "TX", "street": "4001 SOUTHWEST BLVD", "postcode": "76904"}}},
{"geometry": {"type": "Point", "coordinates": [-100.4618652337, 31.4152973263]}, "type": "Feature", "properties": {"collection_times": [{"days": "Mon-Fri", "time": "3:45pm"}, {"days": "Sat", "time": "3:30pm"}, {"days": "Sun", "time": "Closed"}], "id": "7690400034", "name": "USPS COLLECTION BOX - BLUE BOX", "address": {"city": "SAN ANGELO", "state": "TX", "street": "1701 SUNSET DR", "postcode": "76904"}}},
{"geometry": {"type": "Point", "coordinates": [-100.4889229251, 31.4212680317]}, "type": "Feature", "properties": {"collection_times": [{"days": "Mon-Fri", "time": "4:15pm"}, {"days": "Sat", "time": "3:30pm"}, {"days": "Sun", "time": "Closed"}], "id": "7690400035", "name": "USPS COLLECTION BOX - PO LOBBY", "address": {"city": "SAN ANGELO", "state": "TX", "street": "3201 LOOP 306", "postcode": "76904"}}},
{"geometry": {"type": "Point", "coordinates": [-100.4889229251, 31.4212680317]}, "type": "Feature", "properties": {"collection_times": [{"days": "Mon-Fri", "time": "4:15pm"}, {"days": "Sat", "time": "3:30pm"}, {"days": "Sun", "time": "Closed"}], "id": "7690400036", "name": "USPS COLLECTION BOX - PO LOBBY", "address": {"city": "SAN ANGELO", "state": "TX", "street": "3201 LOOP 306", "postcode": "76904"}}},
{"geometry": {"type": "Point", "coordinates": [-100.4889229251, 31.4212680317]}, "type": "Feature", "properties": {"collection_times": [{"days": "Mon-Fri", "time": "4:15pm"}, {"days": "Sat", "time": "3:45pm"}, {"days": "Sun", "time": "Closed"}], "id": "7690400038", "name": "USPS COLLECTION BOX - BLUE BOX", "address": {"city": "SAN ANGELO", "state": "TX", "street": "3201 LOOP 306", "postcode": "76904"}}},
{"geometry": {"type": "Point", "coordinates": [-100.4889229251, 31.4212680317]}, "type": "Feature", "properties": {"collection_times": [{"days": "Mon-Fri", "time": "4:15pm"}, {"days": "Sat", "time": "3:30pm"}, {"days": "Sun", "time": "Closed"}], "id": "7690400040", "name": "USPS COLLECTION BOX - APC", "address": {"city": "SAN ANGELO", "state": "TX", "street": "3201 LOOP 306", "postcode": "76904"}}},
{"geometry": {"type": "Point", "coordinates": [-100.4051119448, 31.4707288338]}, "type": "Feature", "properties": {"collection_times": [{"days": "Mon-Fri", "time": "10:00am"}, {"days": "Sat-Sun", "time": "Closed"}], "id": "7690500001", "name": "USPS COLLECTION BOX - BLUE BOX", "address": {"city": "SAN ANGELO", "state": "TX", "street": "2018 PULLIAM ST", "postcode": "76905"}}},
{"geometry": {"type": "Point", "coordinates": [-100.409373794, 31.4762961761]}, "type": "Feature", "properties": {"collection_times": [{"days": "Mon-Fri", "time": "3:00pm"}, {"days": "Sat", "time": "2:45pm"}, {"days": "Sun", "time": "Closed"}], "id": "7690500005", "name": "USPS COLLECTION BOX - BLUE BOX", "address": {"city": "SAN ANGELO", "state": "TX", "street": "1606 LA FOLLETTE ST", "postcode": "76905"}}},
{"geometry": {"type": "Point", "coordinates": [-100.4117821318, 31.432611829]}, "type": "Feature", "properties": {"collection_times": [{"days": "Mon-Fri", "time": "4:15pm"}, {"days": "Sat", "time": "3:15pm"}, {"days": "Sun", "time": "Closed"}], "id": "7690800001", "name": "USPS COLLECTION BOX - BLUE BOX", "address": {"city": "SAN ANGELO", "state": "TX", "street": "161 NUCHOLS ST", "postcode": "76908"}}},
{"geometry": {"type": "Point", "coordinates": [-100.4128113835, 31.4276549702]}, "type": "Feature", "properties": {"collection_times": [{"days": "Mon-Fri", "time": "4:15pm"}, {"days": "Sat", "time": "3:15pm"}, {"days": "Sun", "time": "Closed"}], "id": "7690800002", "name": "USPS COLLECTION BOX - BLUE BOX", "address": {"city": "SAN ANGELO", "state": "TX", "street": "110 VALIANT ST", "postcode": "76908"}}},
{"geometry": {"type": "Point", "coordinates": [-100.4099109108, 31.4316736963]}, "type": "Feature", "properties": {"collection_times": [{"days": "Mon-Fri", "time": "4:15pm"}, {"days": "Sat", "time": "3:15pm"}, {"days": "Sun", "time": "Closed"}], "id": "7690800004", "name": "USPS COLLECTION BOX - BLUE BOX", "address": {"city": "SAN ANGELO", "state": "TX", "street": "313 KEARNEY BLVD", "postcode": "76908"}}},
{"geometry": {"type": "Point", "coordinates": [-101.1711111308, 31.1281637892]}, "type": "Feature", "properties": {"collection_times": [{"days": "Mon-Fri", "time": "3:30pm"}, {"days": "Sat", "time": "8:15am"}, {"days": "Sun", "time": "Closed"}], "id": "7693000000", "name": "USPS COLLECTION BOX - BLUE BOX", "address": {"city": "BARNHART", "state": "TX", "street": "133 MAIN ST", "postcode": "76930"}}},
{"geometry": {"type": "Point", "coordinates": [-101.1711111308, 31.1281637892]}, "type": "Feature", "properties": {"collection_times": [{"days": "Mon-Fri", "time": "3:30pm"}, {"days": "Sat", "time": "8:15am"}, {"days": "Sun", "time": "Closed"}], "id": "7693000001", "name": "USPS COLLECTION BOX - PO LOBBY", "address": {"city": "BARNHART", "state": "TX", "street": "133 MAIN ST", "postcode": "76930"}}},
{"geometry": {"type": "Point", "coordinates": [-101.4641403971, 31.1915602211]}, "type": "Feature", "properties": {"collection_times": [{"days": "Mon-Fri", "time": "3:00pm"}, {"days": "Sat", "time": "10:00am"}, {"days": "Sun", "time": "Closed"}], "id": "7693200000", "name": "USPS COLLECTION BOX - BLUE BOX", "address": {"city": "BIG LAKE", "state": "TX", "street": "210 E 2ND ST", "postcode": "76932"}}},
{"geometry": {"type": "Point", "coordinates": [-101.4673069967, 31.209613334]}, "type": "Feature", "properties": {"collection_times": [{"days": "Mon-Fri", "time": "3:00pm"}, {"days": "Sat", "time": "10:00am"}, {"days": "Sun", "time": "Closed"}], "id": "7693200001", "name": "USPS COLLECTION BOX - BLUE BOX", "address": {"city": "BIG LAKE", "state": "TX", "street": "300 COURT HOUSE SQ", "postcode": "76932"}}},
{"geometry": {"type": "Point", "coordinates": [-101.4641403971, 31.1915602211]}, "type": "Feature", "properties": {"collection_times": [{"days": "Mon-Fri", "time": "3:00pm"}, {"days": "Sat", "time": "10:00am"}, {"days": "Sun", "time": "Closed"}], "id": "7693200004", "name": "USPS COLLECTION BOX - PO LOBBY", "address": {"city": "BIG LAKE", "state": "TX", "street": "210 E 2ND ST", "postcode": "76932"}}},
{"geometry": {"type": "Point", "coordinates": [-101.4641403971, 31.1915602211]}, "type": "Feature", "properties": {"collection_times": [{"days": "Mon-Fri", "time": "3:00pm"}, {"days": "Sat", "time": "10:00am"}, {"days": "Sun", "time": "Closed"}], "id": "7693200005", "name": "USPS COLLECTION BOX - PO LOBBY", "address": {"city": "BIG LAKE", "state": "TX", "street": "210 E 2ND ST", "postcode": "76932"}}},
{"geometry": {"type": "Point", "coordinates": [-100.293403894, 31.8872244139]}, "type": "Feature", "properties": {"collection_times": [{"days": "Mon-Fri", "time": "4:00pm"}, {"days": "Sat", "time": "10:00am"}, {"days": "Sun", "time": "Closed"}], "id": "7693300000", "name": "USPS COLLECTION BOX - BLUE BOX", "address": {"city": "BRONTE", "state": "TX", "street": "124 S WASHINGTON", "postcode": "76933"}}},
{"geometry": {"type": "Point", "coordinates": [-100.293403894, 31.8872244139]}, "type": "Feature", "properties": {"collection_times": [{"days": "Mon-Fri", "time": "4:15pm"}, {"days": "Sat", "time": "10:00am"}, {"days": "Sun", "time": "Closed"}], "id": "7693300001", "name": "USPS COLLECTION BOX - PO LOBBY", "address": {"city": "BRONTE", "state": "TX", "street": "124 S WASHINGTON", "postcode": "76933"}}},
{"geometry": {"type": "Point", "coordinates": [-100.2933600634, 31.8871820125]}, "type": "Feature", "properties": {"collection_times": [{"days": "Mon-Fri", "time": "4:00pm"}, {"days": "Sat", "time": "10:00am"}, {"days": "Sun", "time": "Closed"}], "id": "7693300003", "name": "USPS COLLECTION BOX - BLUE BOX", "address": {"city": "BRONTE", "state": "TX", "street": "124 S WASHINGTON", "postcode": "76933"}}},
{"geometry": {"type": "Point", "coordinates": [-100.6457658603, 31.615725607]}, "type": "Feature", "properties": {"collection_times": [{"days": "Mon-Fri", "time": "3:30pm"}, {"days": "Sat", "time": "9:00am"}, {"days": "Sun", "time": "Closed"}], "id": "7693400000", "name": "USPS COLLECTION BOX - BLUE BOX", "address": {"city": "CARLSBAD", "state": "TX", "street": "11794 FORT WORTH ST", "postcode": "76934"}}},
{"geometry": {"type": "Point", "coordinates": [-100.6457658603, 31.615725607]}, "type": "Feature", "properties": {"collection_times": [{"days": "Mon-Fri", "time": "3:30pm"}, {"days": "Sat", "time": "9:00am"}, {"days": "Sun", "time": "Closed"}], "id": "7693400002", "name": "USPS COLLECTION BOX - PO LOBBY", "address": {"city": "CARLSBAD", "state": "TX", "street": "11794 FORT WORTH ST", "postcode": "76934"}}},
{"geometry": {"type": "Point", "coordinates": [-100.4998946776, 31.195100167]}, "type": "Feature", "properties": {"collection_times": [{"days": "Mon-Fri", "time": "3:45pm"}, {"days": "Sat", "time": "10:00am"}, {"days": "Sun", "time": "Closed"}], "id": "7693500000", "name": "USPS COLLECTION BOX - PO LOBBY", "address": {"city": "CHRISTOVAL", "state": "TX", "street": "19919 MAIN ST", "postcode": "76935"}}},
{"geometry": {"type": "Point", "coordinates": [-100.4998946776, 31.195100167]}, "type": "Feature", "properties": {"collection_times": [{"days": "Mon-Fri", "time": "3:45pm"}, {"days": "Sat", "time": "10:00am"}, {"days": "Sun", "time": "Closed"}], "id": "7693500001", "name": "USPS COLLECTION BOX - BLUE BOX", "address": {"city": "CHRISTOVAL", "state": "TX", "street": "19919 MAIN ST", "postcode": "76935"}}},
{"geometry": {"type": "Point", "coordinates": [-100.4998946776, 31.195100167]}, "type": "Feature", "properties": {"collection_times": [{"days": "Mon-Fri", "time": "3:45pm"}, {"days": "Sat", "time": "10:00am"}, {"days": "Sun", "time": "Closed"}], "id": "7693500002", "name": "USPS COLLECTION BOX - PO LOBBY", "address": {"city": "CHRISTOVAL", "state": "TX", "street": "19919 MAIN ST", "postcode": "76935"}}},
{"geometry": {"type": "Point", "coordinates": [-100.5385572878, 30.8974471934]}, "type": "Feature", "properties": {"collection_times": [{"days": "Mon-Fri", "time": "4:00pm"}, {"days": "Sat", "time": "12:00pm"}, {"days": "Sun", "time": "Closed"}], "id": "7693600000", "name": "USPS COLLECTION BOX - BLUE BOX", "address": {"city": "ELDORADO", "state": "TX", "street": "100 COTTONWOOD", "postcode": "76936"}}},
{"geometry": {"type": "Point", "coordinates": [-100.5385572878, 30.8974471934]}, "type": "Feature", "properties": {"collection_times": [{"days": "Mon-Fri", "time": "4:00pm"}, {"days": "Sat", "time": "12:00pm"}, {"days": "Sun", "time": "Closed"}], "id": "7693600001", "name": "USPS COLLECTION BOX - PO LOBBY", "address": {"city": "ELDORADO", "state": "TX", "street": "100 COTTONWOOD", "postcode": "76936"}}},
{"geometry": {"type": "Point", "coordinates": [-100.0840637909, 31.3650445904]}, "type": "Feature", "properties": {"collection_times": [{"days": "Mon-Sat", "time": "11:00am"}, {"days": "Sun", "time": "Closed"}], "id": "7693700001", "name": "USPS COLLECTION BOX - PO LOBBY", "address": {"city": "EOLA", "state": "TX", "street": "12436 COUNTY ROAD 5502", "postcode": "76937"}}},
{"geometry": {"type": "Point", "coordinates": [-100.6235003405, 31.2662190473]}, "type": "Feature", "properties": {"collection_times": [{"days": "Mon-Fri", "time": "11:30am"}, {"days": "Sat", "time": "10:30am"}, {"days": "Sun", "time": "Closed"}], "id": "7693900000", "name": "USPS COLLECTION BOX - BLUE BOX", "address": {"city": "KNICKERBOCKER", "state": "TX", "street": "14553 FM 2335", "postcode": "76939"}}},
{"geometry": {"type": "Point", "coordinates": [-100.6235003405, 31.2662190473]}, "type": "Feature", "properties": {"collection_times": [{"days": "Mon-Fri", "time": "11:30am"}, {"days": "Sat", "time": "10:30am"}, {"days": "Sun", "time": "Closed"}], "id": "7693900001", "name": "USPS COLLECTION BOX - PO LOBBY", "address": {"city": "KNICKERBOCKER", "state": "TX", "street": "14553 FM 2335", "postcode": "76939"}}},
{"geometry": {"type": "Point", "coordinates": [-100.1789779129, 31.4891799977]}, "type": "Feature", "properties": {"collection_times": [{"days": "Mon-Sat", "time": "9:45am"}, {"days": "Sun", "time": "Closed"}], "id": "7694000000", "name": "USPS COLLECTION BOX - PO LOBBY", "address": {"city": "MERETA", "state": "TX", "street": "997 BROADWAY ST", "postcode": "76940"}}},
{"geometry": {"type": "Point", "coordinates": [-100.8214439428, 31.2654933905]}, "type": "Feature", "properties": {"collection_times": [{"days": "Mon-Fri", "time": "3:30pm"}, {"days": "Sat", "time": "9:30am"}, {"days": "Sun", "time": "Closed"}], "id": "7694100001", "name": "USPS COLLECTION BOX - BLUE BOX", "address": {"city": "MERTZON", "state": "TX", "street": "303 W OAK AVE", "postcode": "76941"}}},
{"geometry": {"type": "Point", "coordinates": [-100.8214439428, 31.2654933905]}, "type": "Feature", "properties": {"collection_times": [{"days": "Mon-Fri", "time": "3:30pm"}, {"days": "Sat", "time": "9:30am"}, {"days": "Sun", "time": "Closed"}], "id": "7694100003", "name": "USPS COLLECTION BOX - PO LOBBY", "address": {"city": "MERTZON", "state": "TX", "street": "303 W OAK AVE", "postcode": "76941"}}},
{"geometry": {"type": "Point", "coordinates": [-100.4837128631, 31.8922487337]}, "type": "Feature", "properties": {"collection_times": [{"days": "Mon-Fri", "time": "4:00pm"}, {"days": "Sat", "time": "12:00pm"}, {"days": "Sun", "time": "Closed"}], "id": "7694500000", "name": "USPS COLLECTION BOX - BLUE BOX", "address": {"city": "ROBERT LEE", "state": "TX", "street": "722 HOUSTON ST", "postcode": "76945"}}},
{"geometry": {"type": "Point", "coordinates": [-100.4837128631, 31.8922487337]}, "type": "Feature", "properties": {"collection_times": [{"days": "Mon-Fri", "time": "4:00pm"}, {"days": "Sat", "time": "12:00pm"}, {"days": "Sun", "time": "Closed"}], "id": "7694500003", "name": "USPS COLLECTION BOX - PO LOBBY", "address": {"city": "ROBERT LEE", "state": "TX", "street": "722 HOUSTON ST", "postcode": "76945"}}},
{"geometry": {"type": "Point", "coordinates": [-100.4837128631, 31.8922487337]}, "type": "Feature", "properties": {"collection_times": [{"days": "Mon-Fri", "time": "4:00pm"}, {"days": "Sat", "time": "12:00pm"}, {"days": "Sun", "time": "Closed"}], "id": "7694500004", "name": "USPS COLLECTION BOX - PO LOBBY", "address": {"city": "ROBERT LEE", "state": "TX", "street": "722 HOUSTON ST", "postcode": "76945"}}},
{"geometry": {"type": "Point", "coordinates": [-100.6456501121, 30.5713326844]}, "type": "Feature", "properties": {"collection_times": [{"days": "Mon-Fri", "time": "3:00pm"}, {"days": "Sat", "time": "12:15pm"}, {"days": "Sun", "time": "Closed"}], "id": "7695000002", "name": "USPS COLLECTION BOX - BLUE BOX", "address": {"city": "SONORA", "state": "TX", "street": "102 W MAIN ST", "postcode": "76950"}}},
{"geometry": {"type": "Point", "coordinates": [-100.6469137805, 30.5706651789]}, "type": "Feature", "properties": {"collection_times": [{"days": "Mon-Fri", "time": "3:00pm"}, {"days": "Sat", "time": "12:15pm"}, {"days": "Sun", "time": "Closed"}], "id": "7695000003", "name": "USPS COLLECTION BOX - BLUE BOX", "address": {"city": "SONORA", "state": "TX", "street": "102 W MAIN ST", "postcode": "76950"}}},
{"geometry": {"type": "Point", "coordinates": [-100.6456501121, 30.5713326844]}, "type": "Feature", "properties": {"collection_times": [{"days": "Mon-Fri", "time": "3:15pm"}, {"days": "Sat", "time": "12:15pm"}, {"days": "Sun", "time": "Closed"}], "id": "7695000004", "name": "USPS COLLECTION BOX - PO LOBBY", "address": {"city": "SONORA", "state": "TX", "street": "102 W MAIN ST", "postcode": "76950"}}},
{"geometry": {"type": "Point", "coordinates": [-100.6456501121, 30.5713326844]}, "type": "Feature", "properties": {"collection_times": [{"days": "Mon-Fri", "time": "3:15pm"}, {"days": "Sat", "time": "12:15pm"}, {"days": "Sun", "time": "Closed"}], "id": "7695000005", "name": "USPS COLLECTION BOX - PO LOBBY", "address": {"city": "SONORA", "state": "TX", "street": "102 W MAIN ST", "postcode": "76950"}}},
{"geometry": {"type": "Point", "coordinates": [-101.0499120216, 31.8120732828]}, "type": "Feature", "properties": {"collection_times": [{"days": "Mon-Fri", "time": "3:30pm"}, {"days": "Sat", "time": "10:30am"}, {"days": "Sun", "time": "Closed"}], "id": "7695100000", "name": "USPS COLLECTION BOX - BLUE BOX", "address": {"city": "STERLING CITY", "state": "TX", "street": "410 ELM ST", "postcode": "76951"}}},
{"geometry": {"type": "Point", "coordinates": [-101.0499120216, 31.8120732828]}, "type": "Feature", "properties": {"collection_times": [{"days": "Mon-Fri", "time": "3:30pm"}, {"days": "Sat", "time": "10:30am"}, {"days": "Sun", "time": "Closed"}], "id": "7695100001", "name": "USPS COLLECTION BOX - PO LOBBY", "address": {"city": "STERLING CITY", "state": "TX", "street": "410 ELM ST", "postcode": "76951"}}},
{"geometry": {"type": "Point", "coordinates": [-101.0499120216, 31.8120732828]}, "type": "Feature", "properties": {"collection_times": [{"days": "Mon-Fri", "time": "3:30pm"}, {"days": "Sat", "time": "10:30am"}, {"days": "Sun", "time": "Closed"}], "id": "7695100002", "name": "USPS COLLECTION BOX - PO LOBBY", "address": {"city": "STERLING CITY", "state": "TX", "street": "410 ELM ST", "postcode": "76951"}}},
{"geometry": {"type": "Point", "coordinates": [-100.2853890272, 31.7438358202]}, "type": "Feature", "properties": {"collection_times": [{"days": "Mon-Fri", "time": "12:00pm"}, {"days": "Sat", "time": "8:00am"}, {"days": "Sun", "time": "Closed"}], "id": "7695300001", "name": "USPS COLLECTION BOX - PO LOBBY", "address": {"city": "TENNYSON", "state": "TX", "street": "11301 HIGHWAY 277", "postcode": "76953"}}},
{"geometry": {"type": "Point", "coordinates": [-100.2117071164, 31.1980369953]}, "type": "Feature", "properties": {"collection_times": [{"days": "Mon-Sat", "time": "10:15am"}, {"days": "Sun", "time": "Closed"}], "id": "7695500001", "name": "USPS COLLECTION BOX - PO LOBBY", "address": {"city": "VANCOURT", "state": "TX", "street": "9538 YORK RD", "postcode": "76955"}}},
{"geometry": {"type": "Point", "coordinates": [-100.2007315522, 31.3466368998]}, "type": "Feature", "properties": {"collection_times": [{"days": "Mon-Fri", "time": "3:00pm"}, {"days": "Sat", "time": "10:30am"}, {"days": "Sun", "time": "Closed"}], "id": "7695700000", "name": "USPS COLLECTION BOX - PO LOBBY", "address": {"city": "WALL", "state": "TX", "street": "7901 LOOP 570 S", "postcode": "76957"}}},
{"geometry": {"type": "Point", "coordinates": [-100.2007315522, 31.3466368998]}, "type": "Feature", "properties": {"collection_times": [{"days": "Mon-Fri", "time": "3:00pm"}, {"days": "Sat", "time": "10:30am"}, {"days": "Sun", "time": "Closed"}], "id": "7695700001", "name": "USPS COLLECTION BOX - BLUE BOX", "address": {"city": "WALL", "state": "TX", "street": "7901 LOOP 570 S", "postcode": "76957"}}},
{"geometry": {"type": "Point", "coordinates": [-100.7172067953, 31.6698768564]}, "type": "Feature", "properties": {"collection_times": [{"days": "Mon-Fri", "time": "1:00pm"}, {"days": "Sat", "time": "8:45am"}, {"days": "Sun", "time": "Closed"}], "id": "7695800002", "name": "USPS COLLECTION BOX - PO LOBBY", "address": {"city": "WATER VALLEY", "state": "TX", "street": "15949 SPRING AVE", "postcode": "76958"}}}
]}
