{"type": "FeatureCollection", "features": [
{"geometry": {"type": "Point", "coordinates": [-95.3623592496, 29.7610262291]}, "type": "Feature", "properties": {"collection_times": [{"days": "Mon-Fri", "time": "3:00pm"}, {"days": "Sat-Sun", "time": "Closed"}], "id": "7700200175", "name": "USPS COLLECTION BOX - BLUE BOX", "address": {"city": "HOUSTON", "state": "TX", "street": "913 PRAIRIE ST", "postcode": "77002"}}},
{"geometry": {"type": "Point", "coordinates": [-95.3678730213, 29.744393826]}, "type": "Feature", "properties": {"collection_times": [{"days": "Mon-Fri", "time": "6:45pm"}, {"days": "Sat", "time": "11:30am"}, {"days": "Sun", "time": "Closed"}], "id": "7700200237", "name": "USPS COLLECTION BOX - BLUE BOX", "address": {"city": "HOUSTON", "state": "TX", "street": "1500 HADLEY ST", "postcode": "77002"}}},
{"geometry": {"type": "Point", "coordinates": [-95.3675973951, 29.7551516854]}, "type": "Feature", "properties": {"collection_times": [{"days": "Mon-Fri", "time": "4:00pm"}, {"days": "Sat-Sun", "time": "Closed"}], "id": "7700200245", "name": "USPS COLLECTION BOX - BLUE BOX", "address": {"city": "HOUSTON", "state": "TX", "street": "1301 TRAVIS ST", "postcode": "77002"}}},
{"geometry": {"type": "Point", "coordinates": [-95.365012402, 29.753589674]}, "type": "Feature", "properties": {"collection_times": [{"days": "Mon-Fri", "time": "3:45pm"}, {"days": "Sat-Sun", "time": "Closed"}], "id": "7700200289", "name": "USPS COLLECTION BOX - BLUE BOX", "address": {"city": "HOUSTON", "state": "TX", "street": "1303 SAN JACINTO ST", "postcode": "77002"}}},
{"geometry": {"type": "Point", "coordinates": [-95.3755471101, 29.7323466617]}, "type": "Feature", "properties": {"collection_times": [{"days": "Mon-Fri", "time": "5:00pm"}, {"days": "Sat", "time": "4:30pm"}, {"days": "Sun", "time": "Closed"}], "id": "7700400064", "name": "USPS COLLECTION BOX - PO LOBBY", "address": {"city": "HOUSTON", "state": "TX", "street": "4110 ALMEDA RD", "postcode": "77004"}}},
{"geometry": {"type": "Point", "coordinates": [-95.3697767501, 29.7604515224]}, "type": "Feature", "properties": {"collection_times": [{"days": "Mon-Fri", "time": "5:00pm"}, {"days": "Sat", "time": "4:30pm"}, {"days": "Sun", "time": "Closed"}], "id": "7700400073", "name": "USPS COLLECTION BOX - BLUE BOX", "address": {"city": "HOUSTON", "state": "TX", "street": "4110 ALMEDA RD", "postcode": "77004"}}},
{"geometry": {"type": "Point", "coordinates": [-95.4220652899, 29.7257425442]}, "type": "Feature", "properties": {"collection_times": [{"days": "Mon-Fri", "time": "4:30pm"}, {"days": "Sat", "time": "3:00pm"}, {"days": "Sun", "time": "Closed"}], "id": "7700500025", "name": "USPS COLLECTION BOX - BLUE BOX", "address": {"city": "HOUSTON", "state": "TX", "street": "5201 WAKEFOREST ST", "postcode": "77005"}}},
{"geometry": {"type": "Point", "coordinates": [-95.396019164, 29.7343883591]}, "type": "Feature", "properties": {"collection_times": [{"days": "Mon-Fri", "time": "5:00pm"}, {"days": "Sat", "time": "4:30pm"}, {"days": "Sun", "time": "Closed"}], "id": "7700600012", "name": "USPS COLLECTION BOX - BLUE BOX", "address": {"city": "HOUSTON", "state": "TX", "street": "1319 RICHMOND AVE", "postcode": "77006"}}},
{"geometry": {"type": "Point", "coordinates": [-95.396019164, 29.7343883591]}, "type": "Feature", "properties": {"collection_times": [{"days": "Mon-Fri", "time": "5:00pm"}, {"days": "Sat", "time": "4:30pm"}, {"days": "Sun", "time": "Closed"}], "id": "7700600043", "name": "USPS COLLECTION BOX - PO LOBBY", "address": {"city": "HOUSTON", "state": "TX", "street": "1319 RICHMOND AVE", "postcode": "77006"}}},
{"geometry": {"type": "Point", "coordinates": [-95.396019164, 29.7343883591]}, "type": "Feature", "properties": {"collection_times": [{"days": "Mon-Fri", "time": "5:00pm"}, {"days": "Sat", "time": "4:30pm"}, {"days": "Sun", "time": "Closed"}], "id": "7700600048", "name": "USPS COLLECTION BOX - APC", "address": {"city": "HOUSTON", "state": "TX", "street": "1319 RICHMOND AVE", "postcode": "77006"}}},
{"geometry": {"type": "Point", "coordinates": [-95.4223467641, 29.8026408999]}, "type": "Feature", "properties": {"collection_times": [{"days": "Mon-Fri", "time": "5:00pm"}, {"days": "Sat", "time": "4:00pm"}, {"days": "Sun", "time": "Closed"}], "id": "7700800040", "name": "USPS COLLECTION BOX - BLUE BOX", "address": {"city": "HOUSTON", "state": "TX", "street": "1300 W 19TH ST", "postcode": "77008"}}},
{"geometry": {"type": "Point", "coordinates": [-95.3794553725, 29.8040019453]}, "type": "Feature", "properties": {"collection_times": [{"days": "Mon-Fri", "time": "5:00pm"}, {"days": "Sat", "time": "4:00pm"}, {"days": "Sun", "time": "Closed"}], "id": "7700900006", "name": "USPS COLLECTION BOX - BLUE BOX", "address": {"city": "HOUSTON", "state": "TX", "street": "634 W CAVALCADE ST", "postcode": "77009"}}},
{"geometry": {"type": "Point", "coordinates": [-95.3624787284, 29.7779058705]}, "type": "Feature", "properties": {"collection_times": [{"days": "Mon-Fri", "time": "3:45pm"}, {"days": "Sat-Sun", "time": "Closed"}], "id": "7700900028", "name": "USPS COLLECTION BOX - BLUE BOX", "address": {"city": "HOUSTON", "state": "TX", "street": "1900 N MAIN ST", "postcode": "77009"}}},
{"geometry": {"type": "Point", "coordinates": [-95.3699977962, 29.7980973786]}, "type": "Feature", "properties": {"collection_times": [{"days": "Mon-Fri", "time": "3:15pm"}, {"days": "Sat-Sun", "time": "Closed"}], "id": "7700900037", "name": "USPS COLLECTION BOX - BLUE BOX", "address": {"city": "HOUSTON", "state": "TX", "street": "210 PATTON ST", "postcode": "77009"}}},
{"geometry": {"type": "Point", "coordinates": [-95.3794553725, 29.8040019453]}, "type": "Feature", "properties": {"collection_times": [{"days": "Mon-Fri", "time": "5:00pm"}, {"days": "Sat", "time": "4:00pm"}, {"days": "Sun", "time": "Closed"}], "id": "7700900038", "name": "USPS COLLECTION BOX - PO LOBBY", "address": {"city": "HOUSTON", "state": "TX", "street": "634 W CAVALCADE ST", "postcode": "77009"}}},
{"geometry": {"type": "Point", "coordinates": [-95.2186746878, 29.7851148225]}, "type": "Feature", "properties": {"collection_times": [{"days": "Mon-Fri", "time": "5:00pm"}, {"days": "Sat", "time": "4:45pm"}, {"days": "Sun", "time": "Closed"}], "id": "7701300011", "name": "USPS COLLECTION BOX - PO LOBBY", "address": {"city": "HOUSTON", "state": "TX", "street": "550 MAXEY RD", "postcode": "77013"}}},
{"geometry": {"type": "Point", "coordinates": [-95.2186746878, 29.7851148225]}, "type": "Feature", "properties": {"collection_times": [{"days": "Mon-Fri", "time": "5:00pm"}, {"days": "Sat", "time": "4:45pm"}, {"days": "Sun", "time": "Closed"}], "id": "7701300013", "name": "USPS COLLECTION BOX - BLUE BOX", "address": {"city": "HOUSTON", "state": "TX", "street": "550 MAXEY RD", "postcode": "77013"}}},
{"geometry": {"type": "Point", "coordinates": [-95.2659812168, 29.7919759845]}, "type": "Feature", "properties": {"collection_times": [{"days": "Mon-Fri", "time": "1:00pm"}, {"days": "Sat-Sun", "time": "Closed"}], "id": "7701300014", "name": "USPS COLLECTION BOX - BLUE BOX", "address": {"city": "HOUSTON", "state": "TX", "street": "9221 WALLISVILLE RD", "postcode": "77013"}}},
{"geometry": {"type": "Point", "coordinates": [-95.2186746878, 29.7851148225]}, "type": "Feature", "properties": {"collection_times": [{"days": "Mon-Fri", "time": "5:00pm"}, {"days": "Sat", "time": "4:30pm"}, {"days": "Sun", "time": "Closed"}], "id": "7701300021", "name": "USPS COLLECTION BOX - APC", "address": {"city": "HOUSTON", "state": "TX", "street": "550 MAXEY RD", "postcode": "77013"}}},
{"geometry": {"type": "Point", "coordinates": [-95.3697767501, 29.7604515224]}, "type": "Feature", "properties": {"collection_times": [{"days": "Mon-Fri", "time": "5:15pm"}, {"days": "Sat", "time": "4:00pm"}, {"days": "Sun", "time": "Closed"}], "id": "7701400005", "name": "USPS COLLECTION BOX - BLUE BOX", "address": {"city": "HOUSTON", "state": "TX", "street": "14403 WALTERS RD", "postcode": "77014"}}},
{"geometry": {"type": "Point", "coordinates": [-95.4827880211, 29.992256852]}, "type": "Feature", "properties": {"collection_times": [{"days": "Mon-Fri", "time": "5:15pm"}, {"days": "Sat", "time": "4:00pm"}, {"days": "Sun", "time": "Closed"}], "id": "7701400021", "name": "USPS COLLECTION BOX - PO LOBBY", "address": {"city": "HOUSTON", "state": "TX", "street": "14403 WALTERS RD", "postcode": "77014"}}},
{"geometry": {"type": "Point", "coordinates": [-95.4827880211, 29.992256852]}, "type": "Feature", "properties": {"collection_times": [{"days": "Mon-Fri", "time": "5:15pm"}, {"days": "Sat", "time": "4:00pm"}, {"days": "Sun", "time": "Closed"}], "id": "7701400022", "name": "USPS COLLECTION BOX - APC", "address": {"city": "HOUSTON", "state": "TX", "street": "14403 WALTERS RD", "postcode": "77014"}}},
{"geometry": {"type": "Point", "coordinates": [-95.2132058685, 29.7631460915]}, "type": "Feature", "properties": {"collection_times": [{"days": "Mon-Fri", "time": "1:45pm"}, {"days": "Sat-Sun", "time": "Closed"}], "id": "7701500006", "name": "USPS COLLECTION BOX - BLUE BOX", "address": {"city": "HOUSTON", "state": "TX", "street": "1420 FEDERAL RD", "postcode": "77015"}}},
{"geometry": {"type": "Point", "coordinates": [-95.2007883478, 29.7914779585]}, "type": "Feature", "properties": {"collection_times": [{"days": "Mon-Fri", "time": "2:15pm"}, {"days": "Sat-Sun", "time": "Closed"}], "id": "7701500016", "name": "USPS COLLECTION BOX - BLUE BOX", "address": {"city": "HOUSTON", "state": "TX", "street": "12655 WOODFOREST BLVD", "postcode": "77015"}}},
{"geometry": {"type": "Point", "coordinates": [-95.2219372886, 29.7710293301]}, "type": "Feature", "properties": {"collection_times": [{"days": "Mon-Fri", "time": "3:00pm"}, {"days": "Sat-Sun", "time": "Closed"}], "id": "7701500031", "name": "USPS COLLECTION BOX - BLUE BOX", "address": {"city": "HOUSTON", "state": "TX", "street": "12201 EAST FWY", "postcode": "77015"}}},
{"geometry": {"type": "Point", "coordinates": [-95.3254422453, 29.8697185645]}, "type": "Feature", "properties": {"collection_times": [{"days": "Mon-Fri", "time": "5:15pm"}, {"days": "Sat", "time": "4:45pm"}, {"days": "Sun", "time": "Closed"}], "id": "7701600011", "name": "USPS COLLECTION BOX - BLUE BOX", "address": {"city": "HOUSTON", "state": "TX", "street": "4206 LITTLE YORK RD", "postcode": "77016"}}},
{"geometry": {"type": "Point", "coordinates": [-95.3254422453, 29.8697185645]}, "type": "Feature", "properties": {"collection_times": [{"days": "Mon-Fri", "time": "5:15pm"}, {"days": "Sat", "time": "4:45pm"}, {"days": "Sun", "time": "Closed"}], "id": "7701600017", "name": "USPS COLLECTION BOX - PO LOBBY", "address": {"city": "HOUSTON", "state": "TX", "street": "4206 LITTLE YORK RD", "postcode": "77016"}}},
{"geometry": {"type": "Point", "coordinates": [-95.2454023973, 29.673617475]}, "type": "Feature", "properties": {"collection_times": [{"days": "Mon-Sat", "time": "5:00pm"}, {"days": "Sun", "time": "Closed"}], "id": "7701700026", "name": "USPS COLLECTION BOX - PO LOBBY", "address": {"city": "HOUSTON", "state": "TX", "street": "5302 GALVESTON RD", "postcode": "77017"}}},
{"geometry": {"type": "Point", "coordinates": [-95.2454023973, 29.673617475]}, "type": "Feature", "properties": {"collection_times": [{"days": "Mon-Sat", "time": "5:00pm"}, {"days": "Sun", "time": "Closed"}], "id": "7701700028", "name": "USPS COLLECTION BOX - BLUE BOX", "address": {"city": "HOUSTON", "state": "TX", "street": "5302 GALVESTON RD", "postcode": "77017"}}},
{"geometry": {"type": "Point", "coordinates": [-95.4443613187, 29.8204870127]}, "type": "Feature", "properties": {"collection_times": [{"days": "Mon-Fri", "time": "5:00pm"}, {"days": "Sat", "time": "4:45pm"}, {"days": "Sun", "time": "Closed"}], "id": "7701800037", "name": "USPS COLLECTION BOX - BLUE BOX", "address": {"city": "HOUSTON", "state": "TX", "street": "2499 JUDIWAY ST", "postcode": "77018"}}},
{"geometry": {"type": "Point", "coordinates": [-95.4443613187, 29.8204870127]}, "type": "Feature", "properties": {"collection_times": [{"days": "Mon-Fri", "time": "5:00pm"}, {"days": "Sat", "time": "4:45pm"}, {"days": "Sun", "time": "Closed"}], "id": "7701800039", "name": "USPS COLLECTION BOX - PO LOBBY", "address": {"city": "HOUSTON", "state": "TX", "street": "2499 JUDIWAY ST", "postcode": "77018"}}},
{"geometry": {"type": "Point", "coordinates": [-95.4443613187, 29.8204870127]}, "type": "Feature", "properties": {"collection_times": [{"days": "Mon-Fri", "time": "5:00pm"}, {"days": "Sat", "time": "4:45pm"}, {"days": "Sun", "time": "Closed"}], "id": "7701800041", "name": "USPS COLLECTION BOX - APC", "address": {"city": "HOUSTON", "state": "TX", "street": "2499 JUDIWAY ST", "postcode": "77018"}}},
{"geometry": {"type": "Point", "coordinates": [-95.4176511352, 29.7485314981]}, "type": "Feature", "properties": {"collection_times": [{"days": "Mon-Fri", "time": "1:00pm"}, {"days": "Sat-Sun", "time": "Closed"}], "id": "7701900043", "name": "USPS COLLECTION BOX - BLUE BOX", "address": {"city": "HOUSTON", "state": "TX", "street": "2501 SAN FELIPE", "postcode": "77019"}}},
{"geometry": {"type": "Point", "coordinates": [-95.4026046965, 29.7531441735]}, "type": "Feature", "properties": {"collection_times": [{"days": "Mon-Fri", "time": "5:15pm"}, {"days": "Sat", "time": "5:00pm"}, {"days": "Sun", "time": "Closed"}], "id": "7701900046", "name": "USPS COLLECTION BOX - BLUE BOX", "address": {"city": "HOUSTON", "state": "TX", "street": "1900 W GRAY ST", "postcode": "77019"}}},
{"geometry": {"type": "Point", "coordinates": [-95.4026046965, 29.7531441735]}, "type": "Feature", "properties": {"collection_times": [{"days": "Mon-Fri", "time": "5:15pm"}, {"days": "Sat", "time": "5:00pm"}, {"days": "Sun", "time": "Closed"}], "id": "7701900055", "name": "USPS COLLECTION BOX - APC", "address": {"city": "HOUSTON", "state": "TX", "street": "1900 W GRAY ST", "postcode": "77019"}}},
{"geometry": {"type": "Point", "coordinates": [-95.3123364619, 29.772940235]}, "type": "Feature", "properties": {"collection_times": [{"days": "Mon-Fri", "time": "5:00pm"}, {"days": "Sat", "time": "4:45pm"}, {"days": "Sun", "time": "Closed"}], "id": "7702000019", "name": "USPS COLLECTION BOX - BLUE BOX", "address": {"city": "HOUSTON", "state": "TX", "street": "5901 MARKET ST", "postcode": "77020"}}},
{"geometry": {"type": "Point", "coordinates": [-95.3123364619, 29.772940235]}, "type": "Feature", "properties": {"collection_times": [{"days": "Mon-Fri", "time": "5:00pm"}, {"days": "Sat", "time": "4:45pm"}, {"days": "Sun", "time": "Closed"}], "id": "7702000029", "name": "USPS COLLECTION BOX - PO LOBBY", "address": {"city": "HOUSTON", "state": "TX", "street": "5901 MARKET ST", "postcode": "77020"}}},
{"geometry": {"type": "Point", "coordinates": [-95.3094868986, 29.7669398409]}, "type": "Feature", "properties": {"collection_times": [{"days": "Mon-Fri", "time": "2:30pm"}, {"days": "Sat-Sun", "time": "Closed"}], "id": "7702000039", "name": "USPS COLLECTION BOX - BLUE BOX", "address": {"city": "HOUSTON", "state": "TX", "street": "1202 HAHLO ST", "postcode": "77020"}}},
{"geometry": {"type": "Point", "coordinates": [-95.3577991082, 29.696712834]}, "type": "Feature", "properties": {"collection_times": [{"days": "Mon-Fri", "time": "5:00pm"}, {"days": "Sat-Sun", "time": "Closed"}], "id": "7702100003", "name": "USPS COLLECTION BOX - BLUE BOX", "address": {"city": "HOUSTON", "state": "TX", "street": "5210 GRIGGS RD", "postcode": "77021"}}},
{"geometry": {"type": "Point", "coordinates": [-95.3362769169, 29.6975974402]}, "type": "Feature", "properties": {"collection_times": [{"days": "Mon-Fri", "time": "5:00pm"}, {"days": "Sat", "time": "4:45pm"}, {"days": "Sun", "time": "Closed"}], "id": "7702100012", "name": "USPS COLLECTION BOX - BLUE BOX", "address": {"city": "HOUSTON", "state": "TX", "street": "5210 GRIGGS RD", "postcode": "77021"}}},
{"geometry": {"type": "Point", "coordinates": [-95.3362769169, 29.6975974402]}, "type": "Feature", "properties": {"collection_times": [{"days": "Mon-Fri", "time": "5:00pm"}, {"days": "Sat", "time": "4:45pm"}, {"days": "Sun", "time": "Closed"}], "id": "7702100016", "name": "USPS COLLECTION BOX - PO LOBBY", "address": {"city": "HOUSTON", "state": "TX", "street": "5210 GRIGGS RD", "postcode": "77021"}}},
{"geometry": {"type": "Point", "coordinates": [-95.3854027485, 29.8338996432]}, "type": "Feature", "properties": {"collection_times": [{"days": "Mon-Fri", "time": "2:45pm"}, {"days": "Sat-Sun", "time": "Closed"}], "id": "7702200008", "name": "USPS COLLECTION BOX - BLUE BOX", "address": {"city": "HOUSTON", "state": "TX", "street": "4701 NORTH FWY", "postcode": "77022"}}},
{"geometry": {"type": "Point", "coordinates": [-95.3207604976, 29.7275756984]}, "type": "Feature", "properties": {"collection_times": [{"days": "Mon-Fri", "time": "5:00pm"}, {"days": "Sat", "time": "4:45pm"}, {"days": "Sun", "time": "Closed"}], "id": "7702300012", "name": "USPS COLLECTION BOX - BLUE BOX", "address": {"city": "HOUSTON", "state": "TX", "street": "5415 LAWNDALE ST", "postcode": "77023"}}},
{"geometry": {"type": "Point", "coordinates": [-95.3207604976, 29.7275756984]}, "type": "Feature", "properties": {"collection_times": [{"days": "Mon-Fri", "time": "5:00pm"}, {"days": "Sat", "time": "4:45pm"}, {"days": "Sun", "time": "Closed"}], "id": "7702300032", "name": "USPS COLLECTION BOX - PO LOBBY", "address": {"city": "HOUSTON", "state": "TX", "street": "5415 LAWNDALE ST", "postcode": "77023"}}},
{"geometry": {"type": "Point", "coordinates": [-95.5558285426, 29.7815147624]}, "type": "Feature", "properties": {"collection_times": [{"days": "Mon-Fri", "time": "5:30pm"}, {"days": "Sat", "time": "4:45pm"}, {"days": "Sun", "time": "Closed"}], "id": "7702400045", "name": "USPS COLLECTION BOX - BLUE BOX", "address": {"city": "HOUSTON", "state": "TX", "street": "10505 TOWN AND COUNTRY WAY", "postcode": "77024"}}},
{"geometry": {"type": "Point", "coordinates": [-95.529058278, 29.7838265801]}, "type": "Feature", "properties": {"collection_times": [{"days": "Mon-Fri", "time": "5:30pm"}, {"days": "Sat", "time": "4:30pm"}, {"days": "Sun", "time": "Closed"}], "id": "7702400062", "name": "USPS COLLECTION BOX - BLUE BOX", "address": {"city": "HOUSTON", "state": "TX", "street": "10505 TOWN AND COUNTRY WAY", "postcode": "77024"}}},
{"geometry": {"type": "Point", "coordinates": [-95.5558285426, 29.7815147624]}, "type": "Feature", "properties": {"collection_times": [{"days": "Mon-Fri", "time": "5:30pm"}, {"days": "Sat", "time": "4:45pm"}, {"days": "Sun", "time": "Closed"}], "id": "7702400089", "name": "USPS COLLECTION BOX - PO LOBBY", "address": {"city": "HOUSTON", "state": "TX", "street": "10505 TOWN AND COUNTRY WAY", "postcode": "77024"}}},
{"geometry": {"type": "Point", "coordinates": [-95.4329199083, 29.6889613441]}, "type": "Feature", "properties": {"collection_times": [{"days": "Mon-Fri", "time": "5:30pm"}, {"days": "Sat", "time": "4:45pm"}, {"days": "Sun", "time": "Closed"}], "id": "7702500007", "name": "USPS COLLECTION BOX - BLUE BOX", "address": {"city": "HOUSTON", "state": "TX", "street": "8205 BRAESMAIN DR", "postcode": "77025"}}},
{"geometry": {"type": "Point", "coordinates": [-95.4329199083, 29.6889613441]}, "type": "Feature", "properties": {"collection_times": [{"days": "Mon-Fri", "time": "5:30pm"}, {"days": "Sat", "time": "4:45pm"}, {"days": "Sun", "time": "Closed"}], "id": "7702500021", "name": "USPS COLLECTION BOX - PO LOBBY", "address": {"city": "HOUSTON", "state": "TX", "street": "8205 BRAESMAIN DR", "postcode": "77025"}}},
{"geometry": {"type": "Point", "coordinates": [-95.3308557291, 29.7966305804]}, "type": "Feature", "properties": {"collection_times": [{"days": "Mon-Fri", "time": "5:00pm"}, {"days": "Sat", "time": "4:30pm"}, {"days": "Sun", "time": "Closed"}], "id": "7702600015", "name": "USPS COLLECTION BOX - BLUE BOX", "address": {"city": "HOUSTON", "state": "TX", "street": "3520 JENSEN DR", "postcode": "77026"}}},
{"geometry": {"type": "Point", "coordinates": [-95.3308557291, 29.7966305804]}, "type": "Feature", "properties": {"collection_times": [{"days": "Mon-Fri", "time": "5:00pm"}, {"days": "Sat", "time": "4:30pm"}, {"days": "Sun", "time": "Closed"}], "id": "7702600032", "name": "USPS COLLECTION BOX - PO LOBBY", "address": {"city": "HOUSTON", "state": "TX", "street": "3520 JENSEN DR", "postcode": "77026"}}},
{"geometry": {"type": "Point", "coordinates": [-95.4366041201, 29.7391686963]}, "type": "Feature", "properties": {"collection_times": [{"days": "Mon-Sat", "time": "5:00pm"}, {"days": "Sun", "time": "Closed"}], "id": "7702700116", "name": "USPS COLLECTION BOX - BLUE BOX", "address": {"city": "HOUSTON", "state": "TX", "street": "2802 TIMMONS LN", "postcode": "77027"}}},
{"geometry": {"type": "Point", "coordinates": [-95.4366041201, 29.7391686963]}, "type": "Feature", "properties": {"collection_times": [{"days": "Mon-Sat", "time": "5:00pm"}, {"days": "Sun", "time": "Closed"}], "id": "7702700141", "name": "USPS COLLECTION BOX - PO LOBBY", "address": {"city": "HOUSTON", "state": "TX", "street": "2802 TIMMONS LN", "postcode": "77027"}}},
{"geometry": {"type": "Point", "coordinates": [-95.4366041201, 29.7391686963]}, "type": "Feature", "properties": {"collection_times": [{"days": "Mon-Sat", "time": "5:00pm"}, {"days": "Sun", "time": "Closed"}], "id": "7702700151", "name": "USPS COLLECTION BOX - APC", "address": {"city": "HOUSTON", "state": "TX", "street": "2802 TIMMONS LN", "postcode": "77027"}}},
{"geometry": {"type": "Point", "coordinates": [-95.2582848858, 29.7338063433]}, "type": "Feature", "properties": {"collection_times": [{"days": "Mon-Fri", "time": "1:00pm"}, {"days": "Sat-Sun", "time": "Closed"}], "id": "7702900001", "name": "USPS COLLECTION BOX - BLUE BOX", "address": {"city": "HOUSTON", "state": "TX", "street": "9525 CLINTON DR", "postcode": "77029"}}},
{"geometry": {"type": "Point", "coordinates": [-95.2655723971, 29.7495925067]}, "type": "Feature", "properties": {"collection_times": [{"days": "Mon-Fri", "time": "1:00pm"}, {"days": "Sat-Sun", "time": "Closed"}], "id": "7702900010", "name": "USPS COLLECTION BOX - BLUE BOX", "address": {"city": "HOUSTON", "state": "TX", "street": "1717 EAST LOOP N", "postcode": "77029"}}},
{"geometry": {"type": "Point", "coordinates": [-95.2336923518, 29.7628692791]}, "type": "Feature", "properties": {"collection_times": [{"days": "Mon-Fri", "time": "1:45pm"}, {"days": "Sat-Sun", "time": "Closed"}], "id": "7702900013", "name": "USPS COLLECTION BOX - BLUE BOX", "address": {"city": "HOUSTON", "state": "TX", "street": "1601 HOLLAND ST", "postcode": "77029"}}},
{"geometry": {"type": "Point", "coordinates": [-95.2356290305, 29.7677248886]}, "type": "Feature", "properties": {"collection_times": [{"days": "Mon-Fri", "time": "1:30pm"}, {"days": "Sat-Sun", "time": "Closed"}], "id": "7702900019", "name": "USPS COLLECTION BOX - BLUE BOX", "address": {"city": "HOUSTON", "state": "TX", "street": "11001 MARKET STREET RD", "postcode": "77029"}}},
{"geometry": {"type": "Point", "coordinates": [-95.2472880992, 29.7639505036]}, "type": "Feature", "properties": {"collection_times": [{"days": "Mon-Fri", "time": "1:15pm"}, {"days": "Sat-Sun", "time": "Closed"}], "id": "7702900023", "name": "USPS COLLECTION BOX - BLUE BOX", "address": {"city": "HOUSTON", "state": "TX", "street": "1509 MERCURY DR", "postcode": "77029"}}},
{"geometry": {"type": "Point", "coordinates": [-95.2728731357, 29.7730805809]}, "type": "Feature", "properties": {"collection_times": [{"days": "Mon-Fri", "time": "12:45pm"}, {"days": "Sat-Sun", "time": "Closed"}], "id": "7702900028", "name": "USPS COLLECTION BOX - BLUE BOX", "address": {"city": "HOUSTON", "state": "TX", "street": "775 GELLHORN DR", "postcode": "77029"}}},
{"geometry": {"type": "Point", "coordinates": [-95.394952135, 29.7086826608]}, "type": "Feature", "properties": {"collection_times": [{"days": "Mon-Fri", "time": "9:30am"}, {"days": "Sat-Sun", "time": "Closed"}], "id": "7703000069", "name": "USPS COLLECTION BOX - BLUE BOX", "address": {"city": "HOUSTON", "state": "TX", "street": "1300 MOURSUND ST", "postcode": "77030"}}},
{"geometry": {"type": "Point", "coordinates": [-95.3924745878, 29.7106093132]}, "type": "Feature", "properties": {"collection_times": [{"days": "Mon-Fri", "time": "9:30am"}, {"days": "Sat-Sun", "time": "Closed"}], "id": "7703000070", "name": "USPS COLLECTION BOX - BLUE BOX", "address": {"city": "HOUSTON", "state": "TX", "street": "6420 LAMAR FLEMING ST", "postcode": "77030"}}},
{"geometry": {"type": "Point", "coordinates": [-95.2208761744, 29.6242927341]}, "type": "Feature", "properties": {"collection_times": [{"days": "Mon-Fri", "time": "5:00pm"}, {"days": "Sat", "time": "3:00pm"}, {"days": "Sun", "time": "Closed"}], "id": "7703400021", "name": "USPS COLLECTION BOX - BLUE BOX", "address": {"city": "HOUSTON", "state": "TX", "street": "10935 ALMEDA GENOA RD", "postcode": "77034"}}},
{"geometry": {"type": "Point", "coordinates": [-95.2208761744, 29.6242927341]}, "type": "Feature", "properties": {"collection_times": [{"days": "Mon-Fri", "time": "5:00pm"}, {"days": "Sat-Sun", "time": "Closed"}], "id": "7703400025", "name": "USPS COLLECTION BOX - PO LOBBY", "address": {"city": "HOUSTON", "state": "TX", "street": "10935 ALMEDA GENOA RD", "postcode": "77034"}}},
{"geometry": {"type": "Point", "coordinates": [-95.481092001, 29.652227221]}, "type": "Feature", "properties": {"collection_times": [{"days": "Mon-Fri", "time": "5:15pm"}, {"days": "Sat", "time": "4:15pm"}, {"days": "Sun", "time": "Closed"}], "id": "7703500017", "name": "USPS COLLECTION BOX - BLUE BOX", "address": {"city": "HOUSTON", "state": "TX", "street": "11805 CHIMNEY ROCK RD", "postcode": "77035"}}},
{"geometry": {"type": "Point", "coordinates": [-95.481092001, 29.652227221]}, "type": "Feature", "properties": {"collection_times": [{"days": "Mon-Fri", "time": "5:15pm"}, {"days": "Sat", "time": "4:15pm"}, {"days": "Sun", "time": "Closed"}], "id": "7703500027", "name": "USPS COLLECTION BOX - PO LOBBY", "address": {"city": "HOUSTON", "state": "TX", "street": "11805 CHIMNEY ROCK RD", "postcode": "77035"}}},
{"geometry": {"type": "Point", "coordinates": [-95.4993340681, 29.7197267657]}, "type": "Feature", "properties": {"collection_times": [{"days": "Mon-Fri", "time": "9:30am"}, {"days": "Sat-Sun", "time": "Closed"}], "id": "7703600084", "name": "USPS COLLECTION BOX - BLUE BOX", "address": {"city": "HOUSTON", "state": "TX", "street": "6666 HARWIN DR", "postcode": "77036"}}},
{"geometry": {"type": "Point", "coordinates": [-95.5247689795, 29.872090291]}, "type": "Feature", "properties": {"collection_times": [{"days": "Mon-Fri", "time": "5:30pm"}, {"days": "Sat", "time": "5:00pm"}, {"days": "Sun", "time": "Closed"}], "id": "7704000050", "name": "USPS COLLECTION BOX - BLUE BOX", "address": {"city": "JERSEY VILLAGE", "state": "TX", "street": "7050 BROOKHOLLOW WEST DR", "postcode": "77040"}}},
{"geometry": {"type": "Point", "coordinates": [-95.5484608394, 29.8742457456]}, "type": "Feature", "properties": {"collection_times": [{"days": "Mon-Fri", "time": "5:30pm"}, {"days": "Sat", "time": "5:00pm"}, {"days": "Sun", "time": "Closed"}], "id": "7704000068", "name": "USPS COLLECTION BOX - PO LOBBY", "address": {"city": "JERSEY VILLAGE", "state": "TX", "street": "7050 BROOKHOLLOW WEST DR", "postcode": "77040"}}},
{"geometry": {"type": "Point", "coordinates": [-95.5484608394, 29.8742457456]}, "type": "Feature", "properties": {"collection_times": [{"days": "Mon-Fri", "time": "5:30pm"}, {"days": "Sat", "time": "5:00pm"}, {"days": "Sun", "time": "Closed"}], "id": "7704000073", "name": "USPS COLLECTION BOX - APC", "address": {"city": "JERSEY VILLAGE", "state": "TX", "street": "7050 BROOKHOLLOW WEST DR", "postcode": "77040"}}},
{"geometry": {"type": "Point", "coordinates": [-95.5474241677, 29.7331857692]}, "type": "Feature", "properties": {"collection_times": [{"days": "Mon-Fri", "time": "12:45pm"}, {"days": "Sat-Sun", "time": "Closed"}], "id": "7704200026", "name": "USPS COLLECTION BOX - BLUE BOX", "address": {"city": "HOUSTON", "state": "TX", "street": "9900 MEADOWGLEN LN", "postcode": "77042"}}},
{"geometry": {"type": "Point", "coordinates": [-95.5597205744, 29.729576082]}, "type": "Feature", "properties": {"collection_times": [{"days": "Mon-Fri", "time": "5:15pm"}, {"days": "Sat", "time": "4:45pm"}, {"days": "Sun", "time": "Closed"}], "id": "7704200062", "name": "USPS COLLECTION BOX - PO LOBBY", "address": {"city": "HOUSTON", "state": "TX", "street": "2909 ROGERDALE RD", "postcode": "77042"}}},
{"geometry": {"type": "Point", "coordinates": [-95.5597205744, 29.729576082]}, "type": "Feature", "properties": {"collection_times": [{"days": "Mon-Fri", "time": "5:15pm"}, {"days": "Sat", "time": "4:45pm"}, {"days": "Sun", "time": "Closed"}], "id": "7704200066", "name": "USPS COLLECTION BOX - BLUE BOX", "address": {"city": "HOUSTON", "state": "TX", "street": "2909 ROGERDALE RD", "postcode": "77042"}}},
{"geometry": {"type": "Point", "coordinates": [-95.5597205744, 29.729576082]}, "type": "Feature", "properties": {"collection_times": [{"days": "Mon-Fri", "time": "5:15pm"}, {"days": "Sat", "time": "4:45pm"}, {"days": "Sun", "time": "Closed"}], "id": "7704200067", "name": "USPS COLLECTION BOX - APC", "address": {"city": "HOUSTON", "state": "TX", "street": "2909 ROGERDALE RD", "postcode": "77042"}}},
{"geometry": {"type": "Point", "coordinates": [-95.5713061672, 29.7330810955]}, "type": "Feature", "properties": {"collection_times": [{"days": "Mon-Fri", "time": "2:30pm"}, {"days": "Sat-Sun", "time": "Closed"}], "id": "7704200070", "name": "USPS COLLECTION BOX - BLUE BOX", "address": {"city": "HOUSTON", "state": "TX", "street": "11000 MEADOWGLEN LN", "postcode": "77042"}}},
{"geometry": {"type": "Point", "coordinates": [-95.439789362, 29.6306600603]}, "type": "Feature", "properties": {"collection_times": [{"days": "Mon-Sat", "time": "5:00pm"}, {"days": "Sun", "time": "Closed"}], "id": "7704500004", "name": "USPS COLLECTION BOX - BLUE BOX", "address": {"city": "HOUSTON", "state": "TX", "street": "3030 W FUQUA ST", "postcode": "77045"}}},
{"geometry": {"type": "Point", "coordinates": [-95.439789362, 29.6306600603]}, "type": "Feature", "properties": {"collection_times": [{"days": "Mon-Sat", "time": "5:00pm"}, {"days": "Sun", "time": "Closed"}], "id": "7704500009", "name": "USPS COLLECTION BOX - PO LOBBY", "address": {"city": "HOUSTON", "state": "TX", "street": "3030 W FUQUA ST", "postcode": "77045"}}},
{"geometry": {"type": "Point", "coordinates": [-95.3555036598, 29.6541316468]}, "type": "Feature", "properties": {"collection_times": [{"days": "Mon-Sat", "time": "5:00pm"}, {"days": "Sun", "time": "Closed"}], "id": "7705100004", "name": "USPS COLLECTION BOX - BLUE BOX", "address": {"city": "HOUSTON", "state": "TX", "street": "9444 CULLEN BLVD", "postcode": "77051"}}},
{"geometry": {"type": "Point", "coordinates": [-95.3555036598, 29.6541316468]}, "type": "Feature", "properties": {"collection_times": [{"days": "Mon-Sat", "time": "5:00pm"}, {"days": "Sun", "time": "Closed"}], "id": "7705100011", "name": "USPS COLLECTION BOX - PO LOBBY", "address": {"city": "HOUSTON", "state": "TX", "street": "9444 CULLEN BLVD", "postcode": "77051"}}},
{"geometry": {"type": "Point", "coordinates": [-95.3881732271, 29.6945180142]}, "type": "Feature", "properties": {"collection_times": [{"days": "Mon-Fri", "time": "5:00pm"}, {"days": "Sat", "time": "4:30pm"}, {"days": "Sun", "time": "Closed"}], "id": "7705400023", "name": "USPS COLLECTION BOX - BLUE BOX", "address": {"city": "HOUSTON", "state": "TX", "street": "7205 ALMEDA RD", "postcode": "77054"}}},
{"geometry": {"type": "Point", "coordinates": [-95.3881732271, 29.6945180142]}, "type": "Feature", "properties": {"collection_times": [{"days": "Mon-Fri", "time": "5:00pm"}, {"days": "Sat", "time": "4:30pm"}, {"days": "Sun", "time": "Closed"}], "id": "7705400047", "name": "USPS COLLECTION BOX - PO LOBBY", "address": {"city": "HOUSTON", "state": "TX", "street": "7205 ALMEDA RD", "postcode": "77054"}}},
{"geometry": {"type": "Point", "coordinates": [-95.3881732271, 29.6945180142]}, "type": "Feature", "properties": {"collection_times": [{"days": "Mon-Fri", "time": "5:00pm"}, {"days": "Sat", "time": "4:30pm"}, {"days": "Sun", "time": "Closed"}], "id": "7705400051", "name": "USPS COLLECTION BOX - APC", "address": {"city": "HOUSTON", "state": "TX", "street": "7205 ALMEDA RD", "postcode": "77054"}}},
{"geometry": {"type": "Point", "coordinates": [-95.4934441154, 29.8176568406]}, "type": "Feature", "properties": {"collection_times": [{"days": "Mon-Fri", "time": "1:30pm"}, {"days": "Sat-Sun", "time": "Closed"}], "id": "7705500013", "name": "USPS COLLECTION BOX - BLUE BOX", "address": {"city": "HOUSTON", "state": "TX", "street": "8111 KEMPWOOD DR", "postcode": "77055"}}},
{"geometry": {"type": "Point", "coordinates": [-95.507841909, 29.8030804203]}, "type": "Feature", "properties": {"collection_times": [{"days": "Mon-Fri", "time": "3:00pm"}, {"days": "Sat-Sun", "time": "Closed"}], "id": "7705500018", "name": "USPS COLLECTION BOX - BLUE BOX", "address": {"city": "HOUSTON", "state": "TX", "street": "8830 LONG POINT RD", "postcode": "77055"}}},
{"geometry": {"type": "Point", "coordinates": [-95.4964699587, 29.7976212417]}, "type": "Feature", "properties": {"collection_times": [{"days": "Mon-Fri", "time": "5:00pm"}, {"days": "Sat", "time": "4:30pm"}, {"days": "Sun", "time": "Closed"}], "id": "7705500049", "name": "USPS COLLECTION BOX - PO LOBBY", "address": {"city": "HOUSTON", "state": "TX", "street": "8000 LONG POINT RD", "postcode": "77055"}}},
{"geometry": {"type": "Point", "coordinates": [-95.4964699587, 29.7976212417]}, "type": "Feature", "properties": {"collection_times": [{"days": "Mon-Fri", "time": "5:00pm"}, {"days": "Sat", "time": "4:30pm"}, {"days": "Sun", "time": "Closed"}], "id": "7705500051", "name": "USPS COLLECTION BOX - APC", "address": {"city": "HOUSTON", "state": "TX", "street": "8000 LONG POINT RD", "postcode": "77055"}}},
{"geometry": {"type": "Point", "coordinates": [-95.4964699587, 29.7976212417]}, "type": "Feature", "properties": {"collection_times": [{"days": "Mon-Fri", "time": "5:00pm"}, {"days": "Sat", "time": "4:30pm"}, {"days": "Sun", "time": "Closed"}], "id": "7705500054", "name": "USPS COLLECTION BOX - BLUE BOX", "address": {"city": "HOUSTON", "state": "TX", "street": "8000 LONG POINT RD", "postcode": "77055"}}},
{"geometry": {"type": "Point", "coordinates": [-95.499085538, 29.734132558]}, "type": "Feature", "properties": {"collection_times": [{"days": "Mon-Fri", "time": "5:30pm"}, {"days": "Sat", "time": "5:00pm"}, {"days": "Sun", "time": "Closed"}], "id": "7705700034", "name": "USPS COLLECTION BOX - BLUE BOX", "address": {"city": "HOUSTON", "state": "TX", "street": "2950 UNITY DR", "postcode": "77057"}}},
{"geometry": {"type": "Point", "coordinates": [-95.4989374111, 29.734048755]}, "type": "Feature", "properties": {"collection_times": [{"days": "Mon-Fri", "time": "5:30pm"}, {"days": "Sat", "time": "5:00pm"}, {"days": "Sun", "time": "Closed"}], "id": "7705700074", "name": "USPS COLLECTION BOX - PO LOBBY", "address": {"city": "HOUSTON", "state": "TX", "street": "2950 UNITY DR", "postcode": "77057"}}},
{"geometry": {"type": "Point", "coordinates": [-95.4989374111, 29.734048755]}, "type": "Feature", "properties": {"collection_times": [{"days": "Mon-Fri", "time": "5:30pm"}, {"days": "Sat", "time": "5:00pm"}, {"days": "Sun", "time": "Closed"}], "id": "7705700079", "name": "USPS COLLECTION BOX - APC", "address": {"city": "HOUSTON", "state": "TX", "street": "2950 UNITY DR", "postcode": "77057"}}},
{"geometry": {"type": "Point", "coordinates": [-95.1024387899, 29.5555001552]}, "type": "Feature", "properties": {"collection_times": [{"days": "Mon-Fri", "time": "5:15pm"}, {"days": "Sat-Sun", "time": "Closed"}], "id": "7705800016", "name": "USPS COLLECTION BOX - PO LOBBY", "address": {"city": "HOUSTON", "state": "TX", "street": "18214 UPPER BAY RD", "postcode": "77058"}}},
{"geometry": {"type": "Point", "coordinates": [-95.0883469293, 29.5474423309]}, "type": "Feature", "properties": {"collection_times": [{"days": "Mon-Fri", "time": "5:15pm"}, {"days": "Sat", "time": "3:00pm"}, {"days": "Sun", "time": "Closed"}], "id": "7705800029", "name": "USPS COLLECTION BOX - BLUE BOX", "address": {"city": "HOUSTON", "state": "TX", "street": "18215 UPPER BAY RD", "postcode": "77058"}}},
{"geometry": {"type": "Point", "coordinates": [-95.4024116455, 29.9378960472]}, "type": "Feature", "properties": {"collection_times": [{"days": "Mon-Fri", "time": "12:30pm"}, {"days": "Sat-Sun", "time": "Closed"}], "id": "7706000016", "name": "USPS COLLECTION BOX - BLUE BOX", "address": {"city": "HOUSTON", "state": "TX", "street": "16500 NORTHCHASE DR", "postcode": "77060"}}},
{"geometry": {"type": "Point", "coordinates": [-99.3330489019, 31.4627353752]}, "type": "Feature", "properties": {"collection_times": [{"days": "Mon-Fri", "time": "5:15pm"}, {"days": "Sat", "time": "4:45pm"}, {"days": "Sun", "time": "Closed"}], "id": "7706200008", "name": "USPS COLLECTION BOX - BLUE BOX", "address": {"city": "HOUSTON", "state": "TX", "street": "14917 EL CAMINO REAL", "postcode": "77062"}}},
{"geometry": {"type": "Point", "coordinates": [-95.1401303354, 29.5762099588]}, "type": "Feature", "properties": {"collection_times": [{"days": "Mon-Fri", "time": "5:15pm"}, {"days": "Sat", "time": "4:45pm"}, {"days": "Sun", "time": "Closed"}], "id": "7706200021", "name": "USPS COLLECTION BOX - PO LOBBY", "address": {"city": "HOUSTON", "state": "TX", "street": "14917 EL CAMINO REAL", "postcode": "77062"}}},
{"geometry": {"type": "Point", "coordinates": [-95.1401303354, 29.5762099588]}, "type": "Feature", "properties": {"collection_times": [{"days": "Mon-Fri", "time": "5:15pm"}, {"days": "Sat", "time": "4:45pm"}, {"days": "Sun", "time": "Closed"}], "id": "7706200022", "name": "USPS COLLECTION BOX - PO LOBBY", "address": {"city": "HOUSTON", "state": "TX", "street": "14917 EL CAMINO REAL", "postcode": "77062"}}},
{"geometry": {"type": "Point", "coordinates": [-95.1401303354, 29.5762099588]}, "type": "Feature", "properties": {"collection_times": [{"days": "Mon-Fri", "time": "5:15pm"}, {"days": "Sat", "time": "4:45pm"}, {"days": "Sun", "time": "Closed"}], "id": "7706200024", "name": "USPS COLLECTION BOX - APC", "address": {"city": "HOUSTON", "state": "TX", "street": "14917 EL CAMINO REAL", "postcode": "77062"}}},
{"geometry": {"type": "Point", "coordinates": [-95.5178937385, 29.7298657451]}, "type": "Feature", "properties": {"collection_times": [{"days": "Mon-Fri", "time": "5:15pm"}, {"days": "Sat", "time": "4:45pm"}, {"days": "Sun", "time": "Closed"}], "id": "7706300001", "name": "USPS COLLECTION BOX - BLUE BOX", "address": {"city": "HOUSTON", "state": "TX", "street": "8728 BEVERLYHILL ST", "postcode": "77063"}}},
{"geometry": {"type": "Point", "coordinates": [-95.5186103845, 29.7298221375]}, "type": "Feature", "properties": {"collection_times": [{"days": "Mon-Fri", "time": "5:15pm"}, {"days": "Sat", "time": "4:45pm"}, {"days": "Sun", "time": "Closed"}], "id": "7706300048", "name": "USPS COLLECTION BOX - PO LOBBY", "address": {"city": "HOUSTON", "state": "TX", "street": "8728 BEVERLYHILL ST", "postcode": "77063"}}},
{"geometry": {"type": "Point", "coordinates": [-95.4482273626, 29.951881972]}, "type": "Feature", "properties": {"collection_times": [{"days": "Mon-Fri", "time": "5:30pm"}, {"days": "Sat", "time": "4:45pm"}, {"days": "Sun", "time": "Closed"}], "id": "7706700011", "name": "USPS COLLECTION BOX - BLUE BOX", "address": {"city": "HOUSTON", "state": "TX", "street": "1530 GREENSMARK DR", "postcode": "77067"}}},
{"geometry": {"type": "Point", "coordinates": [-95.4482273626, 29.951881972]}, "type": "Feature", "properties": {"collection_times": [{"days": "Mon-Fri", "time": "5:30pm"}, {"days": "Sat", "time": "4:45pm"}, {"days": "Sun", "time": "Closed"}], "id": "7706700017", "name": "USPS COLLECTION BOX - PO LOBBY", "address": {"city": "HOUSTON", "state": "TX", "street": "1530 GREENSMARK DR", "postcode": "77067"}}},
{"geometry": {"type": "Point", "coordinates": [-95.4482273626, 29.951881972]}, "type": "Feature", "properties": {"collection_times": [{"days": "Mon-Fri", "time": "5:30pm"}, {"days": "Sat", "time": "4:45pm"}, {"days": "Sun", "time": "Closed"}], "id": "7706700019", "name": "USPS COLLECTION BOX - PO LOBBY", "address": {"city": "HOUSTON", "state": "TX", "street": "1530 GREENSMARK DR", "postcode": "77067"}}},
{"geometry": {"type": "Point", "coordinates": [-95.55823224, 29.959980237]}, "type": "Feature", "properties": {"collection_times": [{"days": "Mon-Sat", "time": "5:00pm"}, {"days": "Sun", "time": "Closed"}], "id": "7707000025", "name": "USPS COLLECTION BOX - BLUE BOX", "address": {"city": "HOUSTON", "state": "TX", "street": "12955 WILLOW PLACE DR W", "postcode": "77070"}}},
{"geometry": {"type": "Point", "coordinates": [-95.5582075699, 29.9599809996]}, "type": "Feature", "properties": {"collection_times": [{"days": "Mon-Sat", "time": "5:00pm"}, {"days": "Sun", "time": "Closed"}], "id": "7707000028", "name": "USPS COLLECTION BOX - PO LOBBY", "address": {"city": "HOUSTON", "state": "TX", "street": "12955 WILLOW PLACE DR W", "postcode": "77070"}}},
{"geometry": {"type": "Point", "coordinates": [-95.5582075699, 29.9599809996]}, "type": "Feature", "properties": {"collection_times": [{"days": "Mon-Sat", "time": "5:00pm"}, {"days": "Sun", "time": "Closed"}], "id": "7707000032", "name": "USPS COLLECTION BOX - APC", "address": {"city": "HOUSTON", "state": "TX", "street": "12955 WILLOW PLACE DR W", "postcode": "77070"}}},
{"geometry": {"type": "Point", "coordinates": [-95.5202863714, 29.6499027598]}, "type": "Feature", "properties": {"collection_times": [{"days": "Mon-Fri", "time": "1:45pm"}, {"days": "Sat", "time": "10:30am"}, {"days": "Sun", "time": "Closed"}], "id": "7707100002", "name": "USPS COLLECTION BOX - BLUE BOX", "address": {"city": "HOUSTON", "state": "TX", "street": "15500 GREGORY", "postcode": "77071"}}},
{"geometry": {"type": "Point", "coordinates": [-95.5214885004, 29.651742027]}, "type": "Feature", "properties": {"collection_times": [{"days": "Mon-Fri", "time": "5:30pm"}, {"days": "Sat", "time": "4:30pm"}, {"days": "Sun", "time": "Closed"}], "id": "7707100007", "name": "USPS COLLECTION BOX - BLUE BOX", "address": {"city": "HOUSTON", "state": "TX", "street": "10910 S GESSNER RD", "postcode": "77071"}}},
{"geometry": {"type": "Point", "coordinates": [-95.5849432449, 29.6888129267]}, "type": "Feature", "properties": {"collection_times": [{"days": "Mon-Sat", "time": "5:00pm"}, {"days": "Sun", "time": "Closed"}], "id": "7707200004", "name": "USPS COLLECTION BOX - BLUE BOX", "address": {"city": "HOUSTON", "state": "TX", "street": "11703 BEECHNUT ST", "postcode": "77072"}}},
{"geometry": {"type": "Point", "coordinates": [-95.5848656587, 29.68879072]}, "type": "Feature", "properties": {"collection_times": [{"days": "Mon-Sat", "time": "5:00pm"}, {"days": "Sun", "time": "Closed"}], "id": "7707200009", "name": "USPS COLLECTION BOX - PO LOBBY", "address": {"city": "HOUSTON", "state": "TX", "street": "11703 BEECHNUT ST", "postcode": "77072"}}},
{"geometry": {"type": "Point", "coordinates": [-95.5848656587, 29.68879072]}, "type": "Feature", "properties": {"collection_times": [{"days": "Mon-Sat", "time": "5:00pm"}, {"days": "Sun", "time": "Closed"}], "id": "7707200011", "name": "USPS COLLECTION BOX - APC", "address": {"city": "HOUSTON", "state": "TX", "street": "11703 BEECHNUT ST", "postcode": "77072"}}},
{"geometry": {"type": "Point", "coordinates": [-95.4974806551, 29.707247632]}, "type": "Feature", "properties": {"collection_times": [{"days": "Mon-Fri", "time": "5:30pm"}, {"days": "Sat", "time": "5:00pm"}, {"days": "Sun", "time": "Closed"}], "id": "7707400061", "name": "USPS COLLECTION BOX - BLUE BOX", "address": {"city": "HOUSTON", "state": "TX", "street": "6500 DE MOSS DR", "postcode": "77074"}}},
{"geometry": {"type": "Point", "coordinates": [-95.4974886522, 29.7072146087]}, "type": "Feature", "properties": {"collection_times": [{"days": "Mon-Fri", "time": "5:30pm"}, {"days": "Sat", "time": "5:00pm"}, {"days": "Sun", "time": "Closed"}], "id": "7707400076", "name": "USPS COLLECTION BOX - PO LOBBY", "address": {"city": "HOUSTON", "state": "TX", "street": "6500 DE MOSS DR", "postcode": "77074"}}},
{"geometry": {"type": "Point", "coordinates": [-95.2421741676, 29.627150763]}, "type": "Feature", "properties": {"collection_times": [{"days": "Mon-Fri", "time": "5:00pm"}, {"days": "Sat", "time": "4:45pm"}, {"days": "Sun", "time": "Closed"}], "id": "7707500005", "name": "USPS COLLECTION BOX - BLUE BOX", "address": {"city": "HOUSTON", "state": "TX", "street": "9898 ALMEDA GENOA RD", "postcode": "77075"}}},
{"geometry": {"type": "Point", "coordinates": [-95.2421741676, 29.627150763]}, "type": "Feature", "properties": {"collection_times": [{"days": "Mon-Fri", "time": "5:00pm"}, {"days": "Sat", "time": "4:45pm"}, {"days": "Sun", "time": "Closed"}], "id": "7707500009", "name": "USPS COLLECTION BOX - PO LOBBY", "address": {"city": "HOUSTON", "state": "TX", "street": "9898 ALMEDA GENOA RD", "postcode": "77075"}}},
{"geometry": {"type": "Point", "coordinates": [-95.6085744138, 29.7461658985]}, "type": "Feature", "properties": {"collection_times": [{"days": "Mon-Fri", "time": "5:30pm"}, {"days": "Sat", "time": "4:45pm"}, {"days": "Sun", "time": "Closed"}], "id": "7707700017", "name": "USPS COLLECTION BOX - BLUE BOX", "address": {"city": "HOUSTON", "state": "TX", "street": "12655 WHITTINGTON DR", "postcode": "77077"}}},
{"geometry": {"type": "Point", "coordinates": [-95.6085744138, 29.7461658985]}, "type": "Feature", "properties": {"collection_times": [{"days": "Mon-Fri", "time": "5:30pm"}, {"days": "Sat", "time": "4:45pm"}, {"days": "Sun", "time": "Closed"}], "id": "7707700026", "name": "USPS COLLECTION BOX - PO LOBBY", "address": {"city": "HOUSTON", "state": "TX", "street": "12655 WHITTINGTON DR", "postcode": "77077"}}},
{"geometry": {"type": "Point", "coordinates": [-95.6085744138, 29.7461658985]}, "type": "Feature", "properties": {"collection_times": [{"days": "Mon-Fri", "time": "5:30pm"}, {"days": "Sat", "time": "4:45pm"}, {"days": "Sun", "time": "Closed"}], "id": "7707700033", "name": "USPS COLLECTION BOX - APC", "address": {"city": "HOUSTON", "state": "TX", "street": "12655 WHITTINGTON DR", "postcode": "77077"}}},
{"geometry": {"type": "Point", "coordinates": [-95.641729772, 29.783237066]}, "type": "Feature", "properties": {"collection_times": [{"days": "Mon-Fri", "time": "5:30pm"}, {"days": "Sat", "time": "4:30pm"}, {"days": "Sun", "time": "Closed"}], "id": "7707900058", "name": "USPS COLLECTION BOX - BLUE BOX", "address": {"city": "HOUSTON", "state": "TX", "street": "315 ADDICKS HOWELL RD", "postcode": "77079"}}},
{"geometry": {"type": "Point", "coordinates": [-95.641729772, 29.783237066]}, "type": "Feature", "properties": {"collection_times": [{"days": "Mon-Fri", "time": "5:30pm"}, {"days": "Sat", "time": "4:30pm"}, {"days": "Sun", "time": "Closed"}], "id": "7707900063", "name": "USPS COLLECTION BOX - PO LOBBY", "address": {"city": "HOUSTON", "state": "TX", "street": "315 ADDICKS HOWELL RD", "postcode": "77079"}}},
{"geometry": {"type": "Point", "coordinates": [-95.641729772, 29.783237066]}, "type": "Feature", "properties": {"collection_times": [{"days": "Mon-Fri", "time": "5:30pm"}, {"days": "Sat", "time": "4:30pm"}, {"days": "Sun", "time": "Closed"}], "id": "7707900071", "name": "USPS COLLECTION BOX - APC", "address": {"city": "HOUSTON", "state": "TX", "street": "315 ADDICKS HOWELL RD", "postcode": "77079"}}},
{"geometry": {"type": "Point", "coordinates": [-95.5248849719, 29.8071136472]}, "type": "Feature", "properties": {"collection_times": [{"days": "Mon-Fri", "time": "1:30pm"}, {"days": "Sat-Sun", "time": "Closed"}], "id": "7708000003", "name": "USPS COLLECTION BOX - BLUE BOX", "address": {"city": "HOUSTON", "state": "TX", "street": "1925 CAMPBELL RD", "postcode": "77080"}}},
{"geometry": {"type": "Point", "coordinates": [-95.5210962158, 29.8158977034]}, "type": "Feature", "properties": {"collection_times": [{"days": "Mon-Fri", "time": "5:30pm"}, {"days": "Sat", "time": "4:45pm"}, {"days": "Sun", "time": "Closed"}], "id": "7708000020", "name": "USPS COLLECTION BOX - BLUE BOX", "address": {"city": "HOUSTON", "state": "TX", "street": "9320 EMNORA LN", "postcode": "77080"}}},
{"geometry": {"type": "Point", "coordinates": [-95.5210962158, 29.8158977034]}, "type": "Feature", "properties": {"collection_times": [{"days": "Mon-Fri", "time": "5:30pm"}, {"days": "Sat", "time": "4:45pm"}, {"days": "Sun", "time": "Closed"}], "id": "7708000023", "name": "USPS COLLECTION BOX - PO LOBBY", "address": {"city": "HOUSTON", "state": "TX", "street": "9320 EMNORA LN", "postcode": "77080"}}},
{"geometry": {"type": "Point", "coordinates": [-95.5210962158, 29.8158977034]}, "type": "Feature", "properties": {"collection_times": [{"days": "Mon-Fri", "time": "5:30pm"}, {"days": "Sat", "time": "4:45pm"}, {"days": "Sun", "time": "Closed"}], "id": "7708000024", "name": "USPS COLLECTION BOX - PO LOBBY", "address": {"city": "HOUSTON", "state": "TX", "street": "9320 EMNORA LN", "postcode": "77080"}}},
{"geometry": {"type": "Point", "coordinates": [-95.6416209903, 29.8413525491]}, "type": "Feature", "properties": {"collection_times": [{"days": "Mon-Fri", "time": "5:00pm"}, {"days": "Sat", "time": "4:30pm"}, {"days": "Sun", "time": "Closed"}], "id": "7708400001", "name": "USPS COLLECTION BOX - BLUE BOX", "address": {"city": "HOUSTON", "state": "TX", "street": "16015 CAIRNWAY DR", "postcode": "77084"}}},
{"geometry": {"type": "Point", "coordinates": [-95.6416209903, 29.8413525491]}, "type": "Feature", "properties": {"collection_times": [{"days": "Mon-Fri", "time": "5:00pm"}, {"days": "Sat", "time": "4:30pm"}, {"days": "Sun", "time": "Closed"}], "id": "7708400013", "name": "USPS COLLECTION BOX - PO LOBBY", "address": {"city": "HOUSTON", "state": "TX", "street": "16015 CAIRNWAY DR", "postcode": "77084"}}},
{"geometry": {"type": "Point", "coordinates": [-95.6416209903, 29.8413525491]}, "type": "Feature", "properties": {"collection_times": [{"days": "Mon-Fri", "time": "5:00pm"}, {"days": "Sat", "time": "4:30pm"}, {"days": "Sun", "time": "Closed"}], "id": "7708400017", "name": "USPS COLLECTION BOX - APC", "address": {"city": "HOUSTON", "state": "TX", "street": "16015 CAIRNWAY DR", "postcode": "77084"}}},
{"geometry": {"type": "Point", "coordinates": [-95.412859374, 29.8693219391]}, "type": "Feature", "properties": {"collection_times": [{"days": "Mon-Sat", "time": "5:00pm"}, {"days": "Sun", "time": "Closed"}], "id": "7708800004", "name": "USPS COLLECTION BOX - BLUE BOX", "address": {"city": "HOUSTON", "state": "TX", "street": "7511 N SHEPHERD DR", "postcode": "77088"}}},
{"geometry": {"type": "Point", "coordinates": [-95.412859374, 29.8693219391]}, "type": "Feature", "properties": {"collection_times": [{"days": "Mon-Sat", "time": "5:00pm"}, {"days": "Sun", "time": "Closed"}], "id": "7708800011", "name": "USPS COLLECTION BOX - PO LOBBY", "address": {"city": "HOUSTON", "state": "TX", "street": "7511 N SHEPHERD DR", "postcode": "77088"}}},
{"geometry": {"type": "Point", "coordinates": [-95.412859374, 29.8693219391]}, "type": "Feature", "properties": {"collection_times": [{"days": "Mon-Sat", "time": "5:00pm"}, {"days": "Sun", "time": "Closed"}], "id": "7708800012", "name": "USPS COLLECTION BOX - PO LOBBY", "address": {"city": "HOUSTON", "state": "TX", "street": "7511 N SHEPHERD DR", "postcode": "77088"}}},
{"geometry": {"type": "Point", "coordinates": [-95.4301803111, 30.0212858561]}, "type": "Feature", "properties": {"collection_times": [{"days": "Mon-Sat", "time": "9:30am"}, {"days": "Sun", "time": "Closed"}], "id": "7709000002", "name": "USPS COLLECTION BOX - BLUE BOX", "address": {"city": "HOUSTON", "state": "TX", "street": "40 FM 1960 RD W", "postcode": "77090"}}},
{"geometry": {"type": "Point", "coordinates": [-95.445113144, 30.0185007967]}, "type": "Feature", "properties": {"collection_times": [{"days": "Mon-Sat", "time": "5:00pm"}, {"days": "Sun", "time": "Closed"}], "id": "7709000023", "name": "USPS COLLECTION BOX - BLUE BOX", "address": {"city": "HOUSTON", "state": "TX", "street": "17119 RED OAK DR", "postcode": "77090"}}},
{"geometry": {"type": "Point", "coordinates": [-95.445113144, 30.0185007967]}, "type": "Feature", "properties": {"collection_times": [{"days": "Mon-Sat", "time": "5:00pm"}, {"days": "Sun", "time": "Closed"}], "id": "7709000025", "name": "USPS COLLECTION BOX - PO LOBBY", "address": {"city": "HOUSTON", "state": "TX", "street": "17119 RED OAK DR", "postcode": "77090"}}},
{"geometry": {"type": "Point", "coordinates": [-95.445113144, 30.0185007967]}, "type": "Feature", "properties": {"collection_times": [{"days": "Mon-Sat", "time": "5:00pm"}, {"days": "Sun", "time": "Closed"}], "id": "7709000026", "name": "USPS COLLECTION BOX - PO LOBBY", "address": {"city": "HOUSTON", "state": "TX", "street": "17119 RED OAK DR", "postcode": "77090"}}},
{"geometry": {"type": "Point", "coordinates": [-95.445113144, 30.0185007967]}, "type": "Feature", "properties": {"collection_times": [{"days": "Mon-Sat", "time": "5:00pm"}, {"days": "Sun", "time": "Closed"}], "id": "7709000029", "name": "USPS COLLECTION BOX - APC", "address": {"city": "HOUSTON", "state": "TX", "street": "17119 RED OAK DR", "postcode": "77090"}}},
{"geometry": {"type": "Point", "coordinates": [-95.4671433972, 29.8196173686]}, "type": "Feature", "properties": {"collection_times": [{"days": "Mon-Fri", "time": "1:45pm"}, {"days": "Sat-Sun", "time": "Closed"}], "id": "7709200036", "name": "USPS COLLECTION BOX - BLUE BOX", "address": {"city": "HOUSTON", "state": "TX", "street": "5330 W 34TH ST", "postcode": "77092"}}},
{"geometry": {"type": "Point", "coordinates": [-95.4646104793, 29.6888195592]}, "type": "Feature", "properties": {"collection_times": [{"days": "Mon-Fri", "time": "1:00pm"}, {"days": "Sat-Sun", "time": "Closed"}], "id": "7709600005", "name": "USPS COLLECTION BOX - BLUE BOX", "address": {"city": "HOUSTON", "state": "TX", "street": "8519 ENDICOTT LN", "postcode": "77096"}}},
{"geometry": {"type": "Point", "coordinates": [-95.3697767501, 29.7604515224]}, "type": "Feature", "properties": {"collection_times": [{"days": "Mon-Fri", "time": "5:00pm"}, {"days": "Sat", "time": "3:30pm"}, {"days": "Sun", "time": "Closed"}], "id": "7709800008", "name": "USPS COLLECTION BOX - BLUE BOX", "address": {"city": "HOUSTON", "state": "TX", "street": "3740 GREENBRIAR ST", "postcode": "77098"}}},
{"geometry": {"type": "Point", "coordinates": [-95.4128825238, 29.7327499204]}, "type": "Feature", "properties": {"collection_times": [{"days": "Mon-Fri", "time": "5:00pm"}, {"days": "Sat", "time": "3:30pm"}, {"days": "Sun", "time": "Closed"}], "id": "7709800064", "name": "USPS COLLECTION BOX - PO LOBBY", "address": {"city": "HOUSTON", "state": "TX", "street": "3740 GREENBRIAR ST", "postcode": "77098"}}},
{"geometry": {"type": "Point", "coordinates": [-95.4128940736, 29.7327570587]}, "type": "Feature", "properties": {"collection_times": [{"days": "Mon-Fri", "time": "5:00pm"}, {"days": "Sat", "time": "3:30pm"}, {"days": "Sun", "time": "Closed"}], "id": "7709800068", "name": "USPS COLLECTION BOX - APC", "address": {"city": "HOUSTON", "state": "TX", "street": "3740 GREENBRIAR ST", "postcode": "77098"}}}
]}
