{"type": "FeatureCollection", "features": [
{"geometry": {"type": "Point", "coordinates": [-95.3682493029, 29.744588612]}, "type": "Feature", "properties": {"collection_times": [{"days": "Mon-Fri", "time": "6:45pm"}, {"days": "Sat", "time": "11:30am"}, {"days": "Sun", "time": "Closed"}], "id": "7720100000", "name": "USPS COLLECTION BOX - PO LOBBY", "address": {"city": "HOUSTON", "state": "TX", "street": "1500 HADLEY ST", "postcode": "77201"}}},
{"geometry": {"type": "Point", "coordinates": [-95.3682493029, 29.744588612]}, "type": "Feature", "properties": {"collection_times": [{"days": "Mon-Fri", "time": "6:45pm"}, {"days": "Sat", "time": "11:30am"}, {"days": "Sun", "time": "Closed"}], "id": "7720100001", "name": "USPS COLLECTION BOX - PO LOBBY", "address": {"city": "HOUSTON", "state": "TX", "street": "1500 HADLEY ST", "postcode": "77201"}}},
{"geometry": {"type": "Point", "coordinates": [-95.3682493029, 29.744588612]}, "type": "Feature", "properties": {"collection_times": [{"days": "Mon-Fri", "time": "6:45pm"}, {"days": "Sat", "time": "11:30am"}, {"days": "Sun", "time": "Closed"}], "id": "7720100002", "name": "USPS COLLECTION BOX - PO LOBBY", "address": {"city": "HOUSTON", "state": "TX", "street": "1500 HADLEY ST", "postcode": "77201"}}},
{"geometry": {"type": "Point", "coordinates": [-95.3682493029, 29.744588612]}, "type": "Feature", "properties": {"collection_times": [{"days": "Mon-Fri", "time": "6:45pm"}, {"days": "Sat", "time": "11:30am"}, {"days": "Sun", "time": "Closed"}], "id": "7720100003", "name": "USPS COLLECTION BOX - APC", "address": {"city": "HOUSTON", "state": "TX", "street": "1500 HADLEY ST", "postcode": "77201"}}},
{"geometry": {"type": "Point", "coordinates": [-95.3682493029, 29.744588612]}, "type": "Feature", "properties": {"collection_times": [{"days": "Mon-Fri", "time": "6:45pm"}, {"days": "Sat", "time": "11:30am"}, {"days": "Sun", "time": "Closed"}], "id": "7720100009", "name": "USPS COLLECTION BOX - BLUE BOX", "address": {"city": "HOUSTON", "state": "TX", "street": "1500 HADLEY ST", "postcode": "77201"}}},
{"geometry": {"type": "Point", "coordinates": [-95.5366232582, 29.966776647]}, "type": "Feature", "properties": {"collection_times": [{"days": "Mon-Sun", "time": "5:00pm"}], "id": "7720500009", "name": "USPS COLLECTION BOX - PO LOBBY", "address": {"city": "HOUSTON", "state": "TX", "street": "7231 FM 1960 RD W", "postcode": "77205"}}},
{"geometry": {"type": "Point", "coordinates": [-95.5366232582, 29.966776647]}, "type": "Feature", "properties": {"collection_times": [{"days": "Mon-Sun", "time": "5:00pm"}], "id": "7720500010", "name": "USPS COLLECTION BOX - PO LOBBY", "address": {"city": "HOUSTON", "state": "TX", "street": "7231 FM 1960 RD W", "postcode": "77205"}}},
{"geometry": {"type": "Point", "coordinates": [-95.5366232582, 29.966776647]}, "type": "Feature", "properties": {"collection_times": [{"days": "Mon-Sun", "time": "5:00pm"}], "id": "7720500011", "name": "USPS COLLECTION BOX - PO LOBBY", "address": {"city": "HOUSTON", "state": "TX", "street": "7231 FM 1960 RD W", "postcode": "77205"}}},
{"geometry": {"type": "Point", "coordinates": [-95.3168193072, 30.0064036383]}, "type": "Feature", "properties": {"collection_times": [{"days": "Mon-Sun", "time": "5:00pm"}], "id": "7720500012", "name": "USPS COLLECTION BOX - BLUE BOX", "address": {"city": "HOUSTON", "state": "TX", "street": "7231 FM 1960 RD W", "postcode": "77205"}}},
{"geometry": {"type": "Point", "coordinates": [-95.4103591722, 29.8211791826]}, "type": "Feature", "properties": {"collection_times": [{"days": "Mon-Fri", "time": "4:00pm"}, {"days": "Sat-Sun", "time": "Closed"}], "id": "7720600001", "name": "USPS COLLECTION BOX - PO LOBBY", "address": {"city": "HOUSTON", "state": "TX", "street": "3816 N SHEPHERD DR", "postcode": "77206"}}},
{"geometry": {"type": "Point", "coordinates": [-95.4103591722, 29.8211791826]}, "type": "Feature", "properties": {"collection_times": [{"days": "Mon-Fri", "time": "4:00pm"}, {"days": "Sat-Sun", "time": "Closed"}], "id": "7720600002", "name": "USPS COLLECTION BOX - PO LOBBY", "address": {"city": "HOUSTON", "state": "TX", "street": "3816 N SHEPHERD DR", "postcode": "77206"}}},
{"geometry": {"type": "Point", "coordinates": [-95.2775462096, 29.6832942642]}, "type": "Feature", "properties": {"collection_times": [{"days": "Mon-Fri", "time": "5:00pm"}, {"days": "Sat", "time": "12:00pm"}, {"days": "Sun", "time": "Closed"}], "id": "7720700001", "name": "USPS COLLECTION BOX - BLUE BOX", "address": {"city": "HOUSTON", "state": "TX", "street": "4020 BROADWAY ST", "postcode": "77207"}}},
{"geometry": {"type": "Point", "coordinates": [-95.2775462096, 29.6832942642]}, "type": "Feature", "properties": {"collection_times": [{"days": "Mon-Fri", "time": "5:00pm"}, {"days": "Sat", "time": "12:00pm"}, {"days": "Sun", "time": "Closed"}], "id": "7720700006", "name": "USPS COLLECTION BOX - PO LOBBY", "address": {"city": "HOUSTON", "state": "TX", "street": "4020 BROADWAY ST", "postcode": "77207"}}},
{"geometry": {"type": "Point", "coordinates": [-95.5392677225, 29.7218922043]}, "type": "Feature", "properties": {"collection_times": [{"days": "Mon-Fri", "time": "4:45pm"}, {"days": "Sat-Sun", "time": "Closed"}], "id": "7721500001", "name": "USPS COLLECTION BOX - BLUE BOX", "address": {"city": "HOUSTON", "state": "TX", "street": "3836 S GESSNER RD", "postcode": "77215"}}},
{"geometry": {"type": "Point", "coordinates": [-95.5392677225, 29.7218922043]}, "type": "Feature", "properties": {"collection_times": [{"days": "Mon-Fri", "time": "4:45pm"}, {"days": "Sat-Sun", "time": "Closed"}], "id": "7721500003", "name": "USPS COLLECTION BOX - PO LOBBY", "address": {"city": "HOUSTON", "state": "TX", "street": "3836 S GESSNER RD", "postcode": "77215"}}},
{"geometry": {"type": "Point", "coordinates": [-95.6752787009, 29.7856669717]}, "type": "Feature", "properties": {"collection_times": [{"days": "Mon-Fri", "time": "5:00pm"}, {"days": "Sat", "time": "3:30pm"}, {"days": "Sun", "time": "Closed"}], "id": "7721800000", "name": "USPS COLLECTION BOX - BLUE BOX", "address": {"city": "HOUSTON", "state": "TX", "street": "16830 BARKER SPRINGS RD", "postcode": "77218"}}},
{"geometry": {"type": "Point", "coordinates": [-95.6752787009, 29.7856669717]}, "type": "Feature", "properties": {"collection_times": [{"days": "Mon-Fri", "time": "5:00pm"}, {"days": "Sat-Sun", "time": "Closed"}], "id": "7721800003", "name": "USPS COLLECTION BOX - PO LOBBY", "address": {"city": "HOUSTON", "state": "TX", "street": "16830 BARKER SPRINGS RD", "postcode": "77218"}}},
{"geometry": {"type": "Point", "coordinates": [-95.422452653, 29.802656226]}, "type": "Feature", "properties": {"collection_times": [{"days": "Mon-Fri", "time": "5:00pm"}, {"days": "Sat", "time": "4:00pm"}, {"days": "Sun", "time": "Closed"}], "id": "7724800006", "name": "USPS COLLECTION BOX - PO LOBBY", "address": {"city": "HOUSTON", "state": "TX", "street": "1300 W 19TH ST", "postcode": "77248"}}},
{"geometry": {"type": "Point", "coordinates": [-95.274826201, 29.7181830042]}, "type": "Feature", "properties": {"collection_times": [{"days": "Mon-Fri", "time": "4:00pm"}, {"days": "Sat-Sun", "time": "Closed"}], "id": "7726200001", "name": "USPS COLLECTION BOX - BLUE BOX", "address": {"city": "HOUSTON", "state": "TX", "street": "8330 MANCHESTER ST", "postcode": "77262"}}},
{"geometry": {"type": "Point", "coordinates": [-95.274826201, 29.7181830042]}, "type": "Feature", "properties": {"collection_times": [{"days": "Mon-Fri", "time": "4:00pm"}, {"days": "Sat-Sun", "time": "Closed"}], "id": "7726200004", "name": "USPS COLLECTION BOX - PO LOBBY", "address": {"city": "HOUSTON", "state": "TX", "street": "8330 MANCHESTER ST", "postcode": "77262"}}},
{"geometry": {"type": "Point", "coordinates": [-95.4414568117, 29.7242395216]}, "type": "Feature", "properties": {"collection_times": [{"days": "Mon-Fri", "time": "2:00pm"}, {"days": "Sat-Sun", "time": "Closed"}], "id": "7727700001", "name": "USPS COLLECTION BOX - BLUE BOX", "address": {"city": "HOUSTON", "state": "TX", "street": "5340 WESLAYAN ST", "postcode": "77277"}}},
{"geometry": {"type": "Point", "coordinates": [-95.4414568117, 29.7242395216]}, "type": "Feature", "properties": {"collection_times": [{"days": "Mon-Fri", "time": "2:00pm"}, {"days": "Sat-Sun", "time": "Closed"}], "id": "7727700004", "name": "USPS COLLECTION BOX - PO LOBBY", "address": {"city": "HOUSTON", "state": "TX", "street": "5340 WESLAYAN ST", "postcode": "77277"}}},
{"geometry": {"type": "Point", "coordinates": [-95.436669648, 29.7393503729]}, "type": "Feature", "properties": {"collection_times": [{"days": "Mon-Fri", "time": "2:00pm"}, {"days": "Sat-Sun", "time": "Closed"}], "id": "7727700005", "name": "USPS COLLECTION BOX - BLUE BOX", "address": {"city": "HOUSTON", "state": "TX", "street": "5340 WESLAYAN ST", "postcode": "77277"}}},
{"geometry": {"type": "Point", "coordinates": [-95.4414568117, 29.7242395216]}, "type": "Feature", "properties": {"collection_times": [{"days": "Mon-Fri", "time": "2:00pm"}, {"days": "Sat-Sun", "time": "Closed"}], "id": "7727700006", "name": "USPS COLLECTION BOX - APC", "address": {"city": "HOUSTON", "state": "TX", "street": "5340 WESLAYAN ST", "postcode": "77277"}}}
]}
