{"type": "FeatureCollection", "features": [
{"geometry": {"type": "Point", "coordinates": [-95.4494193756, 30.3144082075]}, "type": "Feature", "properties": {"collection_times": [{"days": "Mon-Fri", "time": "2:15pm"}, {"days": "Sat-Sun", "time": "Closed"}], "id": "7730100011", "name": "USPS COLLECTION BOX - BLUE BOX", "address": {"city": "CONROE", "state": "TX", "street": "701 E DAVIS ST", "postcode": "77301"}}},
{"geometry": {"type": "Point", "coordinates": [-95.4573398077, 30.3121539254]}, "type": "Feature", "properties": {"collection_times": [{"days": "Mon-Fri", "time": "2:00pm"}, {"days": "Sat-Sun", "time": "Closed"}], "id": "7730100025", "name": "USPS COLLECTION BOX - BLUE BOX", "address": {"city": "CONROE", "state": "TX", "street": "221 W DAVIS ST", "postcode": "77301"}}},
{"geometry": {"type": "Point", "coordinates": [-95.4573131046, 30.312108097]}, "type": "Feature", "properties": {"collection_times": [{"days": "Mon-Fri", "time": "2:00pm"}, {"days": "Sat-Sun", "time": "Closed"}], "id": "7730100026", "name": "USPS COLLECTION BOX - BLUE BOX", "address": {"city": "CONROE", "state": "TX", "street": "221 W DAVIS ST", "postcode": "77301"}}},
{"geometry": {"type": "Point", "coordinates": [-95.4526922952, 30.3340273387]}, "type": "Feature", "properties": {"collection_times": [{"days": "Mon-Fri", "time": "1:45pm"}, {"days": "Sat-Sun", "time": "Closed"}], "id": "7730100031", "name": "USPS COLLECTION BOX - BLUE BOX", "address": {"city": "CONROE", "state": "TX", "street": "1 CRIMINAL JUSTICE DR", "postcode": "77301"}}},
{"geometry": {"type": "Point", "coordinates": [-95.4668529638, 30.3330744925]}, "type": "Feature", "properties": {"collection_times": [{"days": "Mon-Fri", "time": "2:30pm"}, {"days": "Sat-Sun", "time": "Closed"}], "id": "7730100033", "name": "USPS COLLECTION BOX - BLUE BOX", "address": {"city": "CONROE", "state": "TX", "street": "2017 N FRAZIER ST", "postcode": "77301"}}},
{"geometry": {"type": "Point", "coordinates": [-95.4721335384, 30.3351132175]}, "type": "Feature", "properties": {"collection_times": [{"days": "Mon-Fri", "time": "2:30pm"}, {"days": "Sat-Sun", "time": "Closed"}], "id": "7730100034", "name": "USPS COLLECTION BOX - BLUE BOX", "address": {"city": "CONROE", "state": "TX", "street": "1110 N LOOP 336 W", "postcode": "77301"}}},
{"geometry": {"type": "Point", "coordinates": [-95.4682973589, 30.3073810911]}, "type": "Feature", "properties": {"collection_times": [{"days": "Mon-Fri", "time": "2:00pm"}, {"days": "Sat-Sun", "time": "Closed"}], "id": "7730100038", "name": "USPS COLLECTION BOX - BLUE BOX", "address": {"city": "CONROE", "state": "TX", "street": "104 I 45 N", "postcode": "77301"}}},
{"geometry": {"type": "Point", "coordinates": [-95.449309269, 30.3140208004]}, "type": "Feature", "properties": {"collection_times": [{"days": "Mon-Fri", "time": "5:30pm"}, {"days": "Sat", "time": "5:15pm"}, {"days": "Sun", "time": "Closed"}], "id": "7730100048", "name": "USPS COLLECTION BOX - BLUE BOX", "address": {"city": "CONROE", "state": "TX", "street": "809 W DALLAS ST", "postcode": "77301"}}},
{"geometry": {"type": "Point", "coordinates": [-95.4645326733, 30.3196542648]}, "type": "Feature", "properties": {"collection_times": [{"days": "Mon-Fri", "time": "5:30pm"}, {"days": "Sat", "time": "5:15pm"}, {"days": "Sun", "time": "Closed"}], "id": "7730100050", "name": "USPS COLLECTION BOX - PO LOBBY", "address": {"city": "CONROE", "state": "TX", "street": "809 W DALLAS ST", "postcode": "77301"}}},
{"geometry": {"type": "Point", "coordinates": [-95.4645326733, 30.3196542648]}, "type": "Feature", "properties": {"collection_times": [{"days": "Mon-Fri", "time": "5:30pm"}, {"days": "Sat", "time": "5:15pm"}, {"days": "Sun", "time": "Closed"}], "id": "7730100051", "name": "USPS COLLECTION BOX - PO LOBBY", "address": {"city": "CONROE", "state": "TX", "street": "809 W DALLAS ST", "postcode": "77301"}}},
{"geometry": {"type": "Point", "coordinates": [-95.4645326733, 30.3196542648]}, "type": "Feature", "properties": {"collection_times": [{"days": "Mon-Fri", "time": "5:30pm"}, {"days": "Sat", "time": "5:15pm"}, {"days": "Sun", "time": "Closed"}], "id": "7730100052", "name": "USPS COLLECTION BOX - APC", "address": {"city": "CONROE", "state": "TX", "street": "809 W DALLAS ST", "postcode": "77301"}}},
{"geometry": {"type": "Point", "coordinates": [-95.4449522782, 30.2557197002]}, "type": "Feature", "properties": {"collection_times": [{"days": "Mon-Fri", "time": "1:30pm"}, {"days": "Sat-Sun", "time": "Closed"}], "id": "7730200000", "name": "USPS COLLECTION BOX - BLUE BOX", "address": {"city": "CONROE", "state": "TX", "street": "451 RIVER PLANTATION DR", "postcode": "77302"}}},
{"geometry": {"type": "Point", "coordinates": [-95.3539532295, 30.2064001685]}, "type": "Feature", "properties": {"collection_times": [{"days": "Mon-Fri", "time": "2:30pm"}, {"days": "Sat-Sun", "time": "Closed"}], "id": "7730200001", "name": "USPS COLLECTION BOX - BLUE BOX", "address": {"city": "CONROE", "state": "TX", "street": "16915 FM 1314 RD", "postcode": "77302"}}},
{"geometry": {"type": "Point", "coordinates": [-95.4817564809, 30.3660659702]}, "type": "Feature", "properties": {"collection_times": [{"days": "Mon-Fri", "time": "12:15pm"}, {"days": "Sat-Sun", "time": "Closed"}], "id": "7730300004", "name": "USPS COLLECTION BOX - BLUE BOX", "address": {"city": "CONROE", "state": "TX", "street": "1111 LEAGUE LINE RD", "postcode": "77303"}}},
{"geometry": {"type": "Point", "coordinates": [-95.35723, 30.33261]}, "type": "Feature", "properties": {"collection_times": [{"days": "Mon-Fri", "time": "2:00pm"}, {"days": "Sat-Sun", "time": "Closed"}], "id": "7730300006", "name": "USPS COLLECTION BOX - BLUE BOX", "address": {"city": "CONROE", "state": "TX", "street": "13985 HIGHWAY 105 E", "postcode": "77303"}}},
{"geometry": {"type": "Point", "coordinates": [-95.4899411816, 30.3307229449]}, "type": "Feature", "properties": {"collection_times": [{"days": "Mon-Fri", "time": "2:45pm"}, {"days": "Sat-Sun", "time": "Closed"}], "id": "7730400003", "name": "USPS COLLECTION BOX - BLUE BOX", "address": {"city": "CONROE", "state": "TX", "street": "2040 N LOOP 336 W", "postcode": "77304"}}},
{"geometry": {"type": "Point", "coordinates": [-95.4795451121, 30.3087562235]}, "type": "Feature", "properties": {"collection_times": [{"days": "Mon-Fri", "time": "3:15pm"}, {"days": "Sat-Sun", "time": "Closed"}], "id": "7730400004", "name": "USPS COLLECTION BOX - BLUE BOX", "address": {"city": "CONROE", "state": "TX", "street": "100 COMMERCIAL CIR", "postcode": "77304"}}},
{"geometry": {"type": "Point", "coordinates": [-95.4655100443, 30.2903522245]}, "type": "Feature", "properties": {"collection_times": [{"days": "Mon-Fri", "time": "1:00pm"}, {"days": "Sat-Sun", "time": "Closed"}], "id": "7730400006", "name": "USPS COLLECTION BOX - BLUE BOX", "address": {"city": "CONROE", "state": "TX", "street": "200 N RIVERSHIRE DR", "postcode": "77304"}}},
{"geometry": {"type": "Point", "coordinates": [-95.4904041413, 30.3230711331]}, "type": "Feature", "properties": {"collection_times": [{"days": "Mon-Fri", "time": "3:00pm"}, {"days": "Sat-Sun", "time": "Closed"}], "id": "7730400009", "name": "USPS COLLECTION BOX - BLUE BOX", "address": {"city": "CONROE", "state": "TX", "street": "3101 W DAVIS ST", "postcode": "77304"}}},
{"geometry": {"type": "Point", "coordinates": [-95.4939171526, 30.3247272539]}, "type": "Feature", "properties": {"collection_times": [{"days": "Mon-Fri", "time": "3:00pm"}, {"days": "Sat-Sun", "time": "Closed"}], "id": "7730400010", "name": "USPS COLLECTION BOX - BLUE BOX", "address": {"city": "CONROE", "state": "TX", "street": "3500 W DAVIS ST", "postcode": "77304"}}},
{"geometry": {"type": "Point", "coordinates": [-95.4961541488, 30.380012086]}, "type": "Feature", "properties": {"collection_times": [{"days": "Mon-Fri", "time": "12:15pm"}, {"days": "Sat-Sun", "time": "Closed"}], "id": "7730400014", "name": "USPS COLLECTION BOX - BLUE BOX", "address": {"city": "CONROE", "state": "TX", "street": "99 HIWON DR", "postcode": "77304"}}},
{"geometry": {"type": "Point", "coordinates": [-95.5082946593, 30.3078955433]}, "type": "Feature", "properties": {"collection_times": [{"days": "Mon-Fri", "time": "3:45pm"}, {"days": "Sat-Sun", "time": "Closed"}], "id": "7730400020", "name": "USPS COLLECTION BOX - BLUE BOX", "address": {"city": "CONROE", "state": "TX", "street": "220 S LOOP 336 W", "postcode": "77304"}}},
{"geometry": {"type": "Point", "coordinates": [-95.466445658, 30.2904828358]}, "type": "Feature", "properties": {"collection_times": [{"days": "Mon-Fri", "time": "1:00pm"}, {"days": "Sat-Sun", "time": "Closed"}], "id": "7730400025", "name": "USPS COLLECTION BOX - BLUE BOX", "address": {"city": "CONROE", "state": "TX", "street": "333 N RIVERSHIRE DR", "postcode": "77304"}}},
{"geometry": {"type": "Point", "coordinates": [-95.55027583, 30.3425818688]}, "type": "Feature", "properties": {"collection_times": [{"days": "Mon-Fri", "time": "12:30pm"}, {"days": "Sat-Sun", "time": "Closed"}], "id": "7730400032", "name": "USPS COLLECTION BOX - BLUE BOX", "address": {"city": "CONROE", "state": "TX", "street": "12603 HIGHWAY 105 W", "postcode": "77304"}}},
{"geometry": {"type": "Point", "coordinates": [-95.4694428649, 30.2830462625]}, "type": "Feature", "properties": {"collection_times": [{"days": "Mon-Fri", "time": "3:30pm"}, {"days": "Sat-Sun", "time": "Closed"}], "id": "7730400034", "name": "USPS COLLECTION BOX - BLUE BOX", "address": {"city": "CONROE", "state": "TX", "street": "504 MEDICAL CENTER BLVD", "postcode": "77304"}}},
{"geometry": {"type": "Point", "coordinates": [-95.4932039231, 30.3295292531]}, "type": "Feature", "properties": {"collection_times": [{"days": "Mon-Fri", "time": "2:45pm"}, {"days": "Sat-Sun", "time": "Closed"}], "id": "7730400035", "name": "USPS COLLECTION BOX - BLUE BOX", "address": {"city": "CONROE", "state": "TX", "street": "2245 N LOOP 336 W", "postcode": "77304"}}},
{"geometry": {"type": "Point", "coordinates": [-95.3196473743, 29.9305333739]}, "type": "Feature", "properties": {"collection_times": [{"days": "Mon-Fri", "time": "8:00pm"}, {"days": "Sat", "time": "5:00pm"}, {"days": "Sun", "time": "Closed"}], "id": "7731500006", "name": "USPS COLLECTION BOX - BLUE BOX", "address": {"city": "NORTH HOUSTON", "state": "TX", "street": "4600 ALDINE BENDER RD", "postcode": "77315"}}},
{"geometry": {"type": "Point", "coordinates": [-95.3196473743, 29.9305333739]}, "type": "Feature", "properties": {"collection_times": [{"days": "Mon-Fri", "time": "8:00pm"}, {"days": "Sat", "time": "5:00pm"}, {"days": "Sun", "time": "Closed"}], "id": "7731500008", "name": "USPS COLLECTION BOX - BLUE BOX", "address": {"city": "NORTH HOUSTON", "state": "TX", "street": "4600 ALDINE BENDER RD", "postcode": "77315"}}},
{"geometry": {"type": "Point", "coordinates": [-95.3196473743, 29.9305333739]}, "type": "Feature", "properties": {"collection_times": [{"days": "Mon-Fri", "time": "8:00pm"}, {"days": "Sat", "time": "5:00pm"}, {"days": "Sun", "time": "Closed"}], "id": "7731500009", "name": "USPS COLLECTION BOX - BLUE BOX", "address": {"city": "NORTH HOUSTON", "state": "TX", "street": "4600 ALDINE BENDER RD", "postcode": "77315"}}},
{"geometry": {"type": "Point", "coordinates": [-94.8181972201, 30.5238020109]}, "type": "Feature", "properties": {"collection_times": [{"days": "Mon-Fri", "time": "12:45pm"}, {"days": "Sat", "time": "11:00am"}, {"days": "Sun", "time": "Closed"}], "id": "7732600001", "name": "USPS COLLECTION BOX - PO LOBBY", "address": {"city": "ACE", "state": "TX", "street": "2038 HIGHWAY 2610", "postcode": "77326"}}},
{"geometry": {"type": "Point", "coordinates": [-94.8181972201, 30.5238020109]}, "type": "Feature", "properties": {"collection_times": [{"days": "Mon-Fri", "time": "12:45pm"}, {"days": "Sat", "time": "11:00am"}, {"days": "Sun", "time": "Closed"}], "id": "7732600003", "name": "USPS COLLECTION BOX - BLUE BOX", "address": {"city": "ACE", "state": "TX", "street": "2038 HIGHWAY 2610", "postcode": "77326"}}},
{"geometry": {"type": "Point", "coordinates": [-95.0741263697, 30.3411308996]}, "type": "Feature", "properties": {"collection_times": [{"days": "Mon-Fri", "time": "5:00pm"}, {"days": "Sat", "time": "2:00pm"}, {"days": "Sun", "time": "Closed"}], "id": "7732700001", "name": "USPS COLLECTION BOX - BLUE BOX", "address": {"city": "CLEVELAND", "state": "TX", "street": "1213 E HOUSTON ST", "postcode": "77327"}}},
{"geometry": {"type": "Point", "coordinates": [-95.0826898934, 30.3409897539]}, "type": "Feature", "properties": {"collection_times": [{"days": "Mon-Fri", "time": "3:00pm"}, {"days": "Sat-Sun", "time": "Closed"}], "id": "7732700004", "name": "USPS COLLECTION BOX - BLUE BOX", "address": {"city": "CLEVELAND", "state": "TX", "street": "610 E HOUSTON ST", "postcode": "77327"}}},
{"geometry": {"type": "Point", "coordinates": [-95.0857312529, 30.3424584806]}, "type": "Feature", "properties": {"collection_times": [{"days": "Mon-Fri", "time": "3:00pm"}, {"days": "Sat-Sun", "time": "Closed"}], "id": "7732700006", "name": "USPS COLLECTION BOX - BLUE BOX", "address": {"city": "CLEVELAND", "state": "TX", "street": "300 E CROCKETT ST", "postcode": "77327"}}},
{"geometry": {"type": "Point", "coordinates": [-95.0881420419, 30.3435119576]}, "type": "Feature", "properties": {"collection_times": [{"days": "Mon-Fri", "time": "11:30am"}, {"days": "Sat-Sun", "time": "Closed"}], "id": "7732700007", "name": "USPS COLLECTION BOX - BLUE BOX", "address": {"city": "CLEVELAND", "state": "TX", "street": "100 W CROCKETT ST", "postcode": "77327"}}},
{"geometry": {"type": "Point", "coordinates": [-94.9050253673, 30.3297654377]}, "type": "Feature", "properties": {"collection_times": [{"days": "Mon-Fri", "time": "3:00pm"}, {"days": "Sat-Sun", "time": "Closed"}], "id": "7732700008", "name": "USPS COLLECTION BOX - BLUE BOX", "address": {"city": "CLEVELAND", "state": "TX", "street": "146 TRULY PLZ", "postcode": "77327"}}},
{"geometry": {"type": "Point", "coordinates": [-95.0741263697, 30.3411308996]}, "type": "Feature", "properties": {"collection_times": [{"days": "Mon-Fri", "time": "5:00pm"}, {"days": "Sat", "time": "2:00pm"}, {"days": "Sun", "time": "Closed"}], "id": "7732700009", "name": "USPS COLLECTION BOX - PO LOBBY", "address": {"city": "CLEVELAND", "state": "TX", "street": "1213 E HOUSTON ST", "postcode": "77327"}}},
{"geometry": {"type": "Point", "coordinates": [-95.0741263697, 30.3411308996]}, "type": "Feature", "properties": {"collection_times": [{"days": "Mon-Fri", "time": "5:00pm"}, {"days": "Sat", "time": "2:00pm"}, {"days": "Sun", "time": "Closed"}], "id": "7732700010", "name": "USPS COLLECTION BOX - PO LOBBY", "address": {"city": "CLEVELAND", "state": "TX", "street": "1213 E HOUSTON ST", "postcode": "77327"}}},
{"geometry": {"type": "Point", "coordinates": [-95.1503693648, 30.6008213816]}, "type": "Feature", "properties": {"collection_times": [{"days": "Mon-Fri", "time": "5:00pm"}, {"days": "Sat", "time": "12:00pm"}, {"days": "Sun", "time": "Closed"}], "id": "7733100001", "name": "USPS COLLECTION BOX - BLUE BOX", "address": {"city": "COLDSPRING", "state": "TX", "street": "14231 STATE HIGHWAY 150 W", "postcode": "77331"}}},
{"geometry": {"type": "Point", "coordinates": [-95.1503693648, 30.6008213816]}, "type": "Feature", "properties": {"collection_times": [{"days": "Mon-Fri", "time": "5:00pm"}, {"days": "Sat", "time": "12:00pm"}, {"days": "Sun", "time": "Closed"}], "id": "7733100002", "name": "USPS COLLECTION BOX - PO LOBBY", "address": {"city": "COLDSPRING", "state": "TX", "street": "14231 STATE HIGHWAY 150 W", "postcode": "77331"}}},
{"geometry": {"type": "Point", "coordinates": [-94.6357113058, 30.6283661406]}, "type": "Feature", "properties": {"collection_times": [{"days": "Mon-Sat", "time": "11:00am"}, {"days": "Sun", "time": "Closed"}], "id": "7733200001", "name": "USPS COLLECTION BOX - BLUE BOX", "address": {"city": "DALLARDSVILLE", "state": "TX", "street": "9030 FM 1276", "postcode": "77332"}}},
{"geometry": {"type": "Point", "coordinates": [-94.6357113058, 30.6283661406]}, "type": "Feature", "properties": {"collection_times": [{"days": "Mon-Sat", "time": "11:00am"}, {"days": "Sun", "time": "Closed"}], "id": "7733200002", "name": "USPS COLLECTION BOX - PO LOBBY", "address": {"city": "DALLARDSVILLE", "state": "TX", "street": "9030 FM 1276", "postcode": "77332"}}},
{"geometry": {"type": "Point", "coordinates": [-95.7765817798, 30.3652793799]}, "type": "Feature", "properties": {"collection_times": [{"days": "Mon-Fri", "time": "2:45pm"}, {"days": "Sat", "time": "11:30am"}, {"days": "Sun", "time": "Closed"}], "id": "7733300001", "name": "USPS COLLECTION BOX - PO LOBBY", "address": {"city": "DOBBIN", "state": "TX", "street": "26087 W HIGHWAY 105", "postcode": "77333"}}},
{"geometry": {"type": "Point", "coordinates": [-95.3979269454, 30.7435221867]}, "type": "Feature", "properties": {"collection_times": [{"days": "Mon-Fri", "time": "12:45pm"}, {"days": "Sat", "time": "10:00am"}, {"days": "Sun", "time": "Closed"}], "id": "7733400002", "name": "USPS COLLECTION BOX - PO LOBBY", "address": {"city": "DODGE", "state": "TX", "street": "174 FM 405", "postcode": "77334"}}},
{"geometry": {"type": "Point", "coordinates": [-94.9358905009, 30.5961526821]}, "type": "Feature", "properties": {"collection_times": [{"days": "Mon-Fri", "time": "4:15pm"}, {"days": "Sat", "time": "10:00am"}, {"days": "Sun", "time": "Closed"}], "id": "7733500001", "name": "USPS COLLECTION BOX - BLUE BOX", "address": {"city": "GOODRICH", "state": "TX", "street": "7440 US HIGHWAY 59 S", "postcode": "77335"}}},
{"geometry": {"type": "Point", "coordinates": [-94.9358905009, 30.5961526821]}, "type": "Feature", "properties": {"collection_times": [{"days": "Mon-Fri", "time": "4:15pm"}, {"days": "Sat", "time": "10:00am"}, {"days": "Sun", "time": "Closed"}], "id": "7733500003", "name": "USPS COLLECTION BOX - PO LOBBY", "address": {"city": "GOODRICH", "state": "TX", "street": "7440 US HIGHWAY 59 S", "postcode": "77335"}}},
{"geometry": {"type": "Point", "coordinates": [-99.3330489019, 31.4627353752]}, "type": "Feature", "properties": {"collection_times": [{"days": "Mon-Fri", "time": "4:30pm"}, {"days": "Sat", "time": "12:00pm"}, {"days": "Sun", "time": "Closed"}], "id": "7733600001", "name": "USPS COLLECTION BOX - BLUE BOX", "address": {"city": "HUFFMAN", "state": "TX", "street": "24936 FM 2100 RD", "postcode": "77336"}}},
{"geometry": {"type": "Point", "coordinates": [-95.0896690983, 30.0345922841]}, "type": "Feature", "properties": {"collection_times": [{"days": "Mon-Fri", "time": "4:30pm"}, {"days": "Sat", "time": "12:00pm"}, {"days": "Sun", "time": "Closed"}], "id": "7733600004", "name": "USPS COLLECTION BOX - PO LOBBY", "address": {"city": "HUFFMAN", "state": "TX", "street": "24936 FM 2100 RD", "postcode": "77336"}}},
{"geometry": {"type": "Point", "coordinates": [-95.2550376634, 29.9991866256]}, "type": "Feature", "properties": {"collection_times": [{"days": "Mon-Fri", "time": "5:00pm"}, {"days": "Sat", "time": "3:00pm"}, {"days": "Sun", "time": "Closed"}], "id": "7733800001", "name": "USPS COLLECTION BOX - BLUE BOX", "address": {"city": "HUMBLE", "state": "TX", "street": "1202 1ST ST E", "postcode": "77338"}}},
{"geometry": {"type": "Point", "coordinates": [-95.2656689156, 30.0089909895]}, "type": "Feature", "properties": {"collection_times": [{"days": "Mon-Fri", "time": "3:30pm"}, {"days": "Sat-Sun", "time": "Closed"}], "id": "7733800003", "name": "USPS COLLECTION BOX - BLUE BOX", "address": {"city": "HUMBLE", "state": "TX", "street": "20202 HIGHWAY 59 N", "postcode": "77338"}}},
{"geometry": {"type": "Point", "coordinates": [-95.2751089282, 29.9951089661]}, "type": "Feature", "properties": {"collection_times": [{"days": "Mon-Fri", "time": "4:00pm"}, {"days": "Sat-Sun", "time": "Closed"}], "id": "7733800012", "name": "USPS COLLECTION BOX - BLUE BOX", "address": {"city": "HUMBLE", "state": "TX", "street": "18930 MEMORIAL DR", "postcode": "77338"}}},
{"geometry": {"type": "Point", "coordinates": [-95.2744405563, 30.0049819416]}, "type": "Feature", "properties": {"collection_times": [{"days": "Mon-Fri", "time": "4:00pm"}, {"days": "Sat-Sun", "time": "Closed"}], "id": "7733800014", "name": "USPS COLLECTION BOX - BLUE BOX", "address": {"city": "HUMBLE", "state": "TX", "street": "9950 FM 1960 BYPASS RD W", "postcode": "77338"}}},
{"geometry": {"type": "Point", "coordinates": [-95.2738947578, 30.0050404175]}, "type": "Feature", "properties": {"collection_times": [{"days": "Mon-Fri", "time": "3:45pm"}, {"days": "Sat-Sun", "time": "Closed"}], "id": "7733800034", "name": "USPS COLLECTION BOX - BLUE BOX", "address": {"city": "HUMBLE", "state": "TX", "street": "9805 FM 1960 BYPASS RD W", "postcode": "77338"}}},
{"geometry": {"type": "Point", "coordinates": [-95.2550376634, 29.9991866256]}, "type": "Feature", "properties": {"collection_times": [{"days": "Mon-Fri", "time": "5:00pm"}, {"days": "Sat", "time": "3:00pm"}, {"days": "Sun", "time": "Closed"}], "id": "7733800037", "name": "USPS COLLECTION BOX - BLUE BOX", "address": {"city": "HUMBLE", "state": "TX", "street": "1202 1ST ST E", "postcode": "77338"}}},
{"geometry": {"type": "Point", "coordinates": [-95.2678880702, 30.0066091465]}, "type": "Feature", "properties": {"collection_times": [{"days": "Mon-Fri", "time": "3:45pm"}, {"days": "Sat-Sun", "time": "Closed"}], "id": "7733800045", "name": "USPS COLLECTION BOX - BLUE BOX", "address": {"city": "HUMBLE", "state": "TX", "street": "20131 HIGHWAY 59 N", "postcode": "77338"}}},
{"geometry": {"type": "Point", "coordinates": [-95.2599611386, 29.9927596096]}, "type": "Feature", "properties": {"collection_times": [{"days": "Mon-Fri", "time": "4:15pm"}, {"days": "Sat", "time": "9:00am"}, {"days": "Sun", "time": "Closed"}], "id": "7733800048", "name": "USPS COLLECTION BOX - BLUE BOX", "address": {"city": "HUMBLE", "state": "TX", "street": "98 ISAACKS RD", "postcode": "77338"}}},
{"geometry": {"type": "Point", "coordinates": [-95.2550376634, 29.9991866256]}, "type": "Feature", "properties": {"collection_times": [{"days": "Mon-Fri", "time": "5:00pm"}, {"days": "Sat", "time": "3:00pm"}, {"days": "Sun", "time": "Closed"}], "id": "7733800049", "name": "USPS COLLECTION BOX - PO LOBBY", "address": {"city": "HUMBLE", "state": "TX", "street": "1202 1ST ST E", "postcode": "77338"}}},
{"geometry": {"type": "Point", "coordinates": [-95.2665372075, 29.9802876732]}, "type": "Feature", "properties": {"collection_times": [{"days": "Mon-Fri", "time": "4:00pm"}, {"days": "Sat-Sun", "time": "Closed"}], "id": "7733800056", "name": "USPS COLLECTION BOX - BLUE BOX", "address": {"city": "HUMBLE", "state": "TX", "street": "7900 WILL CLAYTON PRKWY", "postcode": "77338"}}},
{"geometry": {"type": "Point", "coordinates": [-95.2550376634, 29.9991866256]}, "type": "Feature", "properties": {"collection_times": [{"days": "Mon-Fri", "time": "5:00pm"}, {"days": "Sat", "time": "3:00pm"}, {"days": "Sun", "time": "Closed"}], "id": "7733800057", "name": "USPS COLLECTION BOX - APC", "address": {"city": "HUMBLE", "state": "TX", "street": "1202 1ST ST E", "postcode": "77338"}}},
{"geometry": {"type": "Point", "coordinates": [-95.2693111583, 30.0003456102]}, "type": "Feature", "properties": {"collection_times": [{"days": "Mon-Fri", "time": "4:15pm"}, {"days": "Sat-Sun", "time": "Closed"}], "id": "7733800058", "name": "USPS COLLECTION BOX - BLUE BOX", "address": {"city": "HUMBLE", "state": "TX", "street": "114 W HIGGINS ST", "postcode": "77338"}}},
{"geometry": {"type": "Point", "coordinates": [-95.2550376634, 29.9991866256]}, "type": "Feature", "properties": {"collection_times": [{"days": "Mon-Fri", "time": "5:00pm"}, {"days": "Sat", "time": "3:00pm"}, {"days": "Sun", "time": "Closed"}], "id": "7733800059", "name": "USPS COLLECTION BOX - PO LOBBY", "address": {"city": "HUMBLE", "state": "TX", "street": "1202 1ST ST E", "postcode": "77338"}}},
{"geometry": {"type": "Point", "coordinates": [-95.2911366385, 30.0050404175]}, "type": "Feature", "properties": {"collection_times": [{"days": "Mon-Fri", "time": "3:45pm"}, {"days": "Sat-Sun", "time": "Closed"}], "id": "7733800060", "name": "USPS COLLECTION BOX - BLUE BOX", "address": {"city": "HUMBLE", "state": "TX", "street": "8811 FM 1960 BYPASS RD W", "postcode": "77338"}}},
{"geometry": {"type": "Point", "coordinates": [-95.243709944, 30.0532825779]}, "type": "Feature", "properties": {"collection_times": [{"days": "Mon-Fri", "time": "3:15pm"}, {"days": "Sat-Sun", "time": "Closed"}], "id": "7733900002", "name": "USPS COLLECTION BOX - BLUE BOX", "address": {"city": "HUMBLE", "state": "TX", "street": "700 ROCKMEAD DR", "postcode": "77339"}}},
{"geometry": {"type": "Point", "coordinates": [-95.2417826082, 30.0533413041]}, "type": "Feature", "properties": {"collection_times": [{"days": "Mon-Fri", "time": "3:15pm"}, {"days": "Sat-Sun", "time": "Closed"}], "id": "7733900003", "name": "USPS COLLECTION BOX - BLUE BOX", "address": {"city": "HUMBLE", "state": "TX", "street": "900 ROCKMEAD DR", "postcode": "77339"}}},
{"geometry": {"type": "Point", "coordinates": [-95.2371700792, 30.0499725718]}, "type": "Feature", "properties": {"collection_times": [{"days": "Mon-Fri", "time": "3:00pm"}, {"days": "Sat-Sun", "time": "Closed"}], "id": "7733900004", "name": "USPS COLLECTION BOX - BLUE BOX", "address": {"city": "HUMBLE", "state": "TX", "street": "1319 KINGWOOD DR", "postcode": "77339"}}},
{"geometry": {"type": "Point", "coordinates": [-95.2138254121, 30.0684945699]}, "type": "Feature", "properties": {"collection_times": [{"days": "Mon-Fri", "time": "3:30pm"}, {"days": "Sat-Sun", "time": "Closed"}], "id": "7733900011", "name": "USPS COLLECTION BOX - BLUE BOX", "address": {"city": "HUMBLE", "state": "TX", "street": "2218 NORTHPARK DR", "postcode": "77339"}}},
{"geometry": {"type": "Point", "coordinates": [-95.2494370381, 30.059875547]}, "type": "Feature", "properties": {"collection_times": [{"days": "Mon-Fri", "time": "4:00pm"}, {"days": "Sat-Sun", "time": "Closed"}], "id": "7733900012", "name": "USPS COLLECTION BOX - BLUE BOX", "address": {"city": "HUMBLE", "state": "TX", "street": "23842 HIGHWAY 59 N", "postcode": "77339"}}},
{"geometry": {"type": "Point", "coordinates": [-95.2371700792, 30.0499725718]}, "type": "Feature", "properties": {"collection_times": [{"days": "Mon-Fri", "time": "3:00pm"}, {"days": "Sat-Sun", "time": "Closed"}], "id": "7733900020", "name": "USPS COLLECTION BOX - BLUE BOX", "address": {"city": "HUMBLE", "state": "TX", "street": "1319 KINGWOOD DR", "postcode": "77339"}}},
{"geometry": {"type": "Point", "coordinates": [-95.1858450066, 30.0496590276]}, "type": "Feature", "properties": {"collection_times": [{"days": "Mon-Fri", "time": "2:15pm"}, {"days": "Sat-Sun", "time": "Closed"}], "id": "7733900027", "name": "USPS COLLECTION BOX - BLUE BOX", "address": {"city": "HUMBLE", "state": "TX", "street": "4375 KINGWOOD DR", "postcode": "77339"}}},
{"geometry": {"type": "Point", "coordinates": [-95.1858450066, 30.0496590276]}, "type": "Feature", "properties": {"collection_times": [{"days": "Mon-Fri", "time": "2:15pm"}, {"days": "Sat-Sun", "time": "Closed"}], "id": "7733900029", "name": "USPS COLLECTION BOX - BLUE BOX", "address": {"city": "HUMBLE", "state": "TX", "street": "4375 KINGWOOD DR", "postcode": "77339"}}},
{"geometry": {"type": "Point", "coordinates": [-95.1876175715, 30.0556765354]}, "type": "Feature", "properties": {"collection_times": [{"days": "Mon-Sat", "time": "5:00pm"}, {"days": "Sun", "time": "Closed"}], "id": "7733900033", "name": "USPS COLLECTION BOX - BLUE BOX", "address": {"city": "HUMBLE", "state": "TX", "street": "4025 FEATHER LAKES WAY", "postcode": "77339"}}},
{"geometry": {"type": "Point", "coordinates": [-95.1876175715, 30.0556765354]}, "type": "Feature", "properties": {"collection_times": [{"days": "Mon-Sat", "time": "5:00pm"}, {"days": "Sun", "time": "Closed"}], "id": "7733900035", "name": "USPS COLLECTION BOX - PO LOBBY", "address": {"city": "HUMBLE", "state": "TX", "street": "4025 FEATHER LAKES WAY", "postcode": "77339"}}},
{"geometry": {"type": "Point", "coordinates": [-95.1876175715, 30.0556765354]}, "type": "Feature", "properties": {"collection_times": [{"days": "Mon-Sat", "time": "5:00pm"}, {"days": "Sun", "time": "Closed"}], "id": "7733900036", "name": "USPS COLLECTION BOX - APC", "address": {"city": "HUMBLE", "state": "TX", "street": "4025 FEATHER LAKES WAY", "postcode": "77339"}}},
{"geometry": {"type": "Point", "coordinates": [-95.5441694291, 30.6922709092]}, "type": "Feature", "properties": {"collection_times": [{"days": "Mon-Fri", "time": "5:00pm"}, {"days": "Sat", "time": "1:00pm"}, {"days": "Sun", "time": "Closed"}], "id": "7734000001", "name": "USPS COLLECTION BOX - BLUE BOX", "address": {"city": "HUNTSVILLE", "state": "TX", "street": "1315 10TH ST", "postcode": "77340"}}},
{"geometry": {"type": "Point", "coordinates": [-95.553716022, 30.6385830057]}, "type": "Feature", "properties": {"collection_times": [{"days": "Mon-Fri", "time": "3:45pm"}, {"days": "Sat-Sun", "time": "Closed"}], "id": "7734000006", "name": "USPS COLLECTION BOX - BLUE BOX", "address": {"city": "HUNTSVILLE", "state": "TX", "street": "#1 FINANCIAL PLZ", "postcode": "77340"}}},
{"geometry": {"type": "Point", "coordinates": [-95.5505678708, 30.7237893427]}, "type": "Feature", "properties": {"collection_times": [{"days": "Mon-Fri", "time": "4:30pm"}, {"days": "Sat-Sun", "time": "Closed"}], "id": "7734000014", "name": "USPS COLLECTION BOX - BLUE BOX", "address": {"city": "HUNTSVILLE", "state": "TX", "street": "1100 UNIVERSITY AVE", "postcode": "77340"}}},
{"geometry": {"type": "Point", "coordinates": [-95.5529518444, 30.7238688929]}, "type": "Feature", "properties": {"collection_times": [{"days": "Mon-Fri", "time": "4:30pm"}, {"days": "Sat-Sun", "time": "Closed"}], "id": "7734000016", "name": "USPS COLLECTION BOX - BLUE BOX", "address": {"city": "HUNTSVILLE", "state": "TX", "street": "1300 11TH ST", "postcode": "77340"}}},
{"geometry": {"type": "Point", "coordinates": [-95.5813342384, 30.7315408698]}, "type": "Feature", "properties": {"collection_times": [{"days": "Mon-Sat", "time": "1:00pm"}, {"days": "Sun", "time": "Closed"}], "id": "7734000018", "name": "USPS COLLECTION BOX - BLUE BOX", "address": {"city": "HUNTSVILLE", "state": "TX", "street": "1341 I-45 S", "postcode": "77340"}}},
{"geometry": {"type": "Point", "coordinates": [-95.5706563053, 30.7179660067]}, "type": "Feature", "properties": {"collection_times": [{"days": "Mon-Fri", "time": "3:45pm"}, {"days": "Sat-Sun", "time": "Closed"}], "id": "7734000032", "name": "USPS COLLECTION BOX - BLUE BOX", "address": {"city": "HUNTSVILLE", "state": "TX", "street": "1610 I-45", "postcode": "77340"}}},
{"geometry": {"type": "Point", "coordinates": [-95.553158831, 30.7250685258]}, "type": "Feature", "properties": {"collection_times": [{"days": "Mon-Fri", "time": "5:00pm"}, {"days": "Sat", "time": "1:00pm"}, {"days": "Sun", "time": "Closed"}], "id": "7734000035", "name": "USPS COLLECTION BOX - PO LOBBY", "address": {"city": "HUNTSVILLE", "state": "TX", "street": "1315 10TH ST", "postcode": "77340"}}},
{"geometry": {"type": "Point", "coordinates": [-95.5770272575, 30.7184681809]}, "type": "Feature", "properties": {"collection_times": [{"days": "Mon-Fri", "time": "5:00pm"}, {"days": "Sat", "time": "3:00pm"}, {"days": "Sun", "time": "Closed"}], "id": "7734000036", "name": "USPS COLLECTION BOX - BLUE BOX", "address": {"city": "HUNTSVILLE", "state": "TX", "street": "3190 HIGHWAY 30 W", "postcode": "77340"}}},
{"geometry": {"type": "Point", "coordinates": [-95.5770272575, 30.7184681809]}, "type": "Feature", "properties": {"collection_times": [{"days": "Mon-Fri", "time": "5:00pm"}, {"days": "Sat", "time": "3:00pm"}, {"days": "Sun", "time": "Closed"}], "id": "7734000039", "name": "USPS COLLECTION BOX - PO LOBBY", "address": {"city": "HUNTSVILLE", "state": "TX", "street": "3190 HIGHWAY 30 W", "postcode": "77340"}}},
{"geometry": {"type": "Point", "coordinates": [-95.184247011, 30.0499385238]}, "type": "Feature", "properties": {"collection_times": [{"days": "Mon-Fri", "time": "2:15pm"}, {"days": "Sat-Sun", "time": "Closed"}], "id": "7734500003", "name": "USPS COLLECTION BOX - BLUE BOX", "address": {"city": "HUMBLE", "state": "TX", "street": "4500 KINGWOOD DR", "postcode": "77345"}}},
{"geometry": {"type": "Point", "coordinates": [-95.16051, 29.99913]}, "type": "Feature", "properties": {"collection_times": [{"days": "Mon-Fri", "time": "2:30pm"}, {"days": "Sat-Sun", "time": "Closed"}], "id": "7734600001", "name": "USPS COLLECTION BOX - BLUE BOX", "address": {"city": "HUMBLE", "state": "TX", "street": "7702 FM 1960 RD E", "postcode": "77346"}}},
{"geometry": {"type": "Point", "coordinates": [-95.188426427, 29.9986885999]}, "type": "Feature", "properties": {"collection_times": [{"days": "Mon-Fri", "time": "2:00pm"}, {"days": "Sat-Sun", "time": "Closed"}], "id": "7734600002", "name": "USPS COLLECTION BOX - BLUE BOX", "address": {"city": "HUMBLE", "state": "TX", "street": "5616 FM 1960 RD E", "postcode": "77346"}}},
{"geometry": {"type": "Point", "coordinates": [-95.1737778462, 29.9983904943]}, "type": "Feature", "properties": {"collection_times": [{"days": "Mon-Fri", "time": "2:00pm"}, {"days": "Sat-Sun", "time": "Closed"}], "id": "7734600003", "name": "USPS COLLECTION BOX - BLUE BOX", "address": {"city": "HUMBLE", "state": "TX", "street": "6940 FM 1960 RD E", "postcode": "77346"}}},
{"geometry": {"type": "Point", "coordinates": [-95.1531311122, 30.0032944793]}, "type": "Feature", "properties": {"collection_times": [{"days": "Mon-Fri", "time": "2:30pm"}, {"days": "Sat-Sun", "time": "Closed"}], "id": "7734600007", "name": "USPS COLLECTION BOX - BLUE BOX", "address": {"city": "HUMBLE", "state": "TX", "street": "8072 FM 1960 RD E", "postcode": "77346"}}},
{"geometry": {"type": "Point", "coordinates": [-94.8715530932, 30.8193651115]}, "type": "Feature", "properties": {"collection_times": [{"days": "Mon-Fri", "time": "2:15pm"}, {"days": "Sat", "time": "10:30am"}, {"days": "Sun", "time": "Closed"}], "id": "7735000002", "name": "USPS COLLECTION BOX - PO LOBBY", "address": {"city": "LEGGETT", "state": "TX", "street": "9381 US HIGHWAY 59 N", "postcode": "77350"}}},
{"geometry": {"type": "Point", "coordinates": [-94.9485986595, 30.7107964386]}, "type": "Feature", "properties": {"collection_times": [{"days": "Mon-Fri", "time": "5:00pm"}, {"days": "Sat", "time": "3:45pm"}, {"days": "Sun", "time": "Closed"}], "id": "7735100001", "name": "USPS COLLECTION BOX - BLUE BOX", "address": {"city": "LIVINGSTON", "state": "TX", "street": "1325 W CHURCH ST", "postcode": "77351"}}},
{"geometry": {"type": "Point", "coordinates": [-94.9485986595, 30.7107964386]}, "type": "Feature", "properties": {"collection_times": [{"days": "Mon-Fri", "time": "5:00pm"}, {"days": "Sat", "time": "3:45pm"}, {"days": "Sun", "time": "Closed"}], "id": "7735100009", "name": "USPS COLLECTION BOX - PO LOBBY", "address": {"city": "LIVINGSTON", "state": "TX", "street": "1325 W CHURCH ST", "postcode": "77351"}}},
{"geometry": {"type": "Point", "coordinates": [-94.8092815068, 30.7050729027]}, "type": "Feature", "properties": {"collection_times": [{"days": "Mon-Fri", "time": "2:15pm"}, {"days": "Sat-Sun", "time": "Closed"}], "id": "7735100011", "name": "USPS COLLECTION BOX - BLUE BOX", "address": {"city": "LIVINGSTON", "state": "TX", "street": "101 LARK", "postcode": "77351"}}},
{"geometry": {"type": "Point", "coordinates": [-95.7456082291, 30.155771355]}, "type": "Feature", "properties": {"collection_times": [{"days": "Mon-Sat", "time": "4:30pm"}, {"days": "Sun", "time": "Closed"}], "id": "7735500006", "name": "USPS COLLECTION BOX - BLUE BOX", "address": {"city": "MAGNOLIA", "state": "TX", "street": "815 GOODSON RD", "postcode": "77355"}}},
{"geometry": {"type": "Point", "coordinates": [-95.7540357799, 30.2088731999]}, "type": "Feature", "properties": {"collection_times": [{"days": "Mon-Sat", "time": "4:30pm"}, {"days": "Sun", "time": "Closed"}], "id": "7735500007", "name": "USPS COLLECTION BOX - PO LOBBY", "address": {"city": "MAGNOLIA", "state": "TX", "street": "815 GOODSON RD", "postcode": "77355"}}},
{"geometry": {"type": "Point", "coordinates": [-95.6144915745, 30.3672418314]}, "type": "Feature", "properties": {"collection_times": [{"days": "Mon-Sat", "time": "1:30pm"}, {"days": "Sun", "time": "Closed"}], "id": "7735600002", "name": "USPS COLLECTION BOX - BLUE BOX", "address": {"city": "MONTGOMERY", "state": "TX", "street": "100 APRIL PARK DR", "postcode": "77356"}}},
{"geometry": {"type": "Point", "coordinates": [-95.6186520412, 30.3934077007]}, "type": "Feature", "properties": {"collection_times": [{"days": "Mon-Fri", "time": "1:30pm"}, {"days": "Sat-Sun", "time": "Closed"}], "id": "7735600003", "name": "USPS COLLECTION BOX - BLUE BOX", "address": {"city": "MONTGOMERY", "state": "TX", "street": "12800 WALDEN RD", "postcode": "77356"}}},
{"geometry": {"type": "Point", "coordinates": [-95.6364993431, 30.4042270434]}, "type": "Feature", "properties": {"collection_times": [{"days": "Mon-Fri", "time": "1:30pm"}, {"days": "Sat-Sun", "time": "Closed"}], "id": "7735600006", "name": "USPS COLLECTION BOX - BLUE BOX", "address": {"city": "MONTGOMERY", "state": "TX", "street": "15001 WALDEN RD", "postcode": "77356"}}},
{"geometry": {"type": "Point", "coordinates": [-95.7016903156, 30.3882530317]}, "type": "Feature", "properties": {"collection_times": [{"days": "Mon-Fri", "time": "3:00pm"}, {"days": "Sat", "time": "12:30pm"}, {"days": "Sun", "time": "Closed"}], "id": "7735600008", "name": "USPS COLLECTION BOX - BLUE BOX", "address": {"city": "MONTGOMERY", "state": "TX", "street": "21359 EVA ST", "postcode": "77356"}}},
{"geometry": {"type": "Point", "coordinates": [-95.6269463454, 30.4247993546]}, "type": "Feature", "properties": {"collection_times": [{"days": "Mon-Sat", "time": "1:30pm"}, {"days": "Sun", "time": "Closed"}], "id": "7735600010", "name": "USPS COLLECTION BOX - BLUE BOX", "address": {"city": "MONTGOMERY", "state": "TX", "street": "800 BENTWATER DR", "postcode": "77356"}}},
{"geometry": {"type": "Point", "coordinates": [-95.691459172, 30.393426104]}, "type": "Feature", "properties": {"collection_times": [{"days": "Mon-Sat", "time": "12:00pm"}, {"days": "Sun", "time": "Closed"}], "id": "7735600011", "name": "USPS COLLECTION BOX - BLUE BOX", "address": {"city": "MONTGOMERY", "state": "TX", "street": "202 BESSIE PRICE OWENS DR", "postcode": "77356"}}},
{"geometry": {"type": "Point", "coordinates": [-95.6790843766, 30.3877433223]}, "type": "Feature", "properties": {"collection_times": [{"days": "Mon-Fri", "time": "4:30pm"}, {"days": "Sat", "time": "12:30pm"}, {"days": "Sun", "time": "Closed"}], "id": "7735600012", "name": "USPS COLLECTION BOX - PO LOBBY", "address": {"city": "MONTGOMERY", "state": "TX", "street": "20821 EVA ST STE H", "postcode": "77356"}}},
{"geometry": {"type": "Point", "coordinates": [-95.6975747669, 30.4449129591]}, "type": "Feature", "properties": {"collection_times": [{"days": "Mon-Fri", "time": "1:30pm"}, {"days": "Sat", "time": "12:00pm"}, {"days": "Sun", "time": "Closed"}], "id": "7735600013", "name": "USPS COLLECTION BOX - BLUE BOX", "address": {"city": "MONTGOMERY", "state": "TX", "street": "610 NAVAJO ST", "postcode": "77356"}}},
{"geometry": {"type": "Point", "coordinates": [-95.6790843766, 30.3877433223]}, "type": "Feature", "properties": {"collection_times": [{"days": "Mon-Fri", "time": "4:30pm"}, {"days": "Sat", "time": "12:30pm"}, {"days": "Sun", "time": "Closed"}], "id": "7735600014", "name": "USPS COLLECTION BOX - BLUE BOX", "address": {"city": "MONTGOMERY", "state": "TX", "street": "20821 EVA ST STE H", "postcode": "77356"}}},
{"geometry": {"type": "Point", "coordinates": [-95.652041746, 30.382517147]}, "type": "Feature", "properties": {"collection_times": [{"days": "Mon-Sat", "time": "12:00pm"}, {"days": "Sun", "time": "Closed"}], "id": "7735600015", "name": "USPS COLLECTION BOX - BLUE BOX", "address": {"city": "MONTGOMERY", "state": "TX", "street": "18700 HIGHWAY 105 W", "postcode": "77356"}}},
{"geometry": {"type": "Point", "coordinates": [-95.6790843766, 30.3877433223]}, "type": "Feature", "properties": {"collection_times": [{"days": "Mon-Fri", "time": "4:30pm"}, {"days": "Sat", "time": "12:30pm"}, {"days": "Sun", "time": "Closed"}], "id": "7735600016", "name": "USPS COLLECTION BOX - PO LOBBY", "address": {"city": "MONTGOMERY", "state": "TX", "street": "20821 EVA ST STE H", "postcode": "77356"}}},
{"geometry": {"type": "Point", "coordinates": [-95.221784968, 30.1451231493]}, "type": "Feature", "properties": {"collection_times": [{"days": "Mon-Fri", "time": "4:00pm"}, {"days": "Sat", "time": "10:30am"}, {"days": "Sun", "time": "Closed"}], "id": "7735700002", "name": "USPS COLLECTION BOX - BLUE BOX", "address": {"city": "NEW CANEY", "state": "TX", "street": "20811 US HIGHWAY 59", "postcode": "77357"}}},
{"geometry": {"type": "Point", "coordinates": [-95.2261888431, 30.1395092181]}, "type": "Feature", "properties": {"collection_times": [{"days": "Mon-Fri", "time": "11:30am"}, {"days": "Sat-Sun", "time": "Closed"}], "id": "7735700003", "name": "USPS COLLECTION BOX - BLUE BOX", "address": {"city": "NEW CANEY", "state": "TX", "street": "21130 US HIGHWAY 59", "postcode": "77357"}}},
{"geometry": {"type": "Point", "coordinates": [-95.221782321, 30.1451306391]}, "type": "Feature", "properties": {"collection_times": [{"days": "Mon-Fri", "time": "4:00pm"}, {"days": "Sat", "time": "10:30am"}, {"days": "Sun", "time": "Closed"}], "id": "7735700005", "name": "USPS COLLECTION BOX - PO LOBBY", "address": {"city": "NEW CANEY", "state": "TX", "street": "20811 US HIGHWAY 59", "postcode": "77357"}}},
{"geometry": {"type": "Point", "coordinates": [-95.221782321, 30.1451306391]}, "type": "Feature", "properties": {"collection_times": [{"days": "Mon-Fri", "time": "4:00pm"}, {"days": "Sat", "time": "10:30am"}, {"days": "Sun", "time": "Closed"}], "id": "7735700007", "name": "USPS COLLECTION BOX - PO LOBBY", "address": {"city": "NEW CANEY", "state": "TX", "street": "20811 US HIGHWAY 59", "postcode": "77357"}}},
{"geometry": {"type": "Point", "coordinates": [-95.4808241718, 30.5466009559]}, "type": "Feature", "properties": {"collection_times": [{"days": "Mon-Fri", "time": "4:30pm"}, {"days": "Sat", "time": "10:30am"}, {"days": "Sun", "time": "Closed"}], "id": "7735800001", "name": "USPS COLLECTION BOX - BLUE BOX", "address": {"city": "NEW WAVERLY", "state": "TX", "street": "9301 STATE HIGHWAY 75 S", "postcode": "77358"}}},
{"geometry": {"type": "Point", "coordinates": [-95.4808241718, 30.5466009559]}, "type": "Feature", "properties": {"collection_times": [{"days": "Mon-Fri", "time": "4:30pm"}, {"days": "Sat", "time": "10:30am"}, {"days": "Sun", "time": "Closed"}], "id": "7735800003", "name": "USPS COLLECTION BOX - PO LOBBY", "address": {"city": "NEW WAVERLY", "state": "TX", "street": "9301 STATE HIGHWAY 75 S", "postcode": "77358"}}},
{"geometry": {"type": "Point", "coordinates": [-95.4808241718, 30.5466009559]}, "type": "Feature", "properties": {"collection_times": [{"days": "Mon-Fri", "time": "4:30pm"}, {"days": "Sat", "time": "10:30am"}, {"days": "Sun", "time": "Closed"}], "id": "7735800004", "name": "USPS COLLECTION BOX - PO LOBBY", "address": {"city": "NEW WAVERLY", "state": "TX", "street": "9301 STATE HIGHWAY 75 S", "postcode": "77358"}}},
{"geometry": {"type": "Point", "coordinates": [-95.305421054, 30.7006997264]}, "type": "Feature", "properties": {"collection_times": [{"days": "Mon-Fri", "time": "4:30pm"}, {"days": "Sat", "time": "10:30am"}, {"days": "Sun", "time": "Closed"}], "id": "7735900001", "name": "USPS COLLECTION BOX - BLUE BOX", "address": {"city": "OAKHURST", "state": "TX", "street": "1100 HIGHWAY 190 W", "postcode": "77359"}}},
{"geometry": {"type": "Point", "coordinates": [-95.305421054, 30.7006997264]}, "type": "Feature", "properties": {"collection_times": [{"days": "Mon-Fri", "time": "12:45pm"}, {"days": "Sat", "time": "10:30am"}, {"days": "Sun", "time": "Closed"}], "id": "7735900002", "name": "USPS COLLECTION BOX - PO LOBBY", "address": {"city": "OAKHURST", "state": "TX", "street": "1100 HIGHWAY 190 W", "postcode": "77359"}}},
{"geometry": {"type": "Point", "coordinates": [-95.1172448705, 30.8117188615]}, "type": "Feature", "properties": {"collection_times": [{"days": "Mon-Fri", "time": "4:30pm"}, {"days": "Sat", "time": "12:00pm"}, {"days": "Sun", "time": "Closed"}], "id": "7736000002", "name": "USPS COLLECTION BOX - PO LOBBY", "address": {"city": "ONALASKA", "state": "TX", "street": "203 N FM 356", "postcode": "77360"}}},
{"geometry": {"type": "Point", "coordinates": [-95.1172448705, 30.8117188615]}, "type": "Feature", "properties": {"collection_times": [{"days": "Mon-Fri", "time": "4:30pm"}, {"days": "Sat", "time": "12:00pm"}, {"days": "Sun", "time": "Closed"}], "id": "7736000003", "name": "USPS COLLECTION BOX - PO LOBBY", "address": {"city": "ONALASKA", "state": "TX", "street": "203 N FM 356", "postcode": "77360"}}},
{"geometry": {"type": "Point", "coordinates": [-95.1172448705, 30.8117188615]}, "type": "Feature", "properties": {"collection_times": [{"days": "Mon-Fri", "time": "4:30pm"}, {"days": "Sat", "time": "12:00pm"}, {"days": "Sun", "time": "Closed"}], "id": "7736000004", "name": "USPS COLLECTION BOX - BLUE BOX", "address": {"city": "ONALASKA", "state": "TX", "street": "203 N FM 356", "postcode": "77360"}}},
{"geometry": {"type": "Point", "coordinates": [-95.6731418118, 30.1632963528]}, "type": "Feature", "properties": {"collection_times": [{"days": "Mon-Fri", "time": "4:45pm"}, {"days": "Sat", "time": "11:00am"}, {"days": "Sun", "time": "Closed"}], "id": "7736200000", "name": "USPS COLLECTION BOX - BLUE BOX", "address": {"city": "PINEHURST", "state": "TX", "street": "34635 WRIGHT RD", "postcode": "77362"}}},
{"geometry": {"type": "Point", "coordinates": [-95.6731418118, 30.1632963528]}, "type": "Feature", "properties": {"collection_times": [{"days": "Mon-Fri", "time": "4:30pm"}, {"days": "Sat-Sun", "time": "Closed"}], "id": "7736200001", "name": "USPS COLLECTION BOX - PO LOBBY", "address": {"city": "PINEHURST", "state": "TX", "street": "34635 WRIGHT RD", "postcode": "77362"}}},
{"geometry": {"type": "Point", "coordinates": [-95.6731418118, 30.1632963528]}, "type": "Feature", "properties": {"collection_times": [{"days": "Mon-Fri", "time": "4:30pm"}, {"days": "Sat-Sun", "time": "Closed"}], "id": "7736200002", "name": "USPS COLLECTION BOX - PO LOBBY", "address": {"city": "PINEHURST", "state": "TX", "street": "34635 WRIGHT RD", "postcode": "77362"}}},
{"geometry": {"type": "Point", "coordinates": [-95.8502537451, 30.3243764002]}, "type": "Feature", "properties": {"collection_times": [{"days": "Mon-Fri", "time": "3:30pm"}, {"days": "Sat", "time": "12:00pm"}, {"days": "Sun", "time": "Closed"}], "id": "7736300001", "name": "USPS COLLECTION BOX - BLUE BOX", "address": {"city": "PLANTERSVILLE", "state": "TX", "street": "8625 POST OFFICE RD", "postcode": "77363"}}},
{"geometry": {"type": "Point", "coordinates": [-95.8502537451, 30.3243764002]}, "type": "Feature", "properties": {"collection_times": [{"days": "Mon-Fri", "time": "3:30pm"}, {"days": "Sat", "time": "12:00pm"}, {"days": "Sun", "time": "Closed"}], "id": "7736300002", "name": "USPS COLLECTION BOX - PO LOBBY", "address": {"city": "PLANTERSVILLE", "state": "TX", "street": "8625 POST OFFICE RD", "postcode": "77363"}}},
{"geometry": {"type": "Point", "coordinates": [-95.2188854707, 30.7475472179]}, "type": "Feature", "properties": {"collection_times": [{"days": "Mon-Fri", "time": "4:30pm"}, {"days": "Sat", "time": "12:00pm"}, {"days": "Sun", "time": "Closed"}], "id": "7736400001", "name": "USPS COLLECTION BOX - BLUE BOX", "address": {"city": "POINTBLANK", "state": "TX", "street": "30 S COUNTS RD", "postcode": "77364"}}},
{"geometry": {"type": "Point", "coordinates": [-95.2188854707, 30.7475472179]}, "type": "Feature", "properties": {"collection_times": [{"days": "Mon-Fri", "time": "4:30pm"}, {"days": "Sat", "time": "12:00pm"}, {"days": "Sun", "time": "Closed"}], "id": "7736400002", "name": "USPS COLLECTION BOX - PO LOBBY", "address": {"city": "POINTBLANK", "state": "TX", "street": "30 S COUNTS RD", "postcode": "77364"}}},
{"geometry": {"type": "Point", "coordinates": [-95.3100795611, 30.1587169228]}, "type": "Feature", "properties": {"collection_times": [{"days": "Mon-Sat", "time": "11:45am"}, {"days": "Sun", "time": "Closed"}], "id": "7736500003", "name": "USPS COLLECTION BOX - BLUE BOX", "address": {"city": "PORTER", "state": "TX", "street": "20110 FM 1314 RD", "postcode": "77365"}}},
{"geometry": {"type": "Point", "coordinates": [-95.235821678, 30.1049526208]}, "type": "Feature", "properties": {"collection_times": [{"days": "Mon-Sat", "time": "12:30pm"}, {"days": "Sun", "time": "Closed"}], "id": "7736500008", "name": "USPS COLLECTION BOX - BLUE BOX", "address": {"city": "PORTER", "state": "TX", "street": "23611 HIGHWAY 59", "postcode": "77365"}}},
{"geometry": {"type": "Point", "coordinates": [-95.2457762777, 30.1065957508]}, "type": "Feature", "properties": {"collection_times": [{"days": "Mon-Fri", "time": "5:00pm"}, {"days": "Sat", "time": "12:00pm"}, {"days": "Sun", "time": "Closed"}], "id": "7736500012", "name": "USPS COLLECTION BOX - BLUE BOX", "address": {"city": "PORTER", "state": "TX", "street": "23550 PARTNERS WAY", "postcode": "77365"}}},
{"geometry": {"type": "Point", "coordinates": [-95.2457762777, 30.1065957508]}, "type": "Feature", "properties": {"collection_times": [{"days": "Mon-Fri", "time": "5:00pm"}, {"days": "Sat", "time": "12:00pm"}, {"days": "Sun", "time": "Closed"}], "id": "7736500015", "name": "USPS COLLECTION BOX - PO LOBBY", "address": {"city": "PORTER", "state": "TX", "street": "23550 PARTNERS WAY", "postcode": "77365"}}},
{"geometry": {"type": "Point", "coordinates": [-95.2457762777, 30.1065957508]}, "type": "Feature", "properties": {"collection_times": [{"days": "Mon-Fri", "time": "5:00pm"}, {"days": "Sat", "time": "12:00pm"}, {"days": "Sun", "time": "Closed"}], "id": "7736500016", "name": "USPS COLLECTION BOX - PO LOBBY", "address": {"city": "PORTER", "state": "TX", "street": "23550 PARTNERS WAY", "postcode": "77365"}}},
{"geometry": {"type": "Point", "coordinates": [-95.403843082, 30.852180833]}, "type": "Feature", "properties": {"collection_times": [{"days": "Mon-Fri", "time": "4:30pm"}, {"days": "Sat", "time": "11:30am"}, {"days": "Sun", "time": "Closed"}], "id": "7736700001", "name": "USPS COLLECTION BOX - BLUE BOX", "address": {"city": "RIVERSIDE", "state": "TX", "street": "3782B HIGHWAY 19", "postcode": "77367"}}},
{"geometry": {"type": "Point", "coordinates": [-95.403843082, 30.852180833]}, "type": "Feature", "properties": {"collection_times": [{"days": "Mon-Fri", "time": "4:30pm"}, {"days": "Sat", "time": "11:30am"}, {"days": "Sun", "time": "Closed"}], "id": "7736700002", "name": "USPS COLLECTION BOX - PO LOBBY", "address": {"city": "RIVERSIDE", "state": "TX", "street": "3782B HIGHWAY 19", "postcode": "77367"}}},
{"geometry": {"type": "Point", "coordinates": [-94.8412846893, 30.4513690061]}, "type": "Feature", "properties": {"collection_times": [{"days": "Mon-Fri", "time": "1:45pm"}, {"days": "Sat", "time": "10:45am"}, {"days": "Sun", "time": "Closed"}], "id": "7736800001", "name": "USPS COLLECTION BOX - BLUE BOX", "address": {"city": "ROMAYOR", "state": "TX", "street": "336 COUNTY ROAD 2150", "postcode": "77368"}}},
{"geometry": {"type": "Point", "coordinates": [-94.8431158267, 30.4510318588]}, "type": "Feature", "properties": {"collection_times": [{"days": "Mon-Fri", "time": "1:45pm"}, {"days": "Sat", "time": "11:00am"}, {"days": "Sun", "time": "Closed"}], "id": "7736800002", "name": "USPS COLLECTION BOX - PO LOBBY", "address": {"city": "ROMAYOR", "state": "TX", "street": "336 COUNTY ROAD 2150", "postcode": "77368"}}},
{"geometry": {"type": "Point", "coordinates": [-94.769337633, 30.4536718622]}, "type": "Feature", "properties": {"collection_times": [{"days": "Mon-Fri", "time": "4:00pm"}, {"days": "Sat", "time": "10:00am"}, {"days": "Sun", "time": "Closed"}], "id": "7736900001", "name": "USPS COLLECTION BOX - BLUE BOX", "address": {"city": "RYE", "state": "TX", "street": "31422 HIGHWAY 146 N", "postcode": "77369"}}},
{"geometry": {"type": "Point", "coordinates": [-94.7669293264, 30.4406136636]}, "type": "Feature", "properties": {"collection_times": [{"days": "Mon-Fri", "time": "4:00pm"}, {"days": "Sat", "time": "10:00am"}, {"days": "Sun", "time": "Closed"}], "id": "7736900002", "name": "USPS COLLECTION BOX - PO LOBBY", "address": {"city": "RYE", "state": "TX", "street": "31422 HIGHWAY 146 N", "postcode": "77369"}}},
{"geometry": {"type": "Point", "coordinates": [-94.9979376086, 30.4956572843]}, "type": "Feature", "properties": {"collection_times": [{"days": "Mon-Fri", "time": "4:00pm"}, {"days": "Sat", "time": "1:00pm"}, {"days": "Sun", "time": "Closed"}], "id": "7737100001", "name": "USPS COLLECTION BOX - BLUE BOX", "address": {"city": "SHEPHERD", "state": "TX", "street": "1350 S BYRD AVE", "postcode": "77371"}}},
{"geometry": {"type": "Point", "coordinates": [-94.9979376086, 30.4956572843]}, "type": "Feature", "properties": {"collection_times": [{"days": "Mon-Fri", "time": "4:00pm"}, {"days": "Sat", "time": "1:00pm"}, {"days": "Sun", "time": "Closed"}], "id": "7737100002", "name": "USPS COLLECTION BOX - PO LOBBY", "address": {"city": "SHEPHERD", "state": "TX", "street": "1350 S BYRD AVE", "postcode": "77371"}}},
{"geometry": {"type": "Point", "coordinates": [-95.1588240619, 30.233116761]}, "type": "Feature", "properties": {"collection_times": [{"days": "Mon-Fri", "time": "4:00pm"}, {"days": "Sat", "time": "1:00pm"}, {"days": "Sun", "time": "Closed"}], "id": "7737200001", "name": "USPS COLLECTION BOX - BLUE BOX", "address": {"city": "SPLENDORA", "state": "TX", "street": "26130 FM 2090 RD E", "postcode": "77372"}}},
{"geometry": {"type": "Point", "coordinates": [-95.1588240619, 30.233116761]}, "type": "Feature", "properties": {"collection_times": [{"days": "Mon-Fri", "time": "4:00pm"}, {"days": "Sat", "time": "12:30pm"}, {"days": "Sun", "time": "Closed"}], "id": "7737200006", "name": "USPS COLLECTION BOX - PO LOBBY", "address": {"city": "SPLENDORA", "state": "TX", "street": "26130 FM 2090 RD E", "postcode": "77372"}}},
{"geometry": {"type": "Point", "coordinates": [-95.3834667024, 30.0427766232]}, "type": "Feature", "properties": {"collection_times": [{"days": "Mon-Fri", "time": "3:45pm"}, {"days": "Sat-Sun", "time": "Closed"}], "id": "7737300003", "name": "USPS COLLECTION BOX - BLUE BOX", "address": {"city": "SPRING", "state": "TX", "street": "22630 ALDINE WESTFIELD RD", "postcode": "77373"}}},
{"geometry": {"type": "Point", "coordinates": [-95.3476314105, 30.044638275]}, "type": "Feature", "properties": {"collection_times": [{"days": "Mon-Fri", "time": "3:30pm"}, {"days": "Sat-Sun", "time": "Closed"}], "id": "7737300004", "name": "USPS COLLECTION BOX - BLUE BOX", "address": {"city": "SPRING", "state": "TX", "street": "5671 TREASCHWIG RD", "postcode": "77373"}}},
{"geometry": {"type": "Point", "coordinates": [-95.4333427023, 30.0770430699]}, "type": "Feature", "properties": {"collection_times": [{"days": "Mon-Sat", "time": "5:00pm"}, {"days": "Sun", "time": "Closed"}], "id": "7737300010", "name": "USPS COLLECTION BOX - BLUE BOX", "address": {"city": "SPRING", "state": "TX", "street": "1411 WUNSCHE LOOP", "postcode": "77373"}}},
{"geometry": {"type": "Point", "coordinates": [-95.4333427023, 30.0770430699]}, "type": "Feature", "properties": {"collection_times": [{"days": "Mon-Sat", "time": "5:00pm"}, {"days": "Sun", "time": "Closed"}], "id": "7737300013", "name": "USPS COLLECTION BOX - PO LOBBY", "address": {"city": "SPRING", "state": "TX", "street": "1411 WUNSCHE LOOP", "postcode": "77373"}}},
{"geometry": {"type": "Point", "coordinates": [-95.4333427023, 30.0770430699]}, "type": "Feature", "properties": {"collection_times": [{"days": "Mon-Sat", "time": "5:00pm"}, {"days": "Sun", "time": "Closed"}], "id": "7737300015", "name": "USPS COLLECTION BOX - PO LOBBY", "address": {"city": "SPRING", "state": "TX", "street": "1411 WUNSCHE LOOP", "postcode": "77373"}}},
{"geometry": {"type": "Point", "coordinates": [-95.4333427023, 30.0770430699]}, "type": "Feature", "properties": {"collection_times": [{"days": "Mon-Sat", "time": "5:00pm"}, {"days": "Sun", "time": "Closed"}], "id": "7737300016", "name": "USPS COLLECTION BOX - APC", "address": {"city": "SPRING", "state": "TX", "street": "1411 WUNSCHE LOOP", "postcode": "77373"}}},
{"geometry": {"type": "Point", "coordinates": [-94.6353589511, 30.3998570247]}, "type": "Feature", "properties": {"collection_times": [{"days": "Mon-Fri", "time": "11:45am"}, {"days": "Sat", "time": "10:30am"}, {"days": "Sun", "time": "Closed"}], "id": "7737400001", "name": "USPS COLLECTION BOX - BLUE BOX", "address": {"city": "THICKET", "state": "TX", "street": "23394 FM 1293", "postcode": "77374"}}},
{"geometry": {"type": "Point", "coordinates": [-94.6353589511, 30.3998570247]}, "type": "Feature", "properties": {"collection_times": [{"days": "Mon-Fri", "time": "11:45am"}, {"days": "Sat", "time": "10:30am"}, {"days": "Sun", "time": "Closed"}], "id": "7737400002", "name": "USPS COLLECTION BOX - PO LOBBY", "address": {"city": "THICKET", "state": "TX", "street": "23394 FM 1293", "postcode": "77374"}}},
{"geometry": {"type": "Point", "coordinates": [-95.6248697465, 30.0888388887]}, "type": "Feature", "properties": {"collection_times": [{"days": "Mon-Fri", "time": "3:30pm"}, {"days": "Sat-Sun", "time": "Closed"}], "id": "7737500002", "name": "USPS COLLECTION BOX - BLUE BOX", "address": {"city": "TOMBALL", "state": "TX", "street": "900 GRAHAM DR", "postcode": "77375"}}},
{"geometry": {"type": "Point", "coordinates": [-95.6239280382, 30.0899467863]}, "type": "Feature", "properties": {"collection_times": [{"days": "Mon-Fri", "time": "3:30pm"}, {"days": "Sat-Sun", "time": "Closed"}], "id": "7737500003", "name": "USPS COLLECTION BOX - BLUE BOX", "address": {"city": "TOMBALL", "state": "TX", "street": "425 HOLDERRIETH BLVD", "postcode": "77375"}}},
{"geometry": {"type": "Point", "coordinates": [-95.6284147453, 30.0771950594]}, "type": "Feature", "properties": {"collection_times": [{"days": "Mon-Fri", "time": "3:15pm"}, {"days": "Sat-Sun", "time": "Closed"}], "id": "7737500008", "name": "USPS COLLECTION BOX - BLUE BOX", "address": {"city": "TOMBALL", "state": "TX", "street": "27708 TOMBALL PKWY", "postcode": "77375"}}},
{"geometry": {"type": "Point", "coordinates": [-95.6321252986, 30.088579895]}, "type": "Feature", "properties": {"collection_times": [{"days": "Mon-Fri", "time": "3:15pm"}, {"days": "Sat-Sun", "time": "Closed"}], "id": "7737500009", "name": "USPS COLLECTION BOX - BLUE BOX", "address": {"city": "TOMBALL", "state": "TX", "street": "28597 TOMBALL PKWY", "postcode": "77375"}}},
{"geometry": {"type": "Point", "coordinates": [-95.6425616226, 30.113735699]}, "type": "Feature", "properties": {"collection_times": [{"days": "Mon-Fri", "time": "3:45pm"}, {"days": "Sat-Sun", "time": "Closed"}], "id": "7737500010", "name": "USPS COLLECTION BOX - BLUE BOX", "address": {"city": "TOMBALL", "state": "TX", "street": "30555 TOMBALL PKWY", "postcode": "77375"}}},
{"geometry": {"type": "Point", "coordinates": [-95.6182332737, 30.0962247495]}, "type": "Feature", "properties": {"collection_times": [{"days": "Mon-Fri", "time": "2:45pm"}, {"days": "Sat-Sun", "time": "Closed"}], "id": "7737500012", "name": "USPS COLLECTION BOX - BLUE BOX", "address": {"city": "TOMBALL", "state": "TX", "street": "500 W MAIN ST", "postcode": "77375"}}},
{"geometry": {"type": "Point", "coordinates": [-95.628284876, 30.0913213846]}, "type": "Feature", "properties": {"collection_times": [{"days": "Mon-Fri", "time": "3:30pm"}, {"days": "Sat-Sun", "time": "Closed"}], "id": "7737500013", "name": "USPS COLLECTION BOX - BLUE BOX", "address": {"city": "TOMBALL", "state": "TX", "street": "1200 W MAIN ST", "postcode": "77375"}}},
{"geometry": {"type": "Point", "coordinates": [-95.6333100857, 30.0868793737]}, "type": "Feature", "properties": {"collection_times": [{"days": "Mon-Fri", "time": "3:15pm"}, {"days": "Sat-Sun", "time": "Closed"}], "id": "7737500019", "name": "USPS COLLECTION BOX - BLUE BOX", "address": {"city": "TOMBALL", "state": "TX", "street": "14011 PARK DR", "postcode": "77375"}}},
{"geometry": {"type": "Point", "coordinates": [-95.6275890149, 30.0753711813]}, "type": "Feature", "properties": {"collection_times": [{"days": "Mon-Fri", "time": "3:15pm"}, {"days": "Sat-Sun", "time": "Closed"}], "id": "7737500020", "name": "USPS COLLECTION BOX - BLUE BOX", "address": {"city": "TOMBALL", "state": "TX", "street": "27650 TOMBALL PKWY", "postcode": "77375"}}},
{"geometry": {"type": "Point", "coordinates": [-95.6391343337, 30.1052176781]}, "type": "Feature", "properties": {"collection_times": [{"days": "Mon-Fri", "time": "3:45pm"}, {"days": "Sat-Sun", "time": "Closed"}], "id": "7737500021", "name": "USPS COLLECTION BOX - BLUE BOX", "address": {"city": "TOMBALL", "state": "TX", "street": "29926 TOMBALL PKWY", "postcode": "77375"}}},
{"geometry": {"type": "Point", "coordinates": [-95.6248176233, 30.0946940006]}, "type": "Feature", "properties": {"collection_times": [{"days": "Mon-Fri", "time": "5:00pm"}, {"days": "Sat", "time": "2:00pm"}, {"days": "Sun", "time": "Closed"}], "id": "7737500023", "name": "USPS COLLECTION BOX - BLUE BOX", "address": {"city": "TOMBALL", "state": "TX", "street": "122 N HOLDERRIETH BLVD", "postcode": "77375"}}},
{"geometry": {"type": "Point", "coordinates": [-95.6248176233, 30.0946940006]}, "type": "Feature", "properties": {"collection_times": [{"days": "Mon-Fri", "time": "5:00pm"}, {"days": "Sat", "time": "2:00pm"}, {"days": "Sun", "time": "Closed"}], "id": "7737500027", "name": "USPS COLLECTION BOX - PO LOBBY", "address": {"city": "TOMBALL", "state": "TX", "street": "122 N HOLDERRIETH BLVD", "postcode": "77375"}}},
{"geometry": {"type": "Point", "coordinates": [-95.5929899109, 30.0859731867]}, "type": "Feature", "properties": {"collection_times": [{"days": "Mon-Fri", "time": "5:00pm"}, {"days": "Sat-Sun", "time": "Closed"}], "id": "7737500030", "name": "USPS COLLECTION BOX - BLUE BOX", "address": {"city": "TOMBALL", "state": "TX", "street": "122 N HOLDERRIETH BLVD", "postcode": "77375"}}},
{"geometry": {"type": "Point", "coordinates": [-95.6264678511, 30.0904672883]}, "type": "Feature", "properties": {"collection_times": [{"days": "Mon-Fri", "time": "3:30pm"}, {"days": "Sat-Sun", "time": "Closed"}], "id": "7737500031", "name": "USPS COLLECTION BOX - BLUE BOX", "address": {"city": "TOMBALL", "state": "TX", "street": "1101 ALMA ST", "postcode": "77375"}}},
{"geometry": {"type": "Point", "coordinates": [-95.6248176233, 30.0946940006]}, "type": "Feature", "properties": {"collection_times": [{"days": "Mon-Fri", "time": "5:00pm"}, {"days": "Sat", "time": "2:00pm"}, {"days": "Sun", "time": "Closed"}], "id": "7737500034", "name": "USPS COLLECTION BOX - APC", "address": {"city": "TOMBALL", "state": "TX", "street": "122 N HOLDERRIETH BLVD", "postcode": "77375"}}},
{"geometry": {"type": "Point", "coordinates": [-94.6749467338, 30.4350813436]}, "type": "Feature", "properties": {"collection_times": [{"days": "Mon-Fri", "time": "11:45am"}, {"days": "Sat", "time": "10:30am"}, {"days": "Sun", "time": "Closed"}], "id": "7737600001", "name": "USPS COLLECTION BOX - BLUE BOX", "address": {"city": "VOTAW", "state": "TX", "street": "21598 OLD HWY", "postcode": "77376"}}},
{"geometry": {"type": "Point", "coordinates": [-94.6749467338, 30.4350813436]}, "type": "Feature", "properties": {"collection_times": [{"days": "Mon-Fri", "time": "11:45am"}, {"days": "Sat", "time": "10:30am"}, {"days": "Sun", "time": "Closed"}], "id": "7737600002", "name": "USPS COLLECTION BOX - PO LOBBY", "address": {"city": "VOTAW", "state": "TX", "street": "21598 OLD HWY", "postcode": "77376"}}},
{"geometry": {"type": "Point", "coordinates": [-95.484441662, 30.4274268798]}, "type": "Feature", "properties": {"collection_times": [{"days": "Mon-Fri", "time": "5:00pm"}, {"days": "Sat", "time": "3:00pm"}, {"days": "Sun", "time": "Closed"}], "id": "7737800001", "name": "USPS COLLECTION BOX - BLUE BOX", "address": {"city": "WILLIS", "state": "TX", "street": "609 N CAMPBELL ST", "postcode": "77378"}}},
{"geometry": {"type": "Point", "coordinates": [-95.4785739203, 30.4203056564]}, "type": "Feature", "properties": {"collection_times": [{"days": "Mon-Sat", "time": "10:00am"}, {"days": "Sun", "time": "Closed"}], "id": "7737800004", "name": "USPS COLLECTION BOX - BLUE BOX", "address": {"city": "WILLIS", "state": "TX", "street": "504 S DANVILLE ST", "postcode": "77378"}}},
{"geometry": {"type": "Point", "coordinates": [-95.484441662, 30.4274268798]}, "type": "Feature", "properties": {"collection_times": [{"days": "Mon-Fri", "time": "5:00pm"}, {"days": "Sat", "time": "2:00pm"}, {"days": "Sun", "time": "Closed"}], "id": "7737800008", "name": "USPS COLLECTION BOX - PO LOBBY", "address": {"city": "WILLIS", "state": "TX", "street": "609 N CAMPBELL ST", "postcode": "77378"}}},
{"geometry": {"type": "Point", "coordinates": [-95.4958667043, 30.4202640197]}, "type": "Feature", "properties": {"collection_times": [{"days": "Mon-Sat", "time": "10:00am"}, {"days": "Sun", "time": "Closed"}], "id": "7737800010", "name": "USPS COLLECTION BOX - BLUE BOX", "address": {"city": "WILLIS", "state": "TX", "street": "9521 FM 1097 RD W", "postcode": "77378"}}},
{"geometry": {"type": "Point", "coordinates": [-95.484441662, 30.4274268798]}, "type": "Feature", "properties": {"collection_times": [{"days": "Mon-Fri", "time": "5:00pm"}, {"days": "Sat", "time": "2:00pm"}, {"days": "Sun", "time": "Closed"}], "id": "7737800011", "name": "USPS COLLECTION BOX - PO LOBBY", "address": {"city": "WILLIS", "state": "TX", "street": "609 N CAMPBELL ST", "postcode": "77378"}}},
{"geometry": {"type": "Point", "coordinates": [-95.5378498516, 30.0120714325]}, "type": "Feature", "properties": {"collection_times": [{"days": "Mon-Fri", "time": "2:45pm"}, {"days": "Sat-Sun", "time": "Closed"}], "id": "7737900002", "name": "USPS COLLECTION BOX - BLUE BOX", "address": {"city": "SPRING", "state": "TX", "street": "16720 CHAMPION FOREST DR", "postcode": "77379"}}},
{"geometry": {"type": "Point", "coordinates": [-99.3330489019, 31.4627353752]}, "type": "Feature", "properties": {"collection_times": [{"days": "Mon-Sat", "time": "5:00pm"}, {"days": "Sun", "time": "Closed"}], "id": "7737900003", "name": "USPS COLLECTION BOX - BLUE BOX", "address": {"city": "SPRING", "state": "TX", "street": "7717 LOUETTA RD", "postcode": "77379"}}},
{"geometry": {"type": "Point", "coordinates": [-95.5303479666, 30.0322906437]}, "type": "Feature", "properties": {"collection_times": [{"days": "Mon-Fri", "time": "3:30pm"}, {"days": "Sat-Sun", "time": "Closed"}], "id": "7737900010", "name": "USPS COLLECTION BOX - BLUE BOX", "address": {"city": "SPRING", "state": "TX", "street": "16000 STUEBNER AIRLINE RD", "postcode": "77379"}}},
{"geometry": {"type": "Point", "coordinates": [-95.5304914188, 30.0172485713]}, "type": "Feature", "properties": {"collection_times": [{"days": "Mon-Sat", "time": "5:00pm"}, {"days": "Sun", "time": "Closed"}], "id": "7737900012", "name": "USPS COLLECTION BOX - PO LOBBY", "address": {"city": "SPRING", "state": "TX", "street": "7717 LOUETTA RD", "postcode": "77379"}}},
{"geometry": {"type": "Point", "coordinates": [-95.5508546097, 30.0717855614]}, "type": "Feature", "properties": {"collection_times": [{"days": "Mon-Fri", "time": "2:30pm"}, {"days": "Sat-Sun", "time": "Closed"}], "id": "7737900013", "name": "USPS COLLECTION BOX - BLUE BOX", "address": {"city": "SPRING", "state": "TX", "street": "20803 STUEBNER AIRLINE RD", "postcode": "77379"}}},
{"geometry": {"type": "Point", "coordinates": [-95.5304914188, 30.0172485713]}, "type": "Feature", "properties": {"collection_times": [{"days": "Mon-Sat", "time": "5:00pm"}, {"days": "Sun", "time": "Closed"}], "id": "7737900014", "name": "USPS COLLECTION BOX - APC", "address": {"city": "SPRING", "state": "TX", "street": "7717 LOUETTA RD", "postcode": "77379"}}},
{"geometry": {"type": "Point", "coordinates": [-95.5304914188, 30.0172485713]}, "type": "Feature", "properties": {"collection_times": [{"days": "Mon-Sat", "time": "5:00pm"}, {"days": "Sun", "time": "Closed"}], "id": "7737900016", "name": "USPS COLLECTION BOX - APC", "address": {"city": "SPRING", "state": "TX", "street": "7717 LOUETTA RD", "postcode": "77379"}}},
{"geometry": {"type": "Point", "coordinates": [-95.4506143522, 30.1268408614]}, "type": "Feature", "properties": {"collection_times": [{"days": "Mon-Fri", "time": "2:45pm"}, {"days": "Sat-Sun", "time": "Closed"}], "id": "7738000004", "name": "USPS COLLECTION BOX - BLUE BOX", "address": {"city": "SPRING", "state": "TX", "street": "536 SAWDUST RD", "postcode": "77380"}}},
{"geometry": {"type": "Point", "coordinates": [-95.4570965183, 30.1716182733]}, "type": "Feature", "properties": {"collection_times": [{"days": "Mon-Sat", "time": "5:00pm"}, {"days": "Sun", "time": "Closed"}], "id": "7738000005", "name": "USPS COLLECTION BOX - BLUE BOX", "address": {"city": "SPRING", "state": "TX", "street": "9450 PINECROFT DR", "postcode": "77380"}}},
{"geometry": {"type": "Point", "coordinates": [-95.4686465194, 30.136498894]}, "type": "Feature", "properties": {"collection_times": [{"days": "Mon-Fri", "time": "4:00pm"}, {"days": "Sat-Sun", "time": "Closed"}], "id": "7738000009", "name": "USPS COLLECTION BOX - BLUE BOX", "address": {"city": "SPRING", "state": "TX", "street": "1400 WOODLOCH FOREST DR", "postcode": "77380"}}},
{"geometry": {"type": "Point", "coordinates": [-95.4606252849, 30.1546877645]}, "type": "Feature", "properties": {"collection_times": [{"days": "Mon-Fri", "time": "3:45pm"}, {"days": "Sat-Sun", "time": "Closed"}], "id": "7738000012", "name": "USPS COLLECTION BOX - BLUE BOX", "address": {"city": "SPRING", "state": "TX", "street": "1610 WOODSTEAD CT", "postcode": "77380"}}},
{"geometry": {"type": "Point", "coordinates": [-95.4454656657, 30.135677614]}, "type": "Feature", "properties": {"collection_times": [{"days": "Mon-Fri", "time": "4:00pm"}, {"days": "Sat-Sun", "time": "Closed"}], "id": "7738000016", "name": "USPS COLLECTION BOX - BLUE BOX", "address": {"city": "SPRING", "state": "TX", "street": "25701 INTERSTATE 45", "postcode": "77380"}}},
{"geometry": {"type": "Point", "coordinates": [-95.4458241023, 30.126683577]}, "type": "Feature", "properties": {"collection_times": [{"days": "Mon-Fri", "time": "3:00pm"}, {"days": "Sat-Sun", "time": "Closed"}], "id": "7738000024", "name": "USPS COLLECTION BOX - BLUE BOX", "address": {"city": "SPRING", "state": "TX", "street": "295 SAWDUST RD", "postcode": "77380"}}},
{"geometry": {"type": "Point", "coordinates": [-95.4694241337, 30.1581029671]}, "type": "Feature", "properties": {"collection_times": [{"days": "Mon-Fri", "time": "3:45pm"}, {"days": "Sat-Sun", "time": "Closed"}], "id": "7738000028", "name": "USPS COLLECTION BOX - BLUE BOX", "address": {"city": "SPRING", "state": "TX", "street": "2201 TIMBERLOCH PL", "postcode": "77380"}}},
{"geometry": {"type": "Point", "coordinates": [-95.4686465194, 30.136498894]}, "type": "Feature", "properties": {"collection_times": [{"days": "Mon-Fri", "time": "3:00pm"}, {"days": "Sat-Sun", "time": "Closed"}], "id": "7738000037", "name": "USPS COLLECTION BOX - BLUE BOX", "address": {"city": "SPRING", "state": "TX", "street": "5 GROGANS PARK DR", "postcode": "77380"}}},
{"geometry": {"type": "Point", "coordinates": [-95.4442554987, 30.1298196012]}, "type": "Feature", "properties": {"collection_times": [{"days": "Mon-Fri", "time": "2:45pm"}, {"days": "Sat-Sun", "time": "Closed"}], "id": "7738000040", "name": "USPS COLLECTION BOX - BLUE BOX", "address": {"city": "SPRING", "state": "TX", "street": "25329 INTERSTATE 45", "postcode": "77380"}}},
{"geometry": {"type": "Point", "coordinates": [-95.4570965183, 30.1716182733]}, "type": "Feature", "properties": {"collection_times": [{"days": "Mon-Sat", "time": "5:00pm"}, {"days": "Sun", "time": "Closed"}], "id": "7738000041", "name": "USPS COLLECTION BOX - PO LOBBY", "address": {"city": "SPRING", "state": "TX", "street": "9450 PINECROFT DR", "postcode": "77380"}}},
{"geometry": {"type": "Point", "coordinates": [-95.4570965183, 30.1716182733]}, "type": "Feature", "properties": {"collection_times": [{"days": "Mon-Sat", "time": "5:00pm"}, {"days": "Sun", "time": "Closed"}], "id": "7738000042", "name": "USPS COLLECTION BOX - APC", "address": {"city": "SPRING", "state": "TX", "street": "9450 PINECROFT DR", "postcode": "77380"}}},
{"geometry": {"type": "Point", "coordinates": [-95.4646167234, 30.1403335505]}, "type": "Feature", "properties": {"collection_times": [{"days": "Mon-Sat", "time": "5:00pm"}, {"days": "Sun", "time": "Closed"}], "id": "7738000050", "name": "USPS COLLECTION BOX - BLUE BOX", "address": {"city": "SPRING", "state": "TX", "street": "9450 PINECROFT DR", "postcode": "77380"}}},
{"geometry": {"type": "Point", "coordinates": [-95.5023186736, 30.1666900662]}, "type": "Feature", "properties": {"collection_times": [{"days": "Mon-Fri", "time": "4:30pm"}, {"days": "Sat-Sun", "time": "Closed"}], "id": "7738100003", "name": "USPS COLLECTION BOX - BLUE BOX", "address": {"city": "SPRING", "state": "TX", "street": "4775 W PANTHER CREEK DR", "postcode": "77381"}}},
{"geometry": {"type": "Point", "coordinates": [-95.4888260562, 30.1857238132]}, "type": "Feature", "properties": {"collection_times": [{"days": "Mon-Fri", "time": "4:15pm"}, {"days": "Sat-Sun", "time": "Closed"}], "id": "7738100009", "name": "USPS COLLECTION BOX - BLUE BOX", "address": {"city": "SPRING", "state": "TX", "street": "4747 RESEARCH FOREST DR", "postcode": "77381"}}},
{"geometry": {"type": "Point", "coordinates": [-95.5086546018, 30.1664546574]}, "type": "Feature", "properties": {"collection_times": [{"days": "Mon-Fri", "time": "5:00pm"}, {"days": "Sat", "time": "4:45pm"}, {"days": "Sun", "time": "Closed"}], "id": "7738100011", "name": "USPS COLLECTION BOX - APC", "address": {"city": "SPRING", "state": "TX", "street": "10800 GOSLING RD", "postcode": "77381"}}},
{"geometry": {"type": "Point", "coordinates": [-95.5086546018, 30.1664546574]}, "type": "Feature", "properties": {"collection_times": [{"days": "Mon-Fri", "time": "5:00pm"}, {"days": "Sat", "time": "4:45pm"}, {"days": "Sun", "time": "Closed"}], "id": "7738100012", "name": "USPS COLLECTION BOX - BLUE BOX", "address": {"city": "SPRING", "state": "TX", "street": "10800 GOSLING RD", "postcode": "77381"}}},
{"geometry": {"type": "Point", "coordinates": [-95.5283851744, 30.2087631848]}, "type": "Feature", "properties": {"collection_times": [{"days": "Mon-Fri", "time": "4:00pm"}, {"days": "Sat-Sun", "time": "Closed"}], "id": "7738100015", "name": "USPS COLLECTION BOX - BLUE BOX", "address": {"city": "SPRING", "state": "TX", "street": "8000 RESEARCH FOREST DR", "postcode": "77381"}}},
{"geometry": {"type": "Point", "coordinates": [-95.4815071302, 30.1796333626]}, "type": "Feature", "properties": {"collection_times": [{"days": "Mon-Fri", "time": "4:30pm"}, {"days": "Sat-Sun", "time": "Closed"}], "id": "7738100016", "name": "USPS COLLECTION BOX - BLUE BOX", "address": {"city": "SPRING", "state": "TX", "street": "3400 RESEARCH FOREST DR", "postcode": "77381"}}},
{"geometry": {"type": "Point", "coordinates": [-95.5086546018, 30.1664546574]}, "type": "Feature", "properties": {"collection_times": [{"days": "Mon-Fri", "time": "5:00pm"}, {"days": "Sat", "time": "4:45pm"}, {"days": "Sun", "time": "Closed"}], "id": "7738100018", "name": "USPS COLLECTION BOX - APC", "address": {"city": "SPRING", "state": "TX", "street": "10800 GOSLING RD", "postcode": "77381"}}},
{"geometry": {"type": "Point", "coordinates": [-95.5369450655, 30.180936441]}, "type": "Feature", "properties": {"collection_times": [{"days": "Mon-Fri", "time": "3:30pm"}, {"days": "Sat-Sun", "time": "Closed"}], "id": "7738200000", "name": "USPS COLLECTION BOX - BLUE BOX", "address": {"city": "SPRING", "state": "TX", "street": "6700 WOODLANDS PKWY", "postcode": "77382"}}},
{"geometry": {"type": "Point", "coordinates": [-95.4969215619, 30.2341167699]}, "type": "Feature", "properties": {"collection_times": [{"days": "Mon-Fri", "time": "1:00pm"}, {"days": "Sat-Sun", "time": "Closed"}], "id": "7738400000", "name": "USPS COLLECTION BOX - BLUE BOX", "address": {"city": "CONROE", "state": "TX", "street": "8500 FM 1488 RD", "postcode": "77384"}}},
{"geometry": {"type": "Point", "coordinates": [-95.4512, 30.17642]}, "type": "Feature", "properties": {"collection_times": [{"days": "Mon-Fri", "time": "3:15pm"}, {"days": "Sat-Sun", "time": "Closed"}], "id": "7738500000", "name": "USPS COLLECTION BOX - BLUE BOX", "address": {"city": "SHENANDOAH", "state": "TX", "street": "19221 I 45 S", "postcode": "77385"}}},
{"geometry": {"type": "Point", "coordinates": [-95.4391351492, 30.1570926741]}, "type": "Feature", "properties": {"collection_times": [{"days": "Mon-Fri", "time": "3:00pm"}, {"days": "Sat-Sun", "time": "Closed"}], "id": "7738500002", "name": "USPS COLLECTION BOX - BLUE BOX", "address": {"city": "SHENANDOAH", "state": "TX", "street": "27424 ROBINSON RD", "postcode": "77385"}}},
{"geometry": {"type": "Point", "coordinates": [-95.4500429117, 30.1654612515]}, "type": "Feature", "properties": {"collection_times": [{"days": "Mon-Fri", "time": "3:15pm"}, {"days": "Sat-Sun", "time": "Closed"}], "id": "7738500003", "name": "USPS COLLECTION BOX - BLUE BOX", "address": {"city": "SHENANDOAH", "state": "TX", "street": "27820 I-45 N", "postcode": "77385"}}},
{"geometry": {"type": "Point", "coordinates": [-95.4223232448, 30.188621813]}, "type": "Feature", "properties": {"collection_times": [{"days": "Mon-Fri", "time": "2:45pm"}, {"days": "Sat-Sun", "time": "Closed"}], "id": "7738500004", "name": "USPS COLLECTION BOX - BLUE BOX", "address": {"city": "SHENANDOAH", "state": "TX", "street": "3200 NEEDHAM RD", "postcode": "77385"}}},
{"geometry": {"type": "Point", "coordinates": [-95.4418018891, 30.1269413683]}, "type": "Feature", "properties": {"collection_times": [{"days": "Mon-Fri", "time": "3:15pm"}, {"days": "Sat-Sun", "time": "Closed"}], "id": "7738600001", "name": "USPS COLLECTION BOX - BLUE BOX", "address": {"city": "SPRING", "state": "TX", "street": "107 RAYFORD RD", "postcode": "77386"}}},
{"geometry": {"type": "Point", "coordinates": [-95.4480056974, 30.153465794]}, "type": "Feature", "properties": {"collection_times": [{"days": "Mon-Fri", "time": "3:30pm"}, {"days": "Sat-Sun", "time": "Closed"}], "id": "7738600002", "name": "USPS COLLECTION BOX - BLUE BOX", "address": {"city": "SPRING", "state": "TX", "street": "26834 INTERSTATE 45", "postcode": "77386"}}},
{"geometry": {"type": "Point", "coordinates": [-95.4390398326, 30.1230921136]}, "type": "Feature", "properties": {"collection_times": [{"days": "Mon-Fri", "time": "3:15pm"}, {"days": "Sat-Sun", "time": "Closed"}], "id": "7738600003", "name": "USPS COLLECTION BOX - BLUE BOX", "address": {"city": "SPRING", "state": "TX", "street": "24900 PITKIN RD", "postcode": "77386"}}},
{"geometry": {"type": "Point", "coordinates": [-95.4392835222, 30.1236492872]}, "type": "Feature", "properties": {"collection_times": [{"days": "Mon-Fri", "time": "3:15pm"}, {"days": "Sat-Sun", "time": "Closed"}], "id": "7738600006", "name": "USPS COLLECTION BOX - BLUE BOX", "address": {"city": "SPRING", "state": "TX", "street": "25000 PITKIN RD", "postcode": "77386"}}},
{"geometry": {"type": "Point", "coordinates": [-95.4871950975, 30.0412248959]}, "type": "Feature", "properties": {"collection_times": [{"days": "Mon-Fri", "time": "4:00pm"}, {"days": "Sat-Sun", "time": "Closed"}], "id": "7738800001", "name": "USPS COLLECTION BOX - BLUE BOX", "address": {"city": "SPRING", "state": "TX", "street": "4800 LOUETTA RD", "postcode": "77388"}}},
{"geometry": {"type": "Point", "coordinates": [-95.4335707647, 30.0532316617]}, "type": "Feature", "properties": {"collection_times": [{"days": "Mon-Fri", "time": "4:30pm"}, {"days": "Sat-Sun", "time": "Closed"}], "id": "7738800012", "name": "USPS COLLECTION BOX - BLUE BOX", "address": {"city": "SPRING", "state": "TX", "street": "19717 HOLZWARTH RD", "postcode": "77388"}}},
{"geometry": {"type": "Point", "coordinates": [-95.4868736025, 30.0381328469]}, "type": "Feature", "properties": {"collection_times": [{"days": "Mon-Fri", "time": "4:15pm"}, {"days": "Sat-Sun", "time": "Closed"}], "id": "7738800016", "name": "USPS COLLECTION BOX - BLUE BOX", "address": {"city": "SPRING", "state": "TX", "street": "18450 KUYKENDAHL RD", "postcode": "77388"}}},
{"geometry": {"type": "Point", "coordinates": [-95.2170587658, 29.9795708001]}, "type": "Feature", "properties": {"collection_times": [{"days": "Mon-Fri", "time": "1:45pm"}, {"days": "Sat-Sun", "time": "Closed"}], "id": "7739600001", "name": "USPS COLLECTION BOX - BLUE BOX", "address": {"city": "HUMBLE", "state": "TX", "street": "3810 ATASCOCITA RD", "postcode": "77396"}}}
]}
