{"type": "FeatureCollection", "features": [
{"geometry": {"type": "Point", "coordinates": [-95.461803512, 29.7056838598]}, "type": "Feature", "properties": {"collection_times": [{"days": "Mon-Fri", "time": "2:45pm"}, {"days": "Sat-Sun", "time": "Closed"}], "id": "7740100002", "name": "USPS COLLECTION BOX - BLUE BOX", "address": {"city": "BELLAIRE", "state": "TX", "street": "4747 BELLAIRE BLVD", "postcode": "77401"}}},
{"geometry": {"type": "Point", "coordinates": [-95.4741890928, 29.7074452859]}, "type": "Feature", "properties": {"collection_times": [{"days": "Mon-Fri", "time": "5:30pm"}, {"days": "Sat", "time": "4:45pm"}, {"days": "Sun", "time": "Closed"}], "id": "7740100005", "name": "USPS COLLECTION BOX - BLUE BOX", "address": {"city": "BELLAIRE", "state": "TX", "street": "5350 BELLAIRE BLVD", "postcode": "77401"}}},
{"geometry": {"type": "Point", "coordinates": [-95.4519837696, 29.715768585]}, "type": "Feature", "properties": {"collection_times": [{"days": "Mon-Fri", "time": "3:45pm"}, {"days": "Sat-Sun", "time": "Closed"}], "id": "7740100006", "name": "USPS COLLECTION BOX - BLUE BOX", "address": {"city": "BELLAIRE", "state": "TX", "street": "4500 BISSONNET ST", "postcode": "77401"}}},
{"geometry": {"type": "Point", "coordinates": [-95.4679572497, 29.7033379798]}, "type": "Feature", "properties": {"collection_times": [{"days": "Mon-Fri", "time": "2:30pm"}, {"days": "Sat-Sun", "time": "Closed"}], "id": "7740100020", "name": "USPS COLLECTION BOX - BLUE BOX", "address": {"city": "BELLAIRE", "state": "TX", "street": "7008 S RICE AVE", "postcode": "77401"}}},
{"geometry": {"type": "Point", "coordinates": [-95.4606375308, 29.7119093601]}, "type": "Feature", "properties": {"collection_times": [{"days": "Mon-Fri", "time": "2:15pm"}, {"days": "Sat-Sun", "time": "Closed"}], "id": "7740100026", "name": "USPS COLLECTION BOX - BLUE BOX", "address": {"city": "BELLAIRE", "state": "TX", "street": "6330 WEST LOOP S", "postcode": "77401"}}},
{"geometry": {"type": "Point", "coordinates": [-95.4597893328, 29.7053501864]}, "type": "Feature", "properties": {"collection_times": [{"days": "Mon-Fri", "time": "3:00pm"}, {"days": "Sat-Sun", "time": "Closed"}], "id": "7740100029", "name": "USPS COLLECTION BOX - BLUE BOX", "address": {"city": "BELLAIRE", "state": "TX", "street": "6800 WEST LOOP S", "postcode": "77401"}}},
{"geometry": {"type": "Point", "coordinates": [-95.4546347807, 29.7144152799]}, "type": "Feature", "properties": {"collection_times": [{"days": "Mon-Fri", "time": "3:45pm"}, {"days": "Sat-Sun", "time": "Closed"}], "id": "7740100034", "name": "USPS COLLECTION BOX - BLUE BOX", "address": {"city": "BELLAIRE", "state": "TX", "street": "4545 BISSONNET ST", "postcode": "77401"}}},
{"geometry": {"type": "Point", "coordinates": [-95.460191264, 29.7069917462]}, "type": "Feature", "properties": {"collection_times": [{"days": "Mon-Fri", "time": "4:30pm"}, {"days": "Sat-Sun", "time": "Closed"}], "id": "7740100039", "name": "USPS COLLECTION BOX - BLUE BOX", "address": {"city": "BELLAIRE", "state": "TX", "street": "6750 WEST LOOP S", "postcode": "77401"}}},
{"geometry": {"type": "Point", "coordinates": [-95.4741890928, 29.7074452859]}, "type": "Feature", "properties": {"collection_times": [{"days": "Mon-Fri", "time": "5:30pm"}, {"days": "Sat", "time": "4:45pm"}, {"days": "Sun", "time": "Closed"}], "id": "7740100052", "name": "USPS COLLECTION BOX - BLUE BOX", "address": {"city": "BELLAIRE", "state": "TX", "street": "5350 BELLAIRE BLVD", "postcode": "77401"}}},
{"geometry": {"type": "Point", "coordinates": [-95.4741890928, 29.7074452859]}, "type": "Feature", "properties": {"collection_times": [{"days": "Mon-Fri", "time": "5:30pm"}, {"days": "Sat", "time": "4:45pm"}, {"days": "Sun", "time": "Closed"}], "id": "7740100055", "name": "USPS COLLECTION BOX - PO LOBBY", "address": {"city": "BELLAIRE", "state": "TX", "street": "5350 BELLAIRE BLVD", "postcode": "77401"}}},
{"geometry": {"type": "Point", "coordinates": [-95.4557, 29.69857]}, "type": "Feature", "properties": {"collection_times": [{"days": "Mon-Fri", "time": "3:15pm"}, {"days": "Sat", "time": "10:00am"}, {"days": "Sun", "time": "Closed"}], "id": "7740100059", "name": "USPS COLLECTION BOX - BLUE BOX", "address": {"city": "BELLAIRE", "state": "TX", "street": "4601 EVERGREEN ST", "postcode": "77401"}}},
{"geometry": {"type": "Point", "coordinates": [-95.4741890928, 29.7074452859]}, "type": "Feature", "properties": {"collection_times": [{"days": "Mon-Fri", "time": "5:30pm"}, {"days": "Sat", "time": "4:45pm"}, {"days": "Sun", "time": "Closed"}], "id": "7740100060", "name": "USPS COLLECTION BOX - APC", "address": {"city": "BELLAIRE", "state": "TX", "street": "5350 BELLAIRE BLVD", "postcode": "77401"}}},
{"geometry": {"type": "Point", "coordinates": [-95.5960988646, 29.710790021]}, "type": "Feature", "properties": {"collection_times": [{"days": "Mon-Fri", "time": "5:00pm"}, {"days": "Sat", "time": "11:30am"}, {"days": "Sun", "time": "Closed"}], "id": "7741100000", "name": "USPS COLLECTION BOX - BLUE BOX", "address": {"city": "ALIEF", "state": "TX", "street": "11936 BELLAIRE BLVD", "postcode": "77411"}}},
{"geometry": {"type": "Point", "coordinates": [-95.5850713264, 29.688826586]}, "type": "Feature", "properties": {"collection_times": [{"days": "Mon-Fri", "time": "5:00pm"}, {"days": "Sat", "time": "11:30am"}, {"days": "Sun", "time": "Closed"}], "id": "7741100002", "name": "USPS COLLECTION BOX - PO LOBBY", "address": {"city": "ALIEF", "state": "TX", "street": "11936 BELLAIRE BLVD", "postcode": "77411"}}},
{"geometry": {"type": "Point", "coordinates": [-96.4589876629, 29.5717169606]}, "type": "Feature", "properties": {"collection_times": [{"days": "Mon-Fri", "time": "12:45pm"}, {"days": "Sat", "time": "11:15am"}, {"days": "Sun", "time": "Closed"}], "id": "7741200002", "name": "USPS COLLECTION BOX - PO LOBBY", "address": {"city": "ALTAIR", "state": "TX", "street": "4159 US HIGHWAY 90A", "postcode": "77412"}}},
{"geometry": {"type": "Point", "coordinates": [-95.6846999421, 29.7841021688]}, "type": "Feature", "properties": {"collection_times": [{"days": "Mon-Fri", "time": "4:00pm"}, {"days": "Sat", "time": "11:30am"}, {"days": "Sun", "time": "Closed"}], "id": "7741300001", "name": "USPS COLLECTION BOX - PO LOBBY", "address": {"city": "BARKER", "state": "TX", "street": "211 BAKER RD", "postcode": "77413"}}},
{"geometry": {"type": "Point", "coordinates": [-95.6846891791, 29.7840902618]}, "type": "Feature", "properties": {"collection_times": [{"days": "Mon-Fri", "time": "4:00pm"}, {"days": "Sat", "time": "11:30am"}, {"days": "Sun", "time": "Closed"}], "id": "7741300002", "name": "USPS COLLECTION BOX - BLUE BOX", "address": {"city": "BARKER", "state": "TX", "street": "211 BAKER RD", "postcode": "77413"}}},
{"geometry": {"type": "Point", "coordinates": [-95.9693515104, 28.9642949644]}, "type": "Feature", "properties": {"collection_times": [{"days": "Mon-Fri", "time": "4:45pm"}, {"days": "Sat", "time": "3:30pm"}, {"days": "Sun", "time": "Closed"}], "id": "7741400001", "name": "USPS COLLECTION BOX - PO LOBBY", "address": {"city": "BAY CITY", "state": "TX", "street": "1309 BAYWOOD DR", "postcode": "77414"}}},
{"geometry": {"type": "Point", "coordinates": [-95.9694241124, 28.981844262]}, "type": "Feature", "properties": {"collection_times": [{"days": "Mon-Fri", "time": "2:00pm"}, {"days": "Sat-Sun", "time": "Closed"}], "id": "7741400006", "name": "USPS COLLECTION BOX - BLUE BOX", "address": {"city": "BAY CITY", "state": "TX", "street": "1744 6TH ST", "postcode": "77414"}}},
{"geometry": {"type": "Point", "coordinates": [-95.9554301797, 28.9835136799]}, "type": "Feature", "properties": {"collection_times": [{"days": "Mon-Fri", "time": "2:00pm"}, {"days": "Sat-Sun", "time": "Closed"}], "id": "7741400009", "name": "USPS COLLECTION BOX - BLUE BOX", "address": {"city": "BAY CITY", "state": "TX", "street": "2917 7TH ST", "postcode": "77414"}}},
{"geometry": {"type": "Point", "coordinates": [-95.9693515104, 28.9642949644]}, "type": "Feature", "properties": {"collection_times": [{"days": "Mon-Fri", "time": "4:45pm"}, {"days": "Sat", "time": "3:30pm"}, {"days": "Sun", "time": "Closed"}], "id": "7741400026", "name": "USPS COLLECTION BOX - PO LOBBY", "address": {"city": "BAY CITY", "state": "TX", "street": "1309 BAYWOOD DR", "postcode": "77414"}}},
{"geometry": {"type": "Point", "coordinates": [-95.9693515104, 28.9642949644]}, "type": "Feature", "properties": {"collection_times": [{"days": "Mon-Fri", "time": "4:45pm"}, {"days": "Sat", "time": "3:30pm"}, {"days": "Sun", "time": "Closed"}], "id": "7741400029", "name": "USPS COLLECTION BOX - PO LOBBY", "address": {"city": "BAY CITY", "state": "TX", "street": "1309 BAYWOOD DR", "postcode": "77414"}}},
{"geometry": {"type": "Point", "coordinates": [-95.9700890905, 28.9829333353]}, "type": "Feature", "properties": {"collection_times": [{"days": "Mon-Fri", "time": "2:00pm"}, {"days": "Sat-Sun", "time": "Closed"}], "id": "7741400030", "name": "USPS COLLECTION BOX - BLUE BOX", "address": {"city": "BAY CITY", "state": "TX", "street": "2100 AVENUE F", "postcode": "77414"}}},
{"geometry": {"type": "Point", "coordinates": [-95.9693515104, 28.9642949644]}, "type": "Feature", "properties": {"collection_times": [{"days": "Mon-Fri", "time": "4:45pm"}, {"days": "Sat", "time": "3:30pm"}, {"days": "Sun", "time": "Closed"}], "id": "7741400031", "name": "USPS COLLECTION BOX - PO LOBBY", "address": {"city": "BAY CITY", "state": "TX", "street": "1309 BAYWOOD DR", "postcode": "77414"}}},
{"geometry": {"type": "Point", "coordinates": [-95.7260259867, 28.9338327966]}, "type": "Feature", "properties": {"collection_times": [{"days": "Mon-Fri", "time": "2:15pm"}, {"days": "Sat", "time": "11:30am"}, {"days": "Sun", "time": "Closed"}], "id": "7741500000", "name": "USPS COLLECTION BOX - BLUE BOX", "address": {"city": "CEDAR LANE", "state": "TX", "street": "13412 FM 457", "postcode": "77415"}}},
{"geometry": {"type": "Point", "coordinates": [-95.7260259867, 28.9338327966]}, "type": "Feature", "properties": {"collection_times": [{"days": "Mon-Fri", "time": "2:15pm"}, {"days": "Sat", "time": "11:30am"}, {"days": "Sun", "time": "Closed"}], "id": "7741500001", "name": "USPS COLLECTION BOX - PO LOBBY", "address": {"city": "CEDAR LANE", "state": "TX", "street": "13412 FM 457", "postcode": "77415"}}},
{"geometry": {"type": "Point", "coordinates": [-95.9147411605, 29.4993722504]}, "type": "Feature", "properties": {"collection_times": [{"days": "Mon-Fri", "time": "11:45am"}, {"days": "Sat", "time": "10:45am"}, {"days": "Sun", "time": "Closed"}], "id": "7741700076", "name": "USPS COLLECTION BOX - BLUE BOX", "address": {"city": "BEASLEY", "state": "TX", "street": "7031 LOOP 540", "postcode": "77417"}}},
{"geometry": {"type": "Point", "coordinates": [-95.9147411605, 29.4993722504]}, "type": "Feature", "properties": {"collection_times": [{"days": "Mon-Fri", "time": "11:45am"}, {"days": "Sat", "time": "10:45am"}, {"days": "Sun", "time": "Closed"}], "id": "7741700078", "name": "USPS COLLECTION BOX - PO LOBBY", "address": {"city": "BEASLEY", "state": "TX", "street": "7031 LOOP 540", "postcode": "77417"}}},
{"geometry": {"type": "Point", "coordinates": [-96.2553486368, 29.9509475594]}, "type": "Feature", "properties": {"collection_times": [{"days": "Mon-Sat", "time": "3:15pm"}, {"days": "Sun", "time": "Closed"}], "id": "7741800002", "name": "USPS COLLECTION BOX - BLUE BOX", "address": {"city": "BELLVILLE", "state": "TX", "street": "229 E PALM ST", "postcode": "77418"}}},
{"geometry": {"type": "Point", "coordinates": [-96.2553486368, 29.9509475594]}, "type": "Feature", "properties": {"collection_times": [{"days": "Mon-Sat", "time": "3:15pm"}, {"days": "Sun", "time": "Closed"}], "id": "7741800003", "name": "USPS COLLECTION BOX - PO LOBBY", "address": {"city": "BELLVILLE", "state": "TX", "street": "229 E PALM ST", "postcode": "77418"}}},
{"geometry": {"type": "Point", "coordinates": [-96.2438012481, 28.8419904119]}, "type": "Feature", "properties": {"collection_times": [{"days": "Mon-Fri", "time": "4:30pm"}, {"days": "Sat", "time": "12:00pm"}, {"days": "Sun", "time": "Closed"}], "id": "7741900002", "name": "USPS COLLECTION BOX - PO LOBBY", "address": {"city": "BLESSING", "state": "TX", "street": "800 FM 616 W", "postcode": "77419"}}},
{"geometry": {"type": "Point", "coordinates": [-96.2438012481, 28.8419904119]}, "type": "Feature", "properties": {"collection_times": [{"days": "Mon-Fri", "time": "4:30pm"}, {"days": "Sat", "time": "12:00pm"}, {"days": "Sun", "time": "Closed"}], "id": "7741900003", "name": "USPS COLLECTION BOX - BLUE BOX", "address": {"city": "BLESSING", "state": "TX", "street": "800 FM 616 W", "postcode": "77419"}}},
{"geometry": {"type": "Point", "coordinates": [-95.944645958, 29.2638333079]}, "type": "Feature", "properties": {"collection_times": [{"days": "Mon-Fri", "time": "4:15pm"}, {"days": "Sat", "time": "11:00am"}, {"days": "Sun", "time": "Closed"}], "id": "7742000000", "name": "USPS COLLECTION BOX - BLUE BOX", "address": {"city": "BOLING", "state": "TX", "street": "7031 FM 442 RD", "postcode": "77420"}}},
{"geometry": {"type": "Point", "coordinates": [-95.944645958, 29.2638333079]}, "type": "Feature", "properties": {"collection_times": [{"days": "Mon-Fri", "time": "4:30pm"}, {"days": "Sat", "time": "11:00am"}, {"days": "Sun", "time": "Closed"}], "id": "7742000001", "name": "USPS COLLECTION BOX - PO LOBBY", "address": {"city": "BOLING", "state": "TX", "street": "7031 FM 442 RD", "postcode": "77420"}}},
{"geometry": {"type": "Point", "coordinates": [-95.5697188237, 29.0518088373]}, "type": "Feature", "properties": {"collection_times": [{"days": "Mon-Fri", "time": "4:15pm"}, {"days": "Sat", "time": "12:30pm"}, {"days": "Sun", "time": "Closed"}], "id": "7742200000", "name": "USPS COLLECTION BOX - BLUE BOX", "address": {"city": "BRAZORIA", "state": "TX", "street": "111 GAINES ST", "postcode": "77422"}}},
{"geometry": {"type": "Point", "coordinates": [-95.5697188237, 29.0518088373]}, "type": "Feature", "properties": {"collection_times": [{"days": "Mon-Fri", "time": "4:15pm"}, {"days": "Sat", "time": "12:30pm"}, {"days": "Sun", "time": "Closed"}], "id": "7742200003", "name": "USPS COLLECTION BOX - PO LOBBY", "address": {"city": "BRAZORIA", "state": "TX", "street": "111 GAINES ST", "postcode": "77422"}}},
{"geometry": {"type": "Point", "coordinates": [-95.5697188237, 29.0518088373]}, "type": "Feature", "properties": {"collection_times": [{"days": "Mon-Fri", "time": "4:15pm"}, {"days": "Sat", "time": "12:30pm"}, {"days": "Sun", "time": "Closed"}], "id": "7742200004", "name": "USPS COLLECTION BOX - PO LOBBY", "address": {"city": "BRAZORIA", "state": "TX", "street": "111 GAINES ST", "postcode": "77422"}}},
{"geometry": {"type": "Point", "coordinates": [-95.9863171888, 29.8267718836]}, "type": "Feature", "properties": {"collection_times": [{"days": "Mon-Fri", "time": "4:30pm"}, {"days": "Sat", "time": "12:30pm"}, {"days": "Sun", "time": "Closed"}], "id": "7742300005", "name": "USPS COLLECTION BOX - BLUE BOX", "address": {"city": "BROOKSHIRE", "state": "TX", "street": "4115 5TH ST", "postcode": "77423"}}},
{"geometry": {"type": "Point", "coordinates": [-95.9863171888, 29.8267718836]}, "type": "Feature", "properties": {"collection_times": [{"days": "Mon-Fri", "time": "4:30pm"}, {"days": "Sat", "time": "12:30pm"}, {"days": "Sun", "time": "Closed"}], "id": "7742300006", "name": "USPS COLLECTION BOX - PO LOBBY", "address": {"city": "BROOKSHIRE", "state": "TX", "street": "4115 5TH ST", "postcode": "77423"}}},
{"geometry": {"type": "Point", "coordinates": [-95.9863171888, 29.8267718836]}, "type": "Feature", "properties": {"collection_times": [{"days": "Mon-Fri", "time": "4:30pm"}, {"days": "Sat", "time": "12:30pm"}, {"days": "Sun", "time": "Closed"}], "id": "7742300007", "name": "USPS COLLECTION BOX - PO LOBBY", "address": {"city": "BROOKSHIRE", "state": "TX", "street": "4115 5TH ST", "postcode": "77423"}}},
{"geometry": {"type": "Point", "coordinates": [-96.2572182589, 30.141983264]}, "type": "Feature", "properties": {"collection_times": [{"days": "Mon-Fri", "time": "4:00pm"}, {"days": "Sat", "time": "12:00pm"}, {"days": "Sun", "time": "Closed"}], "id": "7742600000", "name": "USPS COLLECTION BOX - BLUE BOX", "address": {"city": "CHAPPELL HILL", "state": "TX", "street": "5110 MAIN ST", "postcode": "77426"}}},
{"geometry": {"type": "Point", "coordinates": [-96.2572182589, 30.141983264]}, "type": "Feature", "properties": {"collection_times": [{"days": "Mon-Fri", "time": "4:00pm"}, {"days": "Sat", "time": "12:00pm"}, {"days": "Sun", "time": "Closed"}], "id": "7742600003", "name": "USPS COLLECTION BOX - PO LOBBY", "address": {"city": "CHAPPELL HILL", "state": "TX", "street": "5110 MAIN ST", "postcode": "77426"}}},
{"geometry": {"type": "Point", "coordinates": [-96.1880070206, 28.7237143219]}, "type": "Feature", "properties": {"collection_times": [{"days": "Mon-Fri", "time": "10:45am"}, {"days": "Sat", "time": "9:15am"}, {"days": "Sun", "time": "Closed"}], "id": "7742800000", "name": "USPS COLLECTION BOX - BLUE BOX", "address": {"city": "COLLEGEPORT", "state": "TX", "street": "15235 FM 1095", "postcode": "77428"}}},
{"geometry": {"type": "Point", "coordinates": [-96.1880070206, 28.7237143219]}, "type": "Feature", "properties": {"collection_times": [{"days": "Mon-Fri", "time": "10:45am"}, {"days": "Sat", "time": "9:15am"}, {"days": "Sun", "time": "Closed"}], "id": "7742800001", "name": "USPS COLLECTION BOX - PO LOBBY", "address": {"city": "COLLEGEPORT", "state": "TX", "street": "15235 FM 1095", "postcode": "77428"}}},
{"geometry": {"type": "Point", "coordinates": [-95.6777425001, 29.9758345969]}, "type": "Feature", "properties": {"collection_times": [{"days": "Mon-Sat", "time": "5:00pm"}, {"days": "Sun", "time": "Closed"}], "id": "7742900000", "name": "USPS COLLECTION BOX - PO LOBBY", "address": {"city": "CYPRESS", "state": "TX", "street": "16635 SPRING CYPRESS RD", "postcode": "77429"}}},
{"geometry": {"type": "Point", "coordinates": [-95.6777425001, 29.9758345969]}, "type": "Feature", "properties": {"collection_times": [{"days": "Mon-Sat", "time": "5:00pm"}, {"days": "Sun", "time": "Closed"}], "id": "7742900002", "name": "USPS COLLECTION BOX - BLUE BOX", "address": {"city": "CYPRESS", "state": "TX", "street": "16635 SPRING CYPRESS RD", "postcode": "77429"}}},
{"geometry": {"type": "Point", "coordinates": [-95.7049913161, 29.982763722]}, "type": "Feature", "properties": {"collection_times": [{"days": "Mon-Fri", "time": "1:45pm"}, {"days": "Sat-Sun", "time": "Closed"}], "id": "7742900005", "name": "USPS COLLECTION BOX - BLUE BOX", "address": {"city": "CYPRESS", "state": "TX", "street": "18427 AUBURN WOODS DR", "postcode": "77429"}}},
{"geometry": {"type": "Point", "coordinates": [-95.5951932218, 29.9524792161]}, "type": "Feature", "properties": {"collection_times": [{"days": "Mon-Fri", "time": "1:00pm"}, {"days": "Sat-Sun", "time": "Closed"}], "id": "7742900006", "name": "USPS COLLECTION BOX - BLUE BOX", "address": {"city": "CYPRESS", "state": "TX", "street": "11600 CYPRESS NORTH HOUSTON RD", "postcode": "77429"}}},
{"geometry": {"type": "Point", "coordinates": [-95.6566959405, 29.989885247]}, "type": "Feature", "properties": {"collection_times": [{"days": "Mon-Sat", "time": "2:00pm"}, {"days": "Sun", "time": "Closed"}], "id": "7742900011", "name": "USPS COLLECTION BOX - BLUE BOX", "address": {"city": "CYPRESS", "state": "TX", "street": "15050 FAIRFIELD VLG SQ DR", "postcode": "77429"}}},
{"geometry": {"type": "Point", "coordinates": [-95.5994894455, 29.9743435564]}, "type": "Feature", "properties": {"collection_times": [{"days": "Mon-Fri", "time": "1:00pm"}, {"days": "Sat", "time": "1:45pm"}, {"days": "Sun", "time": "Closed"}], "id": "7742900012", "name": "USPS COLLECTION BOX - BLUE BOX", "address": {"city": "CYPRESS", "state": "TX", "street": "11702 GRANT RD", "postcode": "77429"}}},
{"geometry": {"type": "Point", "coordinates": [-95.605828997, 29.9968827031]}, "type": "Feature", "properties": {"collection_times": [{"days": "Mon-Fri", "time": "1:15pm"}, {"days": "Sat-Sun", "time": "Closed"}], "id": "7742900015", "name": "USPS COLLECTION BOX - BLUE BOX", "address": {"city": "CYPRESS", "state": "TX", "street": "12123 HEATHERWICK DR", "postcode": "77429"}}},
{"geometry": {"type": "Point", "coordinates": [-95.5918127061, 29.9626795441]}, "type": "Feature", "properties": {"collection_times": [{"days": "Mon-Fri", "time": "1:00pm"}, {"days": "Sat", "time": "1:45pm"}, {"days": "Sun", "time": "Closed"}], "id": "7742900019", "name": "USPS COLLECTION BOX - BLUE BOX", "address": {"city": "CYPRESS", "state": "TX", "street": "11355 REGENCY GREEN DR", "postcode": "77429"}}},
{"geometry": {"type": "Point", "coordinates": [-95.6295991434, 29.9473836696]}, "type": "Feature", "properties": {"collection_times": [{"days": "Mon-Sat", "time": "2:15pm"}, {"days": "Sun", "time": "Closed"}], "id": "7742900023", "name": "USPS COLLECTION BOX - BLUE BOX", "address": {"city": "CYPRESS", "state": "TX", "street": "13811 CYPRESS NORTH HOUSTON RD", "postcode": "77429"}}},
{"geometry": {"type": "Point", "coordinates": [-95.6224682668, 29.9951018683]}, "type": "Feature", "properties": {"collection_times": [{"days": "Mon-Fri", "time": "1:30pm"}, {"days": "Sat", "time": "1:45pm"}, {"days": "Sun", "time": "Closed"}], "id": "7742900027", "name": "USPS COLLECTION BOX - BLUE BOX", "address": {"city": "CYPRESS", "state": "TX", "street": "13135 LOUETTA RD", "postcode": "77429"}}},
{"geometry": {"type": "Point", "coordinates": [-95.6777425001, 29.9758345969]}, "type": "Feature", "properties": {"collection_times": [{"days": "Mon-Sat", "time": "5:00pm"}, {"days": "Sun", "time": "Closed"}], "id": "7742900028", "name": "USPS COLLECTION BOX - APC", "address": {"city": "CYPRESS", "state": "TX", "street": "16635 SPRING CYPRESS RD", "postcode": "77429"}}},
{"geometry": {"type": "Point", "coordinates": [-95.7347414442, 29.2913741627]}, "type": "Feature", "properties": {"collection_times": [{"days": "Mon-Fri", "time": "4:00pm"}, {"days": "Sat", "time": "10:15am"}, {"days": "Sun", "time": "Closed"}], "id": "7743000000", "name": "USPS COLLECTION BOX - BLUE BOX", "address": {"city": "DAMON", "state": "TX", "street": "502 MULCAHY ST", "postcode": "77430"}}},
{"geometry": {"type": "Point", "coordinates": [-95.7347414442, 29.2913741627]}, "type": "Feature", "properties": {"collection_times": [{"days": "Mon-Fri", "time": "4:00pm"}, {"days": "Sat", "time": "10:30am"}, {"days": "Sun", "time": "Closed"}], "id": "7743000001", "name": "USPS COLLECTION BOX - PO LOBBY", "address": {"city": "DAMON", "state": "TX", "street": "502 MULCAHY ST", "postcode": "77430"}}},
{"geometry": {"type": "Point", "coordinates": [-95.8185999765, 29.1713017339]}, "type": "Feature", "properties": {"collection_times": [{"days": "Mon-Fri", "time": "4:15pm"}, {"days": "Sat-Sun", "time": "Closed"}], "id": "7743100000", "name": "USPS COLLECTION BOX - BLUE BOX", "address": {"city": "DANCIGER", "state": "TX", "street": "25420 FM 1301", "postcode": "77431"}}},
{"geometry": {"type": "Point", "coordinates": [-95.8185999765, 29.1713017339]}, "type": "Feature", "properties": {"collection_times": [{"days": "Mon-Fri", "time": "11:45am"}, {"days": "Sat-Sun", "time": "Closed"}], "id": "7743100001", "name": "USPS COLLECTION BOX - PO LOBBY", "address": {"city": "DANCIGER", "state": "TX", "street": "25420 FM 1301", "postcode": "77431"}}},
{"geometry": {"type": "Point", "coordinates": [-96.1765725428, 29.0807874321]}, "type": "Feature", "properties": {"collection_times": [{"days": "Mon-Fri", "time": "11:45am"}, {"days": "Sat", "time": "11:00am"}, {"days": "Sun", "time": "Closed"}], "id": "7743200000", "name": "USPS COLLECTION BOX - BLUE BOX", "address": {"city": "DANEVANG", "state": "TX", "street": "11294 S STATE HIGHWAY 71", "postcode": "77432"}}},
{"geometry": {"type": "Point", "coordinates": [-96.1765725428, 29.0807874321]}, "type": "Feature", "properties": {"collection_times": [{"days": "Mon-Fri", "time": "11:45am"}, {"days": "Sat", "time": "11:00am"}, {"days": "Sun", "time": "Closed"}], "id": "7743200002", "name": "USPS COLLECTION BOX - PO LOBBY", "address": {"city": "DANEVANG", "state": "TX", "street": "11294 S STATE HIGHWAY 71", "postcode": "77432"}}},
{"geometry": {"type": "Point", "coordinates": [-96.3344806728, 29.5888121141]}, "type": "Feature", "properties": {"collection_times": [{"days": "Mon-Fri", "time": "4:15pm"}, {"days": "Sat", "time": "3:15pm"}, {"days": "Sun", "time": "Closed"}], "id": "7743400000", "name": "USPS COLLECTION BOX - BLUE BOX", "address": {"city": "EAGLE LAKE", "state": "TX", "street": "100 E MAIN ST", "postcode": "77434"}}},
{"geometry": {"type": "Point", "coordinates": [-96.3344806728, 29.5888121141]}, "type": "Feature", "properties": {"collection_times": [{"days": "Mon-Fri", "time": "4:15pm"}, {"days": "Sat", "time": "3:15pm"}, {"days": "Sun", "time": "Closed"}], "id": "7743400002", "name": "USPS COLLECTION BOX - PO LOBBY", "address": {"city": "EAGLE LAKE", "state": "TX", "street": "100 E MAIN ST", "postcode": "77434"}}},
{"geometry": {"type": "Point", "coordinates": [-96.0658477436, 29.5298129492]}, "type": "Feature", "properties": {"collection_times": [{"days": "Mon-Fri", "time": "4:00pm"}, {"days": "Sat", "time": "11:00am"}, {"days": "Sun", "time": "Closed"}], "id": "7743500000", "name": "USPS COLLECTION BOX - BLUE BOX", "address": {"city": "EAST BERNARD", "state": "TX", "street": "703 CHURCH ST", "postcode": "77435"}}},
{"geometry": {"type": "Point", "coordinates": [-96.0658477436, 29.5298129492]}, "type": "Feature", "properties": {"collection_times": [{"days": "Mon-Fri", "time": "4:00pm"}, {"days": "Sat", "time": "11:00am"}, {"days": "Sun", "time": "Closed"}], "id": "7743500003", "name": "USPS COLLECTION BOX - PO LOBBY", "address": {"city": "EAST BERNARD", "state": "TX", "street": "703 CHURCH ST", "postcode": "77435"}}},
{"geometry": {"type": "Point", "coordinates": [-96.2399722325, 29.4060946309]}, "type": "Feature", "properties": {"collection_times": [{"days": "Mon-Fri", "time": "12:15pm"}, {"days": "Sat", "time": "9:30am"}, {"days": "Sun", "time": "Closed"}], "id": "7743600000", "name": "USPS COLLECTION BOX - BLUE BOX", "address": {"city": "EGYPT", "state": "TX", "street": "10718 FM 1161 W", "postcode": "77436"}}},
{"geometry": {"type": "Point", "coordinates": [-96.2399722325, 29.4060946309]}, "type": "Feature", "properties": {"collection_times": [{"days": "Mon-Fri", "time": "12:15pm"}, {"days": "Sat", "time": "9:30am"}, {"days": "Sun", "time": "Closed"}], "id": "7743600001", "name": "USPS COLLECTION BOX - PO LOBBY", "address": {"city": "EGYPT", "state": "TX", "street": "10718 FM 1161 W", "postcode": "77436"}}},
{"geometry": {"type": "Point", "coordinates": [-96.2681315167, 29.1965513296]}, "type": "Feature", "properties": {"collection_times": [{"days": "Mon-Fri", "time": "3:00pm"}, {"days": "Sat-Sun", "time": "Closed"}], "id": "7743700006", "name": "USPS COLLECTION BOX - BLUE BOX", "address": {"city": "EL CAMPO", "state": "TX", "street": "102 N WASHINGTON ST", "postcode": "77437"}}},
{"geometry": {"type": "Point", "coordinates": [-96.2929995773, 29.2011487654]}, "type": "Feature", "properties": {"collection_times": [{"days": "Mon-Fri", "time": "3:00pm"}, {"days": "Sat-Sun", "time": "Closed"}], "id": "7743700008", "name": "USPS COLLECTION BOX - BLUE BOX", "address": {"city": "EL CAMPO", "state": "TX", "street": "1901 SUE ST", "postcode": "77437"}}},
{"geometry": {"type": "Point", "coordinates": [-96.2689773742, 29.1955438533]}, "type": "Feature", "properties": {"collection_times": [{"days": "Mon-Fri", "time": "5:00pm"}, {"days": "Sat", "time": "3:30pm"}, {"days": "Sun", "time": "Closed"}], "id": "7743700013", "name": "USPS COLLECTION BOX - BLUE BOX", "address": {"city": "EL CAMPO", "state": "TX", "street": "110 S MECHANIC ST", "postcode": "77437"}}},
{"geometry": {"type": "Point", "coordinates": [-96.2689773742, 29.1955438533]}, "type": "Feature", "properties": {"collection_times": [{"days": "Mon-Fri", "time": "5:00pm"}, {"days": "Sat", "time": "3:30pm"}, {"days": "Sun", "time": "Closed"}], "id": "7743700019", "name": "USPS COLLECTION BOX - PO LOBBY", "address": {"city": "EL CAMPO", "state": "TX", "street": "110 S MECHANIC ST", "postcode": "77437"}}},
{"geometry": {"type": "Point", "coordinates": [-96.066424764, 28.8301851092]}, "type": "Feature", "properties": {"collection_times": [{"days": "Mon-Fri", "time": "10:15am"}, {"days": "Sat", "time": "9:45am"}, {"days": "Sun", "time": "Closed"}], "id": "7744000000", "name": "USPS COLLECTION BOX - BLUE BOX", "address": {"city": "ELMATON", "state": "TX", "street": "10430 HIGHWAY 35", "postcode": "77440"}}},
{"geometry": {"type": "Point", "coordinates": [-96.066424764, 28.8301851092]}, "type": "Feature", "properties": {"collection_times": [{"days": "Mon-Fri", "time": "10:15am"}, {"days": "Sat", "time": "9:45am"}, {"days": "Sun", "time": "Closed"}], "id": "7744000001", "name": "USPS COLLECTION BOX - PO LOBBY", "address": {"city": "ELMATON", "state": "TX", "street": "10430 HIGHWAY 35", "postcode": "77440"}}},
{"geometry": {"type": "Point", "coordinates": [-95.9008646467, 29.6953649087]}, "type": "Feature", "properties": {"collection_times": [{"days": "Mon-Fri", "time": "4:00pm"}, {"days": "Sat", "time": "11:00am"}, {"days": "Sun", "time": "Closed"}], "id": "7744100000", "name": "USPS COLLECTION BOX - PO LOBBY", "address": {"city": "FULSHEAR", "state": "TX", "street": "8055 FM 359 RD S", "postcode": "77441"}}},
{"geometry": {"type": "Point", "coordinates": [-95.9008646467, 29.6953649087]}, "type": "Feature", "properties": {"collection_times": [{"days": "Mon-Fri", "time": "4:00pm"}, {"days": "Sat", "time": "11:00am"}, {"days": "Sun", "time": "Closed"}], "id": "7744100002", "name": "USPS COLLECTION BOX - BLUE BOX", "address": {"city": "FULSHEAR", "state": "TX", "street": "8055 FM 359 RD S", "postcode": "77441"}}},
{"geometry": {"type": "Point", "coordinates": [-95.9008646467, 29.6953649087]}, "type": "Feature", "properties": {"collection_times": [{"days": "Mon-Fri", "time": "4:00pm"}, {"days": "Sat", "time": "11:00am"}, {"days": "Sun", "time": "Closed"}], "id": "7744100004", "name": "USPS COLLECTION BOX - PO LOBBY", "address": {"city": "FULSHEAR", "state": "TX", "street": "8055 FM 359 RD S", "postcode": "77441"}}},
{"geometry": {"type": "Point", "coordinates": [-96.5150902007, 29.44451692]}, "type": "Feature", "properties": {"collection_times": [{"days": "Mon-Fri", "time": "3:15pm"}, {"days": "Sat", "time": "11:00am"}, {"days": "Sun", "time": "Closed"}], "id": "7744200001", "name": "USPS COLLECTION BOX - PO LOBBY", "address": {"city": "GARWOOD", "state": "TX", "street": "506 ARTHUR ST", "postcode": "77442"}}},
{"geometry": {"type": "Point", "coordinates": [-96.1940950844, 29.346337834]}, "type": "Feature", "properties": {"collection_times": [{"days": "Mon-Fri", "time": "12:45pm"}, {"days": "Sat", "time": "10:00am"}, {"days": "Sun", "time": "Closed"}], "id": "7744300000", "name": "USPS COLLECTION BOX - BLUE BOX", "address": {"city": "GLEN FLORA", "state": "TX", "street": "126 BRIDGE ST", "postcode": "77443"}}},
{"geometry": {"type": "Point", "coordinates": [-96.1940950844, 29.346337834]}, "type": "Feature", "properties": {"collection_times": [{"days": "Mon-Fri", "time": "12:45pm"}, {"days": "Sat", "time": "10:00am"}, {"days": "Sun", "time": "Closed"}], "id": "7744300001", "name": "USPS COLLECTION BOX - PO LOBBY", "address": {"city": "GLEN FLORA", "state": "TX", "street": "126 BRIDGE ST", "postcode": "77443"}}},
{"geometry": {"type": "Point", "coordinates": [-95.7758873979, 29.3478778105]}, "type": "Feature", "properties": {"collection_times": [{"days": "Mon-Fri", "time": "11:45am"}, {"days": "Sat", "time": "10:15am"}, {"days": "Sun", "time": "Closed"}], "id": "7744400001", "name": "USPS COLLECTION BOX - PO LOBBY", "address": {"city": "GUY", "state": "TX", "street": "18623 HIGHWAY 36", "postcode": "77444"}}},
{"geometry": {"type": "Point", "coordinates": [-96.0811049215, 30.0956184736]}, "type": "Feature", "properties": {"collection_times": [{"days": "Mon-Fri", "time": "4:45pm"}, {"days": "Sat", "time": "12:15pm"}, {"days": "Sun", "time": "Closed"}], "id": "7744500000", "name": "USPS COLLECTION BOX - BLUE BOX", "address": {"city": "HEMPSTEAD", "state": "TX", "street": "901 12TH ST", "postcode": "77445"}}},
{"geometry": {"type": "Point", "coordinates": [-96.0811049215, 30.0956184736]}, "type": "Feature", "properties": {"collection_times": [{"days": "Mon-Fri", "time": "4:45pm"}, {"days": "Sat", "time": "12:15pm"}, {"days": "Sun", "time": "Closed"}], "id": "7744500003", "name": "USPS COLLECTION BOX - PO LOBBY", "address": {"city": "HEMPSTEAD", "state": "TX", "street": "901 12TH ST", "postcode": "77445"}}},
{"geometry": {"type": "Point", "coordinates": [-95.9928209964, 30.0731048876]}, "type": "Feature", "properties": {"collection_times": [{"days": "Mon-Fri", "time": "4:15pm"}, {"days": "Sat", "time": "11:45am"}, {"days": "Sun", "time": "Closed"}], "id": "7744600003", "name": "USPS COLLECTION BOX - BLUE BOX", "address": {"city": "PRAIRIE VIEW", "state": "TX", "street": "21212 FM 1098 LOOP", "postcode": "77446"}}},
{"geometry": {"type": "Point", "coordinates": [-95.9928209964, 30.0731048876]}, "type": "Feature", "properties": {"collection_times": [{"days": "Mon-Fri", "time": "4:15pm"}, {"days": "Sat", "time": "11:45am"}, {"days": "Sun", "time": "Closed"}], "id": "7744600004", "name": "USPS COLLECTION BOX - PO LOBBY", "address": {"city": "PRAIRIE VIEW", "state": "TX", "street": "21212 FM 1098 LOOP", "postcode": "77446"}}},
{"geometry": {"type": "Point", "coordinates": [-95.9928209964, 30.0731048876]}, "type": "Feature", "properties": {"collection_times": [{"days": "Mon-Fri", "time": "4:15pm"}, {"days": "Sat", "time": "11:45am"}, {"days": "Sun", "time": "Closed"}], "id": "7744600005", "name": "USPS COLLECTION BOX - PO LOBBY", "address": {"city": "PRAIRIE VIEW", "state": "TX", "street": "21212 FM 1098 LOOP", "postcode": "77446"}}},
{"geometry": {"type": "Point", "coordinates": [-95.9928209964, 30.0731048876]}, "type": "Feature", "properties": {"collection_times": [{"days": "Mon-Fri", "time": "4:15pm"}, {"days": "Sat", "time": "11:45am"}, {"days": "Sun", "time": "Closed"}], "id": "7744600006", "name": "USPS COLLECTION BOX - PO LOBBY", "address": {"city": "PRAIRIE VIEW", "state": "TX", "street": "21212 FM 1098 LOOP", "postcode": "77446"}}},
{"geometry": {"type": "Point", "coordinates": [-95.8462651756, 30.0259226812]}, "type": "Feature", "properties": {"collection_times": [{"days": "Mon-Fri", "time": "4:30pm"}, {"days": "Sat", "time": "11:00am"}, {"days": "Sun", "time": "Closed"}], "id": "7744700000", "name": "USPS COLLECTION BOX - BLUE BOX", "address": {"city": "HOCKLEY", "state": "TX", "street": "17210 WARREN RANCH RD", "postcode": "77447"}}},
{"geometry": {"type": "Point", "coordinates": [-95.8462651756, 30.0259226812]}, "type": "Feature", "properties": {"collection_times": [{"days": "Mon-Fri", "time": "4:30pm"}, {"days": "Sat", "time": "11:00am"}, {"days": "Sun", "time": "Closed"}], "id": "7744700002", "name": "USPS COLLECTION BOX - PO LOBBY", "address": {"city": "HOCKLEY", "state": "TX", "street": "17210 WARREN RANCH RD", "postcode": "77447"}}},
{"geometry": {"type": "Point", "coordinates": [-95.8462651756, 30.0259226812]}, "type": "Feature", "properties": {"collection_times": [{"days": "Mon-Fri", "time": "4:30pm"}, {"days": "Sat", "time": "11:00am"}, {"days": "Sun", "time": "Closed"}], "id": "7744700004", "name": "USPS COLLECTION BOX - PO LOBBY", "address": {"city": "HOCKLEY", "state": "TX", "street": "17210 WARREN RANCH RD", "postcode": "77447"}}},
{"geometry": {"type": "Point", "coordinates": [-96.0769883005, 29.3981012944]}, "type": "Feature", "properties": {"collection_times": [{"days": "Mon-Fri", "time": "2:45pm"}, {"days": "Sat", "time": "10:30am"}, {"days": "Sun", "time": "Closed"}], "id": "7744800002", "name": "USPS COLLECTION BOX - PO LOBBY", "address": {"city": "HUNGERFORD", "state": "TX", "street": "210 E LIVE OAK ST", "postcode": "77448"}}},
{"geometry": {"type": "Point", "coordinates": [-95.71903284, 29.792321776]}, "type": "Feature", "properties": {"collection_times": [{"days": "Mon-Fri", "time": "3:00pm"}, {"days": "Sat", "time": "3:45pm"}, {"days": "Sun", "time": "Closed"}], "id": "7744900000", "name": "USPS COLLECTION BOX - BLUE BOX", "address": {"city": "KATY", "state": "TX", "street": "1793 N FRY RD", "postcode": "77449"}}},
{"geometry": {"type": "Point", "coordinates": [-95.7520839071, 29.7988699449]}, "type": "Feature", "properties": {"collection_times": [{"days": "Mon-Fri", "time": "2:15pm"}, {"days": "Sat-Sun", "time": "Closed"}], "id": "7744900002", "name": "USPS COLLECTION BOX - BLUE BOX", "address": {"city": "KATY", "state": "TX", "street": "1805 N MASON RD", "postcode": "77449"}}},
{"geometry": {"type": "Point", "coordinates": [-95.7220840583, 29.7832634917]}, "type": "Feature", "properties": {"collection_times": [{"days": "Mon-Fri", "time": "3:00pm"}, {"days": "Sat-Sun", "time": "Closed"}], "id": "7745000000", "name": "USPS COLLECTION BOX - BLUE BOX", "address": {"city": "KATY", "state": "TX", "street": "20214 BRAIDWOOD DR", "postcode": "77450"}}},
{"geometry": {"type": "Point", "coordinates": [-95.7545768915, 29.7846102119]}, "type": "Feature", "properties": {"collection_times": [{"days": "Mon-Fri", "time": "2:15pm"}, {"days": "Sat", "time": "3:45pm"}, {"days": "Sun", "time": "Closed"}], "id": "7745000001", "name": "USPS COLLECTION BOX - BLUE BOX", "address": {"city": "KATY", "state": "TX", "street": "21937 KATY FWY", "postcode": "77450"}}},
{"geometry": {"type": "Point", "coordinates": [-95.7517905238, 29.7714398168]}, "type": "Feature", "properties": {"collection_times": [{"days": "Mon-Fri", "time": "2:15pm"}, {"days": "Sat", "time": "3:15pm"}, {"days": "Sun", "time": "Closed"}], "id": "7745000002", "name": "USPS COLLECTION BOX - BLUE BOX", "address": {"city": "KATY", "state": "TX", "street": "830 S MASON RD", "postcode": "77450"}}},
{"geometry": {"type": "Point", "coordinates": [-95.7517786945, 29.7703183713]}, "type": "Feature", "properties": {"collection_times": [{"days": "Mon-Fri", "time": "2:30pm"}, {"days": "Sat", "time": "3:15pm"}, {"days": "Sun", "time": "Closed"}], "id": "7745000003", "name": "USPS COLLECTION BOX - BLUE BOX", "address": {"city": "KATY", "state": "TX", "street": "870 S MASON RD", "postcode": "77450"}}},
{"geometry": {"type": "Point", "coordinates": [-95.7516769598, 29.7758013865]}, "type": "Feature", "properties": {"collection_times": [{"days": "Mon-Fri", "time": "2:45pm"}, {"days": "Sat", "time": "3:30pm"}, {"days": "Sun", "time": "Closed"}], "id": "7745000004", "name": "USPS COLLECTION BOX - BLUE BOX", "address": {"city": "KATY", "state": "TX", "street": "569 S MASON RD", "postcode": "77450"}}},
{"geometry": {"type": "Point", "coordinates": [-95.7296952163, 29.7758901084]}, "type": "Feature", "properties": {"collection_times": [{"days": "Mon-Fri", "time": "2:45pm"}, {"days": "Sat", "time": "3:30pm"}, {"days": "Sun", "time": "Closed"}], "id": "7745000008", "name": "USPS COLLECTION BOX - BLUE BOX", "address": {"city": "KATY", "state": "TX", "street": "20701 KINGSLAND BLVD", "postcode": "77450"}}},
{"geometry": {"type": "Point", "coordinates": [-95.7203885148, 29.7833048177]}, "type": "Feature", "properties": {"collection_times": [{"days": "Mon-Fri", "time": "3:00pm"}, {"days": "Sat", "time": "3:45pm"}, {"days": "Sun", "time": "Closed"}], "id": "7745000013", "name": "USPS COLLECTION BOX - BLUE BOX", "address": {"city": "KATY", "state": "TX", "street": "20045 KATY FWY", "postcode": "77450"}}},
{"geometry": {"type": "Point", "coordinates": [-95.7514285384, 29.7590081011]}, "type": "Feature", "properties": {"collection_times": [{"days": "Mon-Fri", "time": "2:30pm"}, {"days": "Sat", "time": "3:15pm"}, {"days": "Sun", "time": "Closed"}], "id": "7745000014", "name": "USPS COLLECTION BOX - BLUE BOX", "address": {"city": "KATY", "state": "TX", "street": "1565 S MASON RD", "postcode": "77450"}}},
{"geometry": {"type": "Point", "coordinates": [-95.7273731235, 29.7897026048]}, "type": "Feature", "properties": {"collection_times": [{"days": "Mon-Fri", "time": "5:30pm"}, {"days": "Sat", "time": "4:30pm"}, {"days": "Sun", "time": "Closed"}], "id": "7745000015", "name": "USPS COLLECTION BOX - BLUE BOX", "address": {"city": "KATY", "state": "TX", "street": "20180 PARK ROW DR", "postcode": "77450"}}},
{"geometry": {"type": "Point", "coordinates": [-95.7273731235, 29.7897026048]}, "type": "Feature", "properties": {"collection_times": [{"days": "Mon-Fri", "time": "5:30pm"}, {"days": "Sat", "time": "4:30pm"}, {"days": "Sun", "time": "Closed"}], "id": "7745000018", "name": "USPS COLLECTION BOX - PO LOBBY", "address": {"city": "KATY", "state": "TX", "street": "20180 PARK ROW DR", "postcode": "77450"}}},
{"geometry": {"type": "Point", "coordinates": [-95.7273731235, 29.7897026048]}, "type": "Feature", "properties": {"collection_times": [{"days": "Mon-Fri", "time": "5:30pm"}, {"days": "Sat", "time": "4:30pm"}, {"days": "Sun", "time": "Closed"}], "id": "7745000022", "name": "USPS COLLECTION BOX - APC", "address": {"city": "KATY", "state": "TX", "street": "20180 PARK ROW DR", "postcode": "77450"}}},
{"geometry": {"type": "Point", "coordinates": [-96.0017648323, 29.4476272146]}, "type": "Feature", "properties": {"collection_times": [{"days": "Mon-Fri", "time": "11:45am"}, {"days": "Sat", "time": "10:00am"}, {"days": "Sun", "time": "Closed"}], "id": "7745100000", "name": "USPS COLLECTION BOX - BLUE BOX", "address": {"city": "KENDLETON", "state": "TX", "street": "13635 WILLIE MELTON BLVD", "postcode": "77451"}}},
{"geometry": {"type": "Point", "coordinates": [-96.0017648323, 29.4476272146]}, "type": "Feature", "properties": {"collection_times": [{"days": "Mon-Fri", "time": "11:45am"}, {"days": "Sat", "time": "10:00am"}, {"days": "Sun", "time": "Closed"}], "id": "7745100001", "name": "USPS COLLECTION BOX - PO LOBBY", "address": {"city": "KENDLETON", "state": "TX", "street": "13635 WILLIE MELTON BLVD", "postcode": "77451"}}},
{"geometry": {"type": "Point", "coordinates": [-96.3216886824, 30.0483022436]}, "type": "Feature", "properties": {"collection_times": [{"days": "Mon-Fri", "time": "11:45am"}, {"days": "Sat", "time": "11:00am"}, {"days": "Sun", "time": "Closed"}], "id": "7745200001", "name": "USPS COLLECTION BOX - PO LOBBY", "address": {"city": "KENNEY", "state": "TX", "street": "707 S LOOP 497", "postcode": "77452"}}},
{"geometry": {"type": "Point", "coordinates": [-96.02361367, 29.2154679058]}, "type": "Feature", "properties": {"collection_times": [{"days": "Mon-Fri", "time": "1:15pm"}, {"days": "Sat", "time": "9:30am"}, {"days": "Sun", "time": "Closed"}], "id": "7745300001", "name": "USPS COLLECTION BOX - PO LOBBY", "address": {"city": "LANE CITY", "state": "TX", "street": "110 LENERT ST", "postcode": "77453"}}},
{"geometry": {"type": "Point", "coordinates": [-96.2247243677, 29.5557075551]}, "type": "Feature", "properties": {"collection_times": [{"days": "Mon-Fri", "time": "10:45am"}, {"days": "Sat", "time": "11:00am"}, {"days": "Sun", "time": "Closed"}], "id": "7745400001", "name": "USPS COLLECTION BOX - PO LOBBY", "address": {"city": "LISSIE", "state": "TX", "street": "213 RAYMOND AVE", "postcode": "77454"}}},
{"geometry": {"type": "Point", "coordinates": [-96.410708131, 29.1069906935]}, "type": "Feature", "properties": {"collection_times": [{"days": "Mon-Fri", "time": "4:30pm"}, {"days": "Sat", "time": "11:15am"}, {"days": "Sun", "time": "Closed"}], "id": "7745500000", "name": "USPS COLLECTION BOX - BLUE BOX", "address": {"city": "LOUISE", "state": "TX", "street": "1000 NORTH ST", "postcode": "77455"}}},
{"geometry": {"type": "Point", "coordinates": [-96.410708131, 29.1069906935]}, "type": "Feature", "properties": {"collection_times": [{"days": "Mon-Fri", "time": "4:30pm"}, {"days": "Sat", "time": "11:15am"}, {"days": "Sun", "time": "Closed"}], "id": "7745500001", "name": "USPS COLLECTION BOX - PO LOBBY", "address": {"city": "LOUISE", "state": "TX", "street": "1000 NORTH ST", "postcode": "77455"}}},
{"geometry": {"type": "Point", "coordinates": [-96.1038567659, 28.9092688446]}, "type": "Feature", "properties": {"collection_times": [{"days": "Mon-Fri", "time": "2:45pm"}, {"days": "Sat", "time": "11:45am"}, {"days": "Sun", "time": "Closed"}], "id": "7745600000", "name": "USPS COLLECTION BOX - PO LOBBY", "address": {"city": "MARKHAM", "state": "TX", "street": "610 BROADWAY ST", "postcode": "77456"}}},
{"geometry": {"type": "Point", "coordinates": [-96.1038567659, 28.9092688446]}, "type": "Feature", "properties": {"collection_times": [{"days": "Mon-Fri", "time": "2:45pm"}, {"days": "Sat", "time": "11:45am"}, {"days": "Sun", "time": "Closed"}], "id": "7745600001", "name": "USPS COLLECTION BOX - BLUE BOX", "address": {"city": "MARKHAM", "state": "TX", "street": "610 BROADWAY ST", "postcode": "77456"}}},
{"geometry": {"type": "Point", "coordinates": [-95.8780911858, 28.7575815743]}, "type": "Feature", "properties": {"collection_times": [{"days": "Mon-Fri", "time": "3:15pm"}, {"days": "Sat", "time": "11:00am"}, {"days": "Sun", "time": "Closed"}], "id": "7745700000", "name": "USPS COLLECTION BOX - BLUE BOX", "address": {"city": "MATAGORDA", "state": "TX", "street": "750 MARKET ST", "postcode": "77457"}}},
{"geometry": {"type": "Point", "coordinates": [-95.8780911858, 28.7575815743]}, "type": "Feature", "properties": {"collection_times": [{"days": "Mon-Fri", "time": "3:15pm"}, {"days": "Sat", "time": "11:00am"}, {"days": "Sun", "time": "Closed"}], "id": "7745700001", "name": "USPS COLLECTION BOX - PO LOBBY", "address": {"city": "MATAGORDA", "state": "TX", "street": "750 MARKET ST", "postcode": "77457"}}},
{"geometry": {"type": "Point", "coordinates": [-96.2518215795, 28.948283601]}, "type": "Feature", "properties": {"collection_times": [{"days": "Mon-Fri", "time": "2:45pm"}, {"days": "Sat", "time": "9:00am"}, {"days": "Sun", "time": "Closed"}], "id": "7745800000", "name": "USPS COLLECTION BOX - BLUE BOX", "address": {"city": "MIDFIELD", "state": "TX", "street": "275 JUNETTA AVE", "postcode": "77458"}}},
{"geometry": {"type": "Point", "coordinates": [-96.2518215795, 28.948283601]}, "type": "Feature", "properties": {"collection_times": [{"days": "Mon-Fri", "time": "2:45pm"}, {"days": "Sat", "time": "9:00am"}, {"days": "Sun", "time": "Closed"}], "id": "7745800001", "name": "USPS COLLECTION BOX - PO LOBBY", "address": {"city": "MIDFIELD", "state": "TX", "street": "275 JUNETTA AVE", "postcode": "77458"}}},
{"geometry": {"type": "Point", "coordinates": [-95.5632020227, 29.567705892]}, "type": "Feature", "properties": {"collection_times": [{"days": "Mon-Fri", "time": "2:30pm"}, {"days": "Sat-Sun", "time": "Closed"}], "id": "7745900000", "name": "USPS COLLECTION BOX - BLUE BOX", "address": {"city": "MISSOURI CITY", "state": "TX", "street": "3660 HAMPTON DR", "postcode": "77459"}}},
{"geometry": {"type": "Point", "coordinates": [-95.5640028859, 29.570676302]}, "type": "Feature", "properties": {"collection_times": [{"days": "Mon-Fri", "time": "2:15pm"}, {"days": "Sat-Sun", "time": "Closed"}], "id": "7745900001", "name": "USPS COLLECTION BOX - BLUE BOX", "address": {"city": "MISSOURI CITY", "state": "TX", "street": "3434 FM 1092 RD", "postcode": "77459"}}},
{"geometry": {"type": "Point", "coordinates": [-95.5267976435, 29.5982581732]}, "type": "Feature", "properties": {"collection_times": [{"days": "Mon-Fri", "time": "5:00pm"}, {"days": "Sat", "time": "3:45pm"}, {"days": "Sun", "time": "Closed"}], "id": "7745900018", "name": "USPS COLLECTION BOX - PO LOBBY", "address": {"city": "MISSOURI CITY", "state": "TX", "street": "1902 TEXAS PKWY", "postcode": "77459"}}},
{"geometry": {"type": "Point", "coordinates": [-95.5267976435, 29.5982581732]}, "type": "Feature", "properties": {"collection_times": [{"days": "Mon-Fri", "time": "5:00pm"}, {"days": "Sat", "time": "3:45pm"}, {"days": "Sun", "time": "Closed"}], "id": "7745900019", "name": "USPS COLLECTION BOX - BLUE BOX", "address": {"city": "MISSOURI CITY", "state": "TX", "street": "1902 TEXAS PKWY", "postcode": "77459"}}},
{"geometry": {"type": "Point", "coordinates": [-95.5669768447, 29.5685517077]}, "type": "Feature", "properties": {"collection_times": [{"days": "Mon-Fri", "time": "2:45pm"}, {"days": "Sat-Sun", "time": "Closed"}], "id": "7745900021", "name": "USPS COLLECTION BOX - BLUE BOX", "address": {"city": "MISSOURI CITY", "state": "TX", "street": "5819 HIGHWAY 6", "postcode": "77459"}}},
{"geometry": {"type": "Point", "coordinates": [-95.562376962, 29.5631887975]}, "type": "Feature", "properties": {"collection_times": [{"days": "Mon-Fri", "time": "5:00pm"}, {"days": "Sat", "time": "3:30pm"}, {"days": "Sun", "time": "Closed"}], "id": "7745900026", "name": "USPS COLLECTION BOX - PO LOBBY", "address": {"city": "MISSOURI CITY", "state": "TX", "street": "3701 GLENN LAKES LN", "postcode": "77459"}}},
{"geometry": {"type": "Point", "coordinates": [-95.562376962, 29.5631887975]}, "type": "Feature", "properties": {"collection_times": [{"days": "Mon-Fri", "time": "5:00pm"}, {"days": "Sat", "time": "3:30pm"}, {"days": "Sun", "time": "Closed"}], "id": "7745900027", "name": "USPS COLLECTION BOX - PO LOBBY", "address": {"city": "MISSOURI CITY", "state": "TX", "street": "3701 GLENN LAKES LN", "postcode": "77459"}}},
{"geometry": {"type": "Point", "coordinates": [-95.562376962, 29.5631887975]}, "type": "Feature", "properties": {"collection_times": [{"days": "Mon-Fri", "time": "5:00pm"}, {"days": "Sat", "time": "3:30pm"}, {"days": "Sun", "time": "Closed"}], "id": "7745900028", "name": "USPS COLLECTION BOX - BLUE BOX", "address": {"city": "MISSOURI CITY", "state": "TX", "street": "3701 GLENN LAKES LN", "postcode": "77459"}}},
{"geometry": {"type": "Point", "coordinates": [-95.8358551367, 29.4011559164]}, "type": "Feature", "properties": {"collection_times": [{"days": "Mon-Fri", "time": "4:00pm"}, {"days": "Sat", "time": "11:45am"}, {"days": "Sun", "time": "Closed"}], "id": "7746100002", "name": "USPS COLLECTION BOX - BLUE BOX", "address": {"city": "NEEDVILLE", "state": "TX", "street": "3000 SCHOOL ST", "postcode": "77461"}}},
{"geometry": {"type": "Point", "coordinates": [-95.8358551367, 29.4011559164]}, "type": "Feature", "properties": {"collection_times": [{"days": "Mon-Fri", "time": "4:00pm"}, {"days": "Sat", "time": "12:00pm"}, {"days": "Sun", "time": "Closed"}], "id": "7746100003", "name": "USPS COLLECTION BOX - PO LOBBY", "address": {"city": "NEEDVILLE", "state": "TX", "street": "3000 SCHOOL ST", "postcode": "77461"}}},
{"geometry": {"type": "Point", "coordinates": [-95.8358551367, 29.4011559164]}, "type": "Feature", "properties": {"collection_times": [{"days": "Mon-Fri", "time": "4:00pm"}, {"days": "Sat", "time": "12:00pm"}, {"days": "Sun", "time": "Closed"}], "id": "7746100004", "name": "USPS COLLECTION BOX - PO LOBBY", "address": {"city": "NEEDVILLE", "state": "TX", "street": "3000 SCHOOL ST", "postcode": "77461"}}},
{"geometry": {"type": "Point", "coordinates": [-95.641370011, 29.3628938106]}, "type": "Feature", "properties": {"collection_times": [{"days": "Mon-Sat", "time": "12:00pm"}, {"days": "Sun", "time": "Closed"}], "id": "7746100006", "name": "USPS COLLECTION BOX - BLUE BOX", "address": {"city": "NEEDVILLE", "state": "TX", "street": "22934 FM 762 RD", "postcode": "77461"}}},
{"geometry": {"type": "Point", "coordinates": [-95.7501109063, 29.0798424108]}, "type": "Feature", "properties": {"collection_times": [{"days": "Mon-Fri", "time": "1:45pm"}, {"days": "Sat", "time": "9:30am"}, {"days": "Sun", "time": "Closed"}], "id": "7746300000", "name": "USPS COLLECTION BOX - BLUE BOX", "address": {"city": "OLD OCEAN", "state": "TX", "street": "21724 HIGHWAY 35", "postcode": "77463"}}},
{"geometry": {"type": "Point", "coordinates": [-95.7494930928, 29.0798127735]}, "type": "Feature", "properties": {"collection_times": [{"days": "Mon-Fri", "time": "1:45pm"}, {"days": "Sat", "time": "9:30am"}, {"days": "Sun", "time": "Closed"}], "id": "7746300001", "name": "USPS COLLECTION BOX - PO LOBBY", "address": {"city": "OLD OCEAN", "state": "TX", "street": "21724 HIGHWAY 35", "postcode": "77463"}}},
{"geometry": {"type": "Point", "coordinates": [-95.9709039668, 29.6010931115]}, "type": "Feature", "properties": {"collection_times": [{"days": "Mon-Fri", "time": "11:45am"}, {"days": "Sat", "time": "11:30am"}, {"days": "Sun", "time": "Closed"}], "id": "7746400000", "name": "USPS COLLECTION BOX - BLUE BOX", "address": {"city": "ORCHARD", "state": "TX", "street": "218 MISSOURI", "postcode": "77464"}}},
{"geometry": {"type": "Point", "coordinates": [-95.9709039668, 29.6010931115]}, "type": "Feature", "properties": {"collection_times": [{"days": "Mon-Fri", "time": "11:45am"}, {"days": "Sat", "time": "11:30am"}, {"days": "Sun", "time": "Closed"}], "id": "7746400001", "name": "USPS COLLECTION BOX - PO LOBBY", "address": {"city": "ORCHARD", "state": "TX", "street": "218 MISSOURI", "postcode": "77464"}}},
{"geometry": {"type": "Point", "coordinates": [-95.9709039668, 29.6010931115]}, "type": "Feature", "properties": {"collection_times": [{"days": "Mon-Fri", "time": "11:45am"}, {"days": "Sat", "time": "11:30am"}, {"days": "Sun", "time": "Closed"}], "id": "7746400002", "name": "USPS COLLECTION BOX - PO LOBBY", "address": {"city": "ORCHARD", "state": "TX", "street": "218 MISSOURI", "postcode": "77464"}}},
{"geometry": {"type": "Point", "coordinates": [-96.2189279682, 28.713786964]}, "type": "Feature", "properties": {"collection_times": [{"days": "Mon-Fri", "time": "4:15pm"}, {"days": "Sat", "time": "4:00pm"}, {"days": "Sun", "time": "Closed"}], "id": "7746500004", "name": "USPS COLLECTION BOX - PO LOBBY", "address": {"city": "PALACIOS", "state": "TX", "street": "700 HENDERSON ST", "postcode": "77465"}}},
{"geometry": {"type": "Point", "coordinates": [-96.2189279682, 28.713786964]}, "type": "Feature", "properties": {"collection_times": [{"days": "Mon-Fri", "time": "4:15pm"}, {"days": "Sat", "time": "4:00pm"}, {"days": "Sun", "time": "Closed"}], "id": "7746500005", "name": "USPS COLLECTION BOX - BLUE BOX", "address": {"city": "PALACIOS", "state": "TX", "street": "700 HENDERSON ST", "postcode": "77465"}}},
{"geometry": {"type": "Point", "coordinates": [-95.9930332979, 29.8243246942]}, "type": "Feature", "properties": {"collection_times": [{"days": "Mon-Fri", "time": "4:30pm"}, {"days": "Sat", "time": "11:00am"}, {"days": "Sun", "time": "Closed"}], "id": "7746600000", "name": "USPS COLLECTION BOX - BLUE BOX", "address": {"city": "PATTISON", "state": "TX", "street": "3637 2ND ST", "postcode": "77466"}}},
{"geometry": {"type": "Point", "coordinates": [-95.9930332979, 29.8243246942]}, "type": "Feature", "properties": {"collection_times": [{"days": "Mon-Fri", "time": "4:30pm"}, {"days": "Sat", "time": "11:00am"}, {"days": "Sun", "time": "Closed"}], "id": "7746600001", "name": "USPS COLLECTION BOX - PO LOBBY", "address": {"city": "PATTISON", "state": "TX", "street": "3637 2ND ST", "postcode": "77466"}}},
{"geometry": {"type": "Point", "coordinates": [-96.2012231628, 29.2400091253]}, "type": "Feature", "properties": {"collection_times": [{"days": "Mon-Fri", "time": "9:45am"}, {"days": "Sat", "time": "9:00am"}, {"days": "Sun", "time": "Closed"}], "id": "7746700000", "name": "USPS COLLECTION BOX - BLUE BOX", "address": {"city": "PIERCE", "state": "TX", "street": "18566 LOOP 526 HWY", "postcode": "77467"}}},
{"geometry": {"type": "Point", "coordinates": [-96.2012231628, 29.2400091253]}, "type": "Feature", "properties": {"collection_times": [{"days": "Mon-Fri", "time": "9:45am"}, {"days": "Sat", "time": "9:00am"}, {"days": "Sun", "time": "Closed"}], "id": "7746700001", "name": "USPS COLLECTION BOX - PO LOBBY", "address": {"city": "PIERCE", "state": "TX", "street": "18566 LOOP 526 HWY", "postcode": "77467"}}},
{"geometry": {"type": "Point", "coordinates": [-95.8902928875, 29.1737152966]}, "type": "Feature", "properties": {"collection_times": [{"days": "Mon-Fri", "time": "1:45pm"}, {"days": "Sat", "time": "11:45am"}, {"days": "Sun", "time": "Closed"}], "id": "7746800000", "name": "USPS COLLECTION BOX - BLUE BOX", "address": {"city": "PLEDGER", "state": "TX", "street": "9463 FM 1728 RD", "postcode": "77468"}}},
{"geometry": {"type": "Point", "coordinates": [-95.8902928875, 29.1737152966]}, "type": "Feature", "properties": {"collection_times": [{"days": "Mon-Fri", "time": "1:45pm"}, {"days": "Sat", "time": "11:45am"}, {"days": "Sun", "time": "Closed"}], "id": "7746800001", "name": "USPS COLLECTION BOX - PO LOBBY", "address": {"city": "PLEDGER", "state": "TX", "street": "9463 FM 1728 RD", "postcode": "77468"}}},
{"geometry": {"type": "Point", "coordinates": [-95.7642329695, 29.5818670645]}, "type": "Feature", "properties": {"collection_times": [{"days": "Mon-Fri", "time": "2:00pm"}, {"days": "Sat-Sun", "time": "Closed"}], "id": "7746900001", "name": "USPS COLLECTION BOX - BLUE BOX", "address": {"city": "RICHMOND", "state": "TX", "street": "701 MORTON ST", "postcode": "77469"}}},
{"geometry": {"type": "Point", "coordinates": [-95.7420587229, 29.6233391182]}, "type": "Feature", "properties": {"collection_times": [{"days": "Mon-Fri", "time": "2:15pm"}, {"days": "Sat-Sun", "time": "Closed"}], "id": "7746900005", "name": "USPS COLLECTION BOX - BLUE BOX", "address": {"city": "RICHMOND", "state": "TX", "street": "3001 PLANTATION DR", "postcode": "77469"}}},
{"geometry": {"type": "Point", "coordinates": [-95.7704634646, 29.5783788947]}, "type": "Feature", "properties": {"collection_times": [{"days": "Mon-Fri", "time": "1:45pm"}, {"days": "Sat-Sun", "time": "Closed"}], "id": "7746900007", "name": "USPS COLLECTION BOX - BLUE BOX", "address": {"city": "RICHMOND", "state": "TX", "street": "1601 JACKSON ST", "postcode": "77469"}}},
{"geometry": {"type": "Point", "coordinates": [-95.7634800915, 29.5584022041]}, "type": "Feature", "properties": {"collection_times": [{"days": "Mon-Fri", "time": "5:30pm"}, {"days": "Sat", "time": "5:00pm"}, {"days": "Sun", "time": "Closed"}], "id": "7746900019", "name": "USPS COLLECTION BOX - BLUE BOX", "address": {"city": "RICHMOND", "state": "TX", "street": "5560 FM 1640 RD", "postcode": "77469"}}},
{"geometry": {"type": "Point", "coordinates": [-95.7634800915, 29.5584022041]}, "type": "Feature", "properties": {"collection_times": [{"days": "Mon-Fri", "time": "5:30pm"}, {"days": "Sat", "time": "5:00pm"}, {"days": "Sun", "time": "Closed"}], "id": "7746900023", "name": "USPS COLLECTION BOX - PO LOBBY", "address": {"city": "RICHMOND", "state": "TX", "street": "5560 FM 1640 RD", "postcode": "77469"}}},
{"geometry": {"type": "Point", "coordinates": [-95.7634800915, 29.5584022041]}, "type": "Feature", "properties": {"collection_times": [{"days": "Mon-Fri", "time": "5:30pm"}, {"days": "Sat", "time": "5:00pm"}, {"days": "Sun", "time": "Closed"}], "id": "7746900024", "name": "USPS COLLECTION BOX - PO LOBBY", "address": {"city": "RICHMOND", "state": "TX", "street": "5560 FM 1640 RD", "postcode": "77469"}}},
{"geometry": {"type": "Point", "coordinates": [-95.7634800915, 29.5584022041]}, "type": "Feature", "properties": {"collection_times": [{"days": "Mon-Fri", "time": "5:30pm"}, {"days": "Sat", "time": "5:00pm"}, {"days": "Sun", "time": "Closed"}], "id": "7746900026", "name": "USPS COLLECTION BOX - APC", "address": {"city": "RICHMOND", "state": "TX", "street": "5560 FM 1640 RD", "postcode": "77469"}}},
{"geometry": {"type": "Point", "coordinates": [-96.5755815434, 29.5343403692]}, "type": "Feature", "properties": {"collection_times": [{"days": "Mon-Fri", "time": "12:15pm"}, {"days": "Sat", "time": "11:30am"}, {"days": "Sun", "time": "Closed"}], "id": "7747000001", "name": "USPS COLLECTION BOX - PO LOBBY", "address": {"city": "ROCK ISLAND", "state": "TX", "street": "2215 TUTTLE ST", "postcode": "77470"}}},
{"geometry": {"type": "Point", "coordinates": [-95.8053679183, 29.5593707632]}, "type": "Feature", "properties": {"collection_times": [{"days": "Mon-Fri", "time": "5:00pm"}, {"days": "Sat", "time": "3:30pm"}, {"days": "Sun", "time": "Closed"}], "id": "7747100000", "name": "USPS COLLECTION BOX - BLUE BOX", "address": {"city": "ROSENBERG", "state": "TX", "street": "2103 AVENUE G", "postcode": "77471"}}},
{"geometry": {"type": "Point", "coordinates": [-95.784571901, 29.552012985]}, "type": "Feature", "properties": {"collection_times": [{"days": "Mon-Fri", "time": "1:30pm"}, {"days": "Sat-Sun", "time": "Closed"}], "id": "7747100008", "name": "USPS COLLECTION BOX - BLUE BOX", "address": {"city": "ROSENBERG", "state": "TX", "street": "4005 AVENUE N", "postcode": "77471"}}},
{"geometry": {"type": "Point", "coordinates": [-95.7736409589, 29.5726021592]}, "type": "Feature", "properties": {"collection_times": [{"days": "Mon-Fri", "time": "1:30pm"}, {"days": "Sat-Sun", "time": "Closed"}], "id": "7747100013", "name": "USPS COLLECTION BOX - BLUE BOX", "address": {"city": "ROSENBERG", "state": "TX", "street": "117 LANE DR", "postcode": "77471"}}},
{"geometry": {"type": "Point", "coordinates": [-95.8053679183, 29.5593707632]}, "type": "Feature", "properties": {"collection_times": [{"days": "Mon-Fri", "time": "5:00pm"}, {"days": "Sat", "time": "3:30pm"}, {"days": "Sun", "time": "Closed"}], "id": "7747100021", "name": "USPS COLLECTION BOX - PO LOBBY", "address": {"city": "ROSENBERG", "state": "TX", "street": "2103 AVENUE G", "postcode": "77471"}}},
{"geometry": {"type": "Point", "coordinates": [-96.1000471473, 29.7969305194]}, "type": "Feature", "properties": {"collection_times": [{"days": "Mon-Fri", "time": "1:15pm"}, {"days": "Sat", "time": "9:45am"}, {"days": "Sun", "time": "Closed"}], "id": "7747300001", "name": "USPS COLLECTION BOX - PO LOBBY", "address": {"city": "SAN FELIPE", "state": "TX", "street": "15079 FM 1458", "postcode": "77473"}}},
{"geometry": {"type": "Point", "coordinates": [-96.1529780442, 29.7694015785]}, "type": "Feature", "properties": {"collection_times": [{"days": "Mon-Fri", "time": "4:30pm"}, {"days": "Sat", "time": "11:45am"}, {"days": "Sun", "time": "Closed"}], "id": "7747400015", "name": "USPS COLLECTION BOX - PO LOBBY", "address": {"city": "SEALY", "state": "TX", "street": "222 MOODY ST", "postcode": "77474"}}},
{"geometry": {"type": "Point", "coordinates": [-96.1589465931, 29.7806118794]}, "type": "Feature", "properties": {"collection_times": [{"days": "Mon-Sat", "time": "2:30pm"}, {"days": "Sun", "time": "Closed"}], "id": "7747400020", "name": "USPS COLLECTION BOX - BLUE BOX", "address": {"city": "SEALY", "state": "TX", "street": "405 MAIN ST", "postcode": "77474"}}},
{"geometry": {"type": "Point", "coordinates": [-96.1529180349, 29.7694276818]}, "type": "Feature", "properties": {"collection_times": [{"days": "Mon-Fri", "time": "4:30pm"}, {"days": "Sat", "time": "3:30pm"}, {"days": "Sun", "time": "Closed"}], "id": "7747400021", "name": "USPS COLLECTION BOX - BLUE BOX", "address": {"city": "SEALY", "state": "TX", "street": "222 MOODY ST", "postcode": "77474"}}},
{"geometry": {"type": "Point", "coordinates": [-96.6748049063, 29.4946706309]}, "type": "Feature", "properties": {"collection_times": [{"days": "Mon-Fri", "time": "2:45pm"}, {"days": "Sat", "time": "11:30am"}, {"days": "Sun", "time": "Closed"}], "id": "7747500001", "name": "USPS COLLECTION BOX - PO LOBBY", "address": {"city": "SHERIDAN", "state": "TX", "street": "1402 U S HIGHWAY 90A", "postcode": "77475"}}},
{"geometry": {"type": "Point", "coordinates": [-95.9794283888, 29.6798183823]}, "type": "Feature", "properties": {"collection_times": [{"days": "Mon-Fri", "time": "4:30pm"}, {"days": "Sat", "time": "11:00am"}, {"days": "Sun", "time": "Closed"}], "id": "7747600000", "name": "USPS COLLECTION BOX - PO LOBBY", "address": {"city": "SIMONTON", "state": "TX", "street": "35608 FM 1093", "postcode": "77476"}}},
{"geometry": {"type": "Point", "coordinates": [-95.9794283888, 29.6798183823]}, "type": "Feature", "properties": {"collection_times": [{"days": "Mon-Fri", "time": "4:30pm"}, {"days": "Sat", "time": "11:00am"}, {"days": "Sun", "time": "Closed"}], "id": "7747600001", "name": "USPS COLLECTION BOX - BLUE BOX", "address": {"city": "SIMONTON", "state": "TX", "street": "35608 FM 1093", "postcode": "77476"}}},
{"geometry": {"type": "Point", "coordinates": [-95.5924968185, 29.6330927659]}, "type": "Feature", "properties": {"collection_times": [{"days": "Mon-Fri", "time": "3:45pm"}, {"days": "Sat-Sun", "time": "Closed"}], "id": "7747700004", "name": "USPS COLLECTION BOX - BLUE BOX", "address": {"city": "MEADOWS PLACE", "state": "TX", "street": "10707 CORPORATE DR", "postcode": "77477"}}},
{"geometry": {"type": "Point", "coordinates": [-95.582389981, 29.652825989]}, "type": "Feature", "properties": {"collection_times": [{"days": "Mon-Fri", "time": "3:15pm"}, {"days": "Sat-Sun", "time": "Closed"}], "id": "7747700009", "name": "USPS COLLECTION BOX - BLUE BOX", "address": {"city": "MEADOWS PLACE", "state": "TX", "street": "11803 S KIRKWOOD RD", "postcode": "77477"}}},
{"geometry": {"type": "Point", "coordinates": [-95.5723102151, 29.635874897]}, "type": "Feature", "properties": {"collection_times": [{"days": "Mon-Fri", "time": "5:30pm"}, {"days": "Sat", "time": "3:45pm"}, {"days": "Sun", "time": "Closed"}], "id": "7747700027", "name": "USPS COLLECTION BOX - PO LOBBY", "address": {"city": "MEADOWS PLACE", "state": "TX", "street": "4110 BLUEBONNET DR", "postcode": "77477"}}},
{"geometry": {"type": "Point", "coordinates": [-95.5723102151, 29.635874897]}, "type": "Feature", "properties": {"collection_times": [{"days": "Mon-Fri", "time": "5:30pm"}, {"days": "Sat", "time": "3:45pm"}, {"days": "Sun", "time": "Closed"}], "id": "7747700028", "name": "USPS COLLECTION BOX - PO LOBBY", "address": {"city": "MEADOWS PLACE", "state": "TX", "street": "4110 BLUEBONNET DR", "postcode": "77477"}}},
{"geometry": {"type": "Point", "coordinates": [-95.5723102151, 29.635874897]}, "type": "Feature", "properties": {"collection_times": [{"days": "Mon-Fri", "time": "5:30pm"}, {"days": "Sat", "time": "3:45pm"}, {"days": "Sun", "time": "Closed"}], "id": "7747700030", "name": "USPS COLLECTION BOX - BLUE BOX", "address": {"city": "MEADOWS PLACE", "state": "TX", "street": "4110 BLUEBONNET DR", "postcode": "77477"}}},
{"geometry": {"type": "Point", "coordinates": [-95.5695964015, 29.6290220391]}, "type": "Feature", "properties": {"collection_times": [{"days": "Mon-Fri", "time": "5:30pm"}, {"days": "Sat", "time": "3:45pm"}, {"days": "Sun", "time": "Closed"}], "id": "7747700034", "name": "USPS COLLECTION BOX - APC", "address": {"city": "MEADOWS PLACE", "state": "TX", "street": "4110 BLUEBONNET DR", "postcode": "77477"}}},
{"geometry": {"type": "Point", "coordinates": [-95.6028503146, 29.5911656402]}, "type": "Feature", "properties": {"collection_times": [{"days": "Mon-Fri", "time": "2:00pm"}, {"days": "Sat", "time": "2:15pm"}, {"days": "Sun", "time": "Closed"}], "id": "7747800004", "name": "USPS COLLECTION BOX - BLUE BOX", "address": {"city": "SUGARLAND", "state": "TX", "street": "3346 HIGHWAY 6", "postcode": "77478"}}},
{"geometry": {"type": "Point", "coordinates": [-95.5971036693, 29.5894175767]}, "type": "Feature", "properties": {"collection_times": [{"days": "Mon-Sat", "time": "2:30pm"}, {"days": "Sun", "time": "Closed"}], "id": "7747800007", "name": "USPS COLLECTION BOX - BLUE BOX", "address": {"city": "SUGARLAND", "state": "TX", "street": "3685 HIGHWAY 6", "postcode": "77478"}}},
{"geometry": {"type": "Point", "coordinates": [-95.6649703799, 29.6509719928]}, "type": "Feature", "properties": {"collection_times": [{"days": "Mon-Fri", "time": "1:45pm"}, {"days": "Sat", "time": "2:00pm"}, {"days": "Sun", "time": "Closed"}], "id": "7747800009", "name": "USPS COLLECTION BOX - BLUE BOX", "address": {"city": "SUGARLAND", "state": "TX", "street": "15800 W AIRPORT BLVD", "postcode": "77478"}}},
{"geometry": {"type": "Point", "coordinates": [-95.6366985686, 29.6170118783]}, "type": "Feature", "properties": {"collection_times": [{"days": "Mon-Sat", "time": "5:30pm"}, {"days": "Sun", "time": "Closed"}], "id": "7747800012", "name": "USPS COLLECTION BOX - BLUE BOX", "address": {"city": "SUGARLAND", "state": "TX", "street": "225 MATLAGE WAY", "postcode": "77478"}}},
{"geometry": {"type": "Point", "coordinates": [-95.6051012462, 29.6357591554]}, "type": "Feature", "properties": {"collection_times": [{"days": "Mon-Fri", "time": "2:30pm"}, {"days": "Sat-Sun", "time": "Closed"}], "id": "7747800013", "name": "USPS COLLECTION BOX - BLUE BOX", "address": {"city": "SUGARLAND", "state": "TX", "street": "12633 REED RD", "postcode": "77478"}}},
{"geometry": {"type": "Point", "coordinates": [-95.5996231212, 29.6203137251]}, "type": "Feature", "properties": {"collection_times": [{"days": "Mon-Fri", "time": "3:30pm"}, {"days": "Sat", "time": "3:00pm"}, {"days": "Sun", "time": "Closed"}], "id": "7747800019", "name": "USPS COLLECTION BOX - BLUE BOX", "address": {"city": "SUGARLAND", "state": "TX", "street": "421 SUGAR CREEK BLVD", "postcode": "77478"}}},
{"geometry": {"type": "Point", "coordinates": [-95.6076305509, 29.6188799191]}, "type": "Feature", "properties": {"collection_times": [{"days": "Mon-Fri", "time": "3:30pm"}, {"days": "Sat-Sun", "time": "Closed"}], "id": "7747800030", "name": "USPS COLLECTION BOX - BLUE BOX", "address": {"city": "SUGARLAND", "state": "TX", "street": "1 PRUDENTIAL CIR", "postcode": "77478"}}},
{"geometry": {"type": "Point", "coordinates": [-95.5837847657, 29.5811648366]}, "type": "Feature", "properties": {"collection_times": [{"days": "Mon-Sat", "time": "3:00pm"}, {"days": "Sun", "time": "Closed"}], "id": "7747800034", "name": "USPS COLLECTION BOX - BLUE BOX", "address": {"city": "SUGARLAND", "state": "TX", "street": "4646 HIGHWAY 6", "postcode": "77478"}}},
{"geometry": {"type": "Point", "coordinates": [-95.5972747897, 29.6225242105]}, "type": "Feature", "properties": {"collection_times": [{"days": "Mon-Fri", "time": "3:30pm"}, {"days": "Sat", "time": "3:15pm"}, {"days": "Sun", "time": "Closed"}], "id": "7747800041", "name": "USPS COLLECTION BOX - BLUE BOX", "address": {"city": "SUGARLAND", "state": "TX", "street": "101 SOUTHWESTERN BLVD", "postcode": "77478"}}},
{"geometry": {"type": "Point", "coordinates": [-95.6188175597, 29.6339264236]}, "type": "Feature", "properties": {"collection_times": [{"days": "Mon-Fri", "time": "2:00pm"}, {"days": "Sat", "time": "2:15pm"}, {"days": "Sun", "time": "Closed"}], "id": "7747800046", "name": "USPS COLLECTION BOX - BLUE BOX", "address": {"city": "SUGARLAND", "state": "TX", "street": "1003 ELDRIDGE RD", "postcode": "77478"}}},
{"geometry": {"type": "Point", "coordinates": [-95.6142407872, 29.6051500922]}, "type": "Feature", "properties": {"collection_times": [{"days": "Mon-Sat", "time": "3:15pm"}, {"days": "Sun", "time": "Closed"}], "id": "7747800048", "name": "USPS COLLECTION BOX - BLUE BOX", "address": {"city": "SUGARLAND", "state": "TX", "street": "15355 SOUTHWEST FWY", "postcode": "77478"}}},
{"geometry": {"type": "Point", "coordinates": [-95.6037349286, 29.595064184]}, "type": "Feature", "properties": {"collection_times": [{"days": "Mon-Fri", "time": "2:30pm"}, {"days": "Sat", "time": "2:45pm"}, {"days": "Sun", "time": "Closed"}], "id": "7747800049", "name": "USPS COLLECTION BOX - BLUE BOX", "address": {"city": "SUGARLAND", "state": "TX", "street": "2225 WILLIAMS TRACE BLVD", "postcode": "77478"}}},
{"geometry": {"type": "Point", "coordinates": [-95.6366787547, 29.617011416]}, "type": "Feature", "properties": {"collection_times": [{"days": "Mon-Sat", "time": "5:30pm"}, {"days": "Sun", "time": "Closed"}], "id": "7747800050", "name": "USPS COLLECTION BOX - PO LOBBY", "address": {"city": "SUGARLAND", "state": "TX", "street": "225 MATLAGE WAY", "postcode": "77478"}}},
{"geometry": {"type": "Point", "coordinates": [-95.6194404259, 29.6476889333]}, "type": "Feature", "properties": {"collection_times": [{"days": "Mon-Sat", "time": "2:15pm"}, {"days": "Sun", "time": "Closed"}], "id": "7747800051", "name": "USPS COLLECTION BOX - BLUE BOX", "address": {"city": "SUGARLAND", "state": "TX", "street": "13416 GREENWAY DR", "postcode": "77478"}}},
{"geometry": {"type": "Point", "coordinates": [-95.636699552, 29.617012198]}, "type": "Feature", "properties": {"collection_times": [{"days": "Mon-Sat", "time": "5:30pm"}, {"days": "Sun", "time": "Closed"}], "id": "7747800061", "name": "USPS COLLECTION BOX - APC", "address": {"city": "SUGARLAND", "state": "TX", "street": "225 MATLAGE WAY", "postcode": "77478"}}},
{"geometry": {"type": "Point", "coordinates": [-95.6830803733, 29.5491974667]}, "type": "Feature", "properties": {"collection_times": [{"days": "Mon-Sat", "time": "2:30pm"}, {"days": "Sun", "time": "Closed"}], "id": "7747900005", "name": "USPS COLLECTION BOX - BLUE BOX", "address": {"city": "SUGARLAND", "state": "TX", "street": "7225 GREATWOOD PKWY", "postcode": "77479"}}},
{"geometry": {"type": "Point", "coordinates": [-95.6309242095, 29.5827998141]}, "type": "Feature", "properties": {"collection_times": [{"days": "Mon-Sat", "time": "2:45pm"}, {"days": "Sun", "time": "Closed"}], "id": "7747900009", "name": "USPS COLLECTION BOX - BLUE BOX", "address": {"city": "SUGARLAND", "state": "TX", "street": "4655 SWEETWATER BLVD", "postcode": "77479"}}},
{"geometry": {"type": "Point", "coordinates": [-95.6165790446, 29.5871661432]}, "type": "Feature", "properties": {"collection_times": [{"days": "Mon-Fri", "time": "5:30pm"}, {"days": "Sat", "time": "4:00pm"}, {"days": "Sun", "time": "Closed"}], "id": "7747900010", "name": "USPS COLLECTION BOX - BLUE BOX", "address": {"city": "SUGARLAND", "state": "TX", "street": "3130 GRANTS LAKE BLVD", "postcode": "77479"}}},
{"geometry": {"type": "Point", "coordinates": [-95.6165790446, 29.5871661432]}, "type": "Feature", "properties": {"collection_times": [{"days": "Mon-Fri", "time": "5:30pm"}, {"days": "Sat", "time": "4:00pm"}, {"days": "Sun", "time": "Closed"}], "id": "7747900012", "name": "USPS COLLECTION BOX - PO LOBBY", "address": {"city": "SUGARLAND", "state": "TX", "street": "3130 GRANTS LAKE BLVD", "postcode": "77479"}}},
{"geometry": {"type": "Point", "coordinates": [-95.6165790446, 29.5871661432]}, "type": "Feature", "properties": {"collection_times": [{"days": "Mon-Fri", "time": "5:30pm"}, {"days": "Sat", "time": "4:00pm"}, {"days": "Sun", "time": "Closed"}], "id": "7747900013", "name": "USPS COLLECTION BOX - APC", "address": {"city": "SUGARLAND", "state": "TX", "street": "3130 GRANTS LAKE BLVD", "postcode": "77479"}}},
{"geometry": {"type": "Point", "coordinates": [-95.6764178044, 29.5903912082]}, "type": "Feature", "properties": {"collection_times": [{"days": "Mon-Sat", "time": "2:15pm"}, {"days": "Sun", "time": "Closed"}], "id": "7747900015", "name": "USPS COLLECTION BOX - BLUE BOX", "address": {"city": "SUGARLAND", "state": "TX", "street": "5826 NEW TERRITORY BLVD", "postcode": "77479"}}},
{"geometry": {"type": "Point", "coordinates": [-95.6022152181, 29.5595260711]}, "type": "Feature", "properties": {"collection_times": [{"days": "Mon-Sat", "time": "2:45pm"}, {"days": "Sun", "time": "Closed"}], "id": "7747900017", "name": "USPS COLLECTION BOX - BLUE BOX", "address": {"city": "SUGARLAND", "state": "TX", "street": "4330 KNIGHTSBRIDGE", "postcode": "77479"}}},
{"geometry": {"type": "Point", "coordinates": [-95.6974804518, 29.0402221975]}, "type": "Feature", "properties": {"collection_times": [{"days": "Mon-Fri", "time": "4:15pm"}, {"days": "Sat", "time": "9:30am"}, {"days": "Sun", "time": "Closed"}], "id": "7748000001", "name": "USPS COLLECTION BOX - BLUE BOX", "address": {"city": "SWEENY", "state": "TX", "street": "301 E 2ND ST", "postcode": "77480"}}},
{"geometry": {"type": "Point", "coordinates": [-95.6974804518, 29.0402221975]}, "type": "Feature", "properties": {"collection_times": [{"days": "Mon-Fri", "time": "4:15pm"}, {"days": "Sat", "time": "9:30am"}, {"days": "Sun", "time": "Closed"}], "id": "7748000002", "name": "USPS COLLECTION BOX - PO LOBBY", "address": {"city": "SWEENY", "state": "TX", "street": "301 E 2ND ST", "postcode": "77480"}}},
{"geometry": {"type": "Point", "coordinates": [-95.5888832926, 29.4965091267]}, "type": "Feature", "properties": {"collection_times": [{"days": "Mon-Fri", "time": "11:45am"}, {"days": "Sat", "time": "11:30am"}, {"days": "Sun", "time": "Closed"}], "id": "7748100000", "name": "USPS COLLECTION BOX - BLUE BOX", "address": {"city": "THOMPSONS", "state": "TX", "street": "222 OILFIELD RD", "postcode": "77481"}}},
{"geometry": {"type": "Point", "coordinates": [-95.5888832926, 29.4965091267]}, "type": "Feature", "properties": {"collection_times": [{"days": "Mon-Fri", "time": "11:45am"}, {"days": "Sat", "time": "11:30am"}, {"days": "Sun", "time": "Closed"}], "id": "7748100001", "name": "USPS COLLECTION BOX - PO LOBBY", "address": {"city": "THOMPSONS", "state": "TX", "street": "222 OILFIELD RD", "postcode": "77481"}}},
{"geometry": {"type": "Point", "coordinates": [-95.8969819434, 29.0824383842]}, "type": "Feature", "properties": {"collection_times": [{"days": "Mon-Fri", "time": "4:15pm"}, {"days": "Sat", "time": "10:45am"}, {"days": "Sun", "time": "Closed"}], "id": "7748200000", "name": "USPS COLLECTION BOX - BLUE BOX", "address": {"city": "VAN VLECK", "state": "TX", "street": "8901 STATE HIGHWAY 35 N", "postcode": "77482"}}},
{"geometry": {"type": "Point", "coordinates": [-95.8969819434, 29.0824383842]}, "type": "Feature", "properties": {"collection_times": [{"days": "Mon-Fri", "time": "4:30pm"}, {"days": "Sat", "time": "10:45am"}, {"days": "Sun", "time": "Closed"}], "id": "7748200001", "name": "USPS COLLECTION BOX - PO LOBBY", "address": {"city": "VAN VLECK", "state": "TX", "street": "8901 STATE HIGHWAY 35 N", "postcode": "77482"}}},
{"geometry": {"type": "Point", "coordinates": [-95.8969819434, 29.0824383842]}, "type": "Feature", "properties": {"collection_times": [{"days": "Mon-Fri", "time": "4:30pm"}, {"days": "Sat", "time": "10:45am"}, {"days": "Sun", "time": "Closed"}], "id": "7748200002", "name": "USPS COLLECTION BOX - PO LOBBY", "address": {"city": "VAN VLECK", "state": "TX", "street": "8901 STATE HIGHWAY 35 N", "postcode": "77482"}}},
{"geometry": {"type": "Point", "coordinates": [-95.9365883538, 28.8353834183]}, "type": "Feature", "properties": {"collection_times": [{"days": "Mon-Fri", "time": "12:45pm"}, {"days": "Sat", "time": "11:00am"}, {"days": "Sun", "time": "Closed"}], "id": "7748300000", "name": "USPS COLLECTION BOX - BLUE BOX", "address": {"city": "WADSWORTH", "state": "TX", "street": "13622 HIGHWAY 60 S", "postcode": "77483"}}},
{"geometry": {"type": "Point", "coordinates": [-95.9365883538, 28.8353834183]}, "type": "Feature", "properties": {"collection_times": [{"days": "Mon-Fri", "time": "12:45pm"}, {"days": "Sat", "time": "11:00am"}, {"days": "Sun", "time": "Closed"}], "id": "7748300001", "name": "USPS COLLECTION BOX - PO LOBBY", "address": {"city": "WADSWORTH", "state": "TX", "street": "13622 HIGHWAY 60 S", "postcode": "77483"}}},
{"geometry": {"type": "Point", "coordinates": [-95.9179347445, 30.054468664]}, "type": "Feature", "properties": {"collection_times": [{"days": "Mon-Fri", "time": "4:00pm"}, {"days": "Sat", "time": "11:30am"}, {"days": "Sun", "time": "Closed"}], "id": "7748400000", "name": "USPS COLLECTION BOX - BLUE BOX", "address": {"city": "WALLER", "state": "TX", "street": "40090 HIGHWAY 290 BUSINESS", "postcode": "77484"}}},
{"geometry": {"type": "Point", "coordinates": [-95.9179347445, 30.054468664]}, "type": "Feature", "properties": {"collection_times": [{"days": "Mon-Fri", "time": "4:00pm"}, {"days": "Sat", "time": "11:30am"}, {"days": "Sun", "time": "Closed"}], "id": "7748400001", "name": "USPS COLLECTION BOX - PO LOBBY", "address": {"city": "WALLER", "state": "TX", "street": "40090 HIGHWAY 290 BUSINESS", "postcode": "77484"}}},
{"geometry": {"type": "Point", "coordinates": [-95.9179347445, 30.054468664]}, "type": "Feature", "properties": {"collection_times": [{"days": "Mon-Fri", "time": "4:00pm"}, {"days": "Sat", "time": "11:30am"}, {"days": "Sun", "time": "Closed"}], "id": "7748400002", "name": "USPS COLLECTION BOX - PO LOBBY", "address": {"city": "WALLER", "state": "TX", "street": "40090 HIGHWAY 290 BUSINESS", "postcode": "77484"}}},
{"geometry": {"type": "Point", "coordinates": [-96.0628046312, 29.6311550791]}, "type": "Feature", "properties": {"collection_times": [{"days": "Mon-Fri", "time": "3:45pm"}, {"days": "Sat", "time": "11:45am"}, {"days": "Sun", "time": "Closed"}], "id": "7748500000", "name": "USPS COLLECTION BOX - BLUE BOX", "address": {"city": "WALLIS", "state": "TX", "street": "6418 RAILROAD ST", "postcode": "77485"}}},
{"geometry": {"type": "Point", "coordinates": [-96.0628046312, 29.6311550791]}, "type": "Feature", "properties": {"collection_times": [{"days": "Mon-Fri", "time": "3:45pm"}, {"days": "Sat", "time": "11:45am"}, {"days": "Sun", "time": "Closed"}], "id": "7748500002", "name": "USPS COLLECTION BOX - PO LOBBY", "address": {"city": "WALLIS", "state": "TX", "street": "6418 RAILROAD ST", "postcode": "77485"}}},
{"geometry": {"type": "Point", "coordinates": [-95.6175520247, 29.1699244138]}, "type": "Feature", "properties": {"collection_times": [{"days": "Mon-Sat", "time": "11:00am"}, {"days": "Sun", "time": "Closed"}], "id": "7748600002", "name": "USPS COLLECTION BOX - BLUE BOX", "address": {"city": "WEST COLUMBIA", "state": "TX", "street": "100 FREEMAN BLVD", "postcode": "77486"}}},
{"geometry": {"type": "Point", "coordinates": [-95.65178355, 29.1455943567]}, "type": "Feature", "properties": {"collection_times": [{"days": "Mon-Fri", "time": "4:00pm"}, {"days": "Sat", "time": "12:00pm"}, {"days": "Sun", "time": "Closed"}], "id": "7748600004", "name": "USPS COLLECTION BOX - BLUE BOX", "address": {"city": "WEST COLUMBIA", "state": "TX", "street": "350 W BRAZOS AVE", "postcode": "77486"}}},
{"geometry": {"type": "Point", "coordinates": [-95.65178355, 29.1455943567]}, "type": "Feature", "properties": {"collection_times": [{"days": "Mon-Fri", "time": "4:00pm"}, {"days": "Sat", "time": "12:00pm"}, {"days": "Sun", "time": "Closed"}], "id": "7748600006", "name": "USPS COLLECTION BOX - PO LOBBY", "address": {"city": "WEST COLUMBIA", "state": "TX", "street": "350 W BRAZOS AVE", "postcode": "77486"}}},
{"geometry": {"type": "Point", "coordinates": [-95.65178355, 29.1455943567]}, "type": "Feature", "properties": {"collection_times": [{"days": "Mon-Fri", "time": "4:00pm"}, {"days": "Sat", "time": "12:00pm"}, {"days": "Sun", "time": "Closed"}], "id": "7748600007", "name": "USPS COLLECTION BOX - PO LOBBY", "address": {"city": "WEST COLUMBIA", "state": "TX", "street": "350 W BRAZOS AVE", "postcode": "77486"}}},
{"geometry": {"type": "Point", "coordinates": [-96.0990998527, 29.3105254279]}, "type": "Feature", "properties": {"collection_times": [{"days": "Mon-Fri", "time": "5:00pm"}, {"days": "Sat", "time": "3:00pm"}, {"days": "Sun", "time": "Closed"}], "id": "7748800014", "name": "USPS COLLECTION BOX - BLUE BOX", "address": {"city": "WHARTON", "state": "TX", "street": "100 S RUSK ST", "postcode": "77488"}}},
{"geometry": {"type": "Point", "coordinates": [-96.0991616921, 29.3105720166]}, "type": "Feature", "properties": {"collection_times": [{"days": "Mon-Fri", "time": "5:00pm"}, {"days": "Sat", "time": "3:00pm"}, {"days": "Sun", "time": "Closed"}], "id": "7748800022", "name": "USPS COLLECTION BOX - PO LOBBY", "address": {"city": "WHARTON", "state": "TX", "street": "141 E MILAM ST", "postcode": "77488"}}},
{"geometry": {"type": "Point", "coordinates": [-96.0991616921, 29.3105720166]}, "type": "Feature", "properties": {"collection_times": [{"days": "Mon-Fri", "time": "5:00pm"}, {"days": "Sat", "time": "3:00pm"}, {"days": "Sun", "time": "Closed"}], "id": "7748800024", "name": "USPS COLLECTION BOX - PO LOBBY", "address": {"city": "WHARTON", "state": "TX", "street": "141 E MILAM ST", "postcode": "77488"}}},
{"geometry": {"type": "Point", "coordinates": [-95.809873809, 29.801587526]}, "type": "Feature", "properties": {"collection_times": [{"days": "Mon-Fri", "time": "2:45pm"}, {"days": "Sat", "time": "3:00pm"}, {"days": "Sun", "time": "Closed"}], "id": "7749300004", "name": "USPS COLLECTION BOX - BLUE BOX", "address": {"city": "KATY", "state": "TX", "street": "5249 FRANZ RD", "postcode": "77493"}}},
{"geometry": {"type": "Point", "coordinates": [-95.8225066278, 29.7890517099]}, "type": "Feature", "properties": {"collection_times": [{"days": "Mon-Fri", "time": "3:45pm"}, {"days": "Sat-Sun", "time": "Closed"}], "id": "7749300012", "name": "USPS COLLECTION BOX - PO LOBBY", "address": {"city": "KATY", "state": "TX", "street": "5701 4TH ST", "postcode": "77493"}}},
{"geometry": {"type": "Point", "coordinates": [-95.798739808, 29.750328153]}, "type": "Feature", "properties": {"collection_times": [{"days": "Mon-Sat", "time": "3:15pm"}, {"days": "Sun", "time": "Closed"}], "id": "7749400002", "name": "USPS COLLECTION BOX - BLUE BOX", "address": {"city": "KATY", "state": "TX", "street": "25647 WESTHEIMER PKWY", "postcode": "77494"}}},
{"geometry": {"type": "Point", "coordinates": [-95.7768072159, 29.7573944278]}, "type": "Feature", "properties": {"collection_times": [{"days": "Mon-Fri", "time": "3:00pm"}, {"days": "Sat", "time": "3:30pm"}, {"days": "Sun", "time": "Closed"}], "id": "7749400003", "name": "USPS COLLECTION BOX - BLUE BOX", "address": {"city": "KATY", "state": "TX", "street": "1550 GRAND PKWY # 99", "postcode": "77494"}}},
{"geometry": {"type": "Point", "coordinates": [-95.8174270564, 29.770633989]}, "type": "Feature", "properties": {"collection_times": [{"days": "Mon-Fri", "time": "5:15pm"}, {"days": "Sat", "time": "4:15pm"}, {"days": "Sun", "time": "Closed"}], "id": "7749400006", "name": "USPS COLLECTION BOX - PO LOBBY", "address": {"city": "KATY", "state": "TX", "street": "1331 PIN OAK RD", "postcode": "77494"}}},
{"geometry": {"type": "Point", "coordinates": [-95.8174270564, 29.770633989]}, "type": "Feature", "properties": {"collection_times": [{"days": "Mon-Fri", "time": "5:15pm"}, {"days": "Sat", "time": "4:15pm"}, {"days": "Sun", "time": "Closed"}], "id": "7749400007", "name": "USPS COLLECTION BOX - BLUE BOX", "address": {"city": "KATY", "state": "TX", "street": "1331 PIN OAK RD", "postcode": "77494"}}},
{"geometry": {"type": "Point", "coordinates": [-95.8174270564, 29.770633989]}, "type": "Feature", "properties": {"collection_times": [{"days": "Mon-Fri", "time": "5:15pm"}, {"days": "Sat", "time": "4:15pm"}, {"days": "Sun", "time": "Closed"}], "id": "7749400008", "name": "USPS COLLECTION BOX - BLUE BOX", "address": {"city": "KATY", "state": "TX", "street": "1331 PIN OAK RD", "postcode": "77494"}}},
{"geometry": {"type": "Point", "coordinates": [-95.7817621743, 29.7382878835]}, "type": "Feature", "properties": {"collection_times": [{"days": "Mon-Fri", "time": "3:15pm"}, {"days": "Sat", "time": "3:30pm"}, {"days": "Sun", "time": "Closed"}], "id": "7749400009", "name": "USPS COLLECTION BOX - BLUE BOX", "address": {"city": "KATY", "state": "TX", "street": "23501 CINCO RANCH BLVD", "postcode": "77494"}}}
]}
