{"type": "FeatureCollection", "features": [
{"geometry": {"type": "Point", "coordinates": [-95.2008321848, 29.6922339017]}, "type": "Feature", "properties": {"collection_times": [{"days": "Mon-Fri", "time": "5:30pm"}, {"days": "Sat", "time": "4:45pm"}, {"days": "Sun", "time": "Closed"}], "id": "7750100000", "name": "USPS COLLECTION BOX - BLUE BOX", "address": {"city": "PASADENA", "state": "TX", "street": "1199 PASADENA BLVD", "postcode": "77501"}}},
{"geometry": {"type": "Point", "coordinates": [-95.2008321848, 29.6922339017]}, "type": "Feature", "properties": {"collection_times": [{"days": "Mon-Fri", "time": "5:30pm"}, {"days": "Sat", "time": "4:45pm"}, {"days": "Sun", "time": "Closed"}], "id": "7750100006", "name": "USPS COLLECTION BOX - PO LOBBY", "address": {"city": "PASADENA", "state": "TX", "street": "1199 PASADENA BLVD", "postcode": "77501"}}},
{"geometry": {"type": "Point", "coordinates": [-95.2001796887, 29.6799932528]}, "type": "Feature", "properties": {"collection_times": [{"days": "Mon-Fri", "time": "5:00pm"}, {"days": "Sat", "time": "4:30pm"}, {"days": "Sun", "time": "Closed"}], "id": "7750200026", "name": "USPS COLLECTION BOX - BLUE BOX", "address": {"city": "PASADENA", "state": "TX", "street": "1520 RICHEY ST", "postcode": "77502"}}},
{"geometry": {"type": "Point", "coordinates": [-95.1970177025, 29.6909136036]}, "type": "Feature", "properties": {"collection_times": [{"days": "Mon-Fri", "time": "3:45pm"}, {"days": "Sat-Sun", "time": "Closed"}], "id": "7750200031", "name": "USPS COLLECTION BOX - BLUE BOX", "address": {"city": "PASADENA", "state": "TX", "street": "1211 SOUTHMORE AVE", "postcode": "77502"}}},
{"geometry": {"type": "Point", "coordinates": [-95.2001796887, 29.6799932528]}, "type": "Feature", "properties": {"collection_times": [{"days": "Mon-Fri", "time": "5:00pm"}, {"days": "Sat", "time": "4:30pm"}, {"days": "Sun", "time": "Closed"}], "id": "7750200036", "name": "USPS COLLECTION BOX - PO LOBBY", "address": {"city": "PASADENA", "state": "TX", "street": "1520 RICHEY ST", "postcode": "77502"}}},
{"geometry": {"type": "Point", "coordinates": [-95.1664157403, 29.6813256839]}, "type": "Feature", "properties": {"collection_times": [{"days": "Mon-Fri", "time": "1:00pm"}, {"days": "Sat-Sun", "time": "Closed"}], "id": "7750300002", "name": "USPS COLLECTION BOX - BLUE BOX", "address": {"city": "PASADENA", "state": "TX", "street": "3216 PASADENA BLVD", "postcode": "77503"}}},
{"geometry": {"type": "Point", "coordinates": [-95.1865762792, 29.6624135868]}, "type": "Feature", "properties": {"collection_times": [{"days": "Mon-Fri", "time": "1:15pm"}, {"days": "Sat-Sun", "time": "Closed"}], "id": "7750400003", "name": "USPS COLLECTION BOX - BLUE BOX", "address": {"city": "PASADENA", "state": "TX", "street": "3222 BURKE RD", "postcode": "77504"}}},
{"geometry": {"type": "Point", "coordinates": [-95.1834852074, 29.6507921979]}, "type": "Feature", "properties": {"collection_times": [{"days": "Mon-Fri", "time": "2:00pm"}, {"days": "Sat-Sun", "time": "Closed"}], "id": "7750400009", "name": "USPS COLLECTION BOX - BLUE BOX", "address": {"city": "PASADENA", "state": "TX", "street": "4010 FAIRMONT PKWY", "postcode": "77504"}}},
{"geometry": {"type": "Point", "coordinates": [-95.1815937626, 29.6651410839]}, "type": "Feature", "properties": {"collection_times": [{"days": "Mon-Fri", "time": "1:30pm"}, {"days": "Sat-Sun", "time": "Closed"}], "id": "7750400015", "name": "USPS COLLECTION BOX - BLUE BOX", "address": {"city": "PASADENA", "state": "TX", "street": "4000 SPENCER HWY", "postcode": "77504"}}},
{"geometry": {"type": "Point", "coordinates": [-95.18173916, 29.6601908069]}, "type": "Feature", "properties": {"collection_times": [{"days": "Mon-Fri", "time": "1:30pm"}, {"days": "Sat-Sun", "time": "Closed"}], "id": "7750400016", "name": "USPS COLLECTION BOX - BLUE BOX", "address": {"city": "PASADENA", "state": "TX", "street": "4102 WOODLAWN AVE", "postcode": "77504"}}},
{"geometry": {"type": "Point", "coordinates": [-95.1871464654, 29.6651060014]}, "type": "Feature", "properties": {"collection_times": [{"days": "Mon-Fri", "time": "1:00pm"}, {"days": "Sat-Sun", "time": "Closed"}], "id": "7750400018", "name": "USPS COLLECTION BOX - BLUE BOX", "address": {"city": "PASADENA", "state": "TX", "street": "3707 SPENCER HWY", "postcode": "77504"}}},
{"geometry": {"type": "Point", "coordinates": [-95.181361587, 29.6507496335]}, "type": "Feature", "properties": {"collection_times": [{"days": "Mon-Fri", "time": "2:00pm"}, {"days": "Sat-Sun", "time": "Closed"}], "id": "7750400019", "name": "USPS COLLECTION BOX - BLUE BOX", "address": {"city": "PASADENA", "state": "TX", "street": "4120 FAIRMONT PKWY", "postcode": "77504"}}},
{"geometry": {"type": "Point", "coordinates": [-95.1847840964, 29.6586541432]}, "type": "Feature", "properties": {"collection_times": [{"days": "Mon-Fri", "time": "1:45pm"}, {"days": "Sat-Sun", "time": "Closed"}], "id": "7750400021", "name": "USPS COLLECTION BOX - BLUE BOX", "address": {"city": "PASADENA", "state": "TX", "street": "3801 VISTA RD", "postcode": "77504"}}},
{"geometry": {"type": "Point", "coordinates": [-95.1896051758, 29.6650099973]}, "type": "Feature", "properties": {"collection_times": [{"days": "Mon-Fri", "time": "1:15pm"}, {"days": "Sat-Sun", "time": "Closed"}], "id": "7750400025", "name": "USPS COLLECTION BOX - BLUE BOX", "address": {"city": "PASADENA", "state": "TX", "street": "3550 SPENCER HWY", "postcode": "77504"}}},
{"geometry": {"type": "Point", "coordinates": [-95.1148108906, 29.6638402353]}, "type": "Feature", "properties": {"collection_times": [{"days": "Mon-Fri", "time": "2:30pm"}, {"days": "Sat-Sun", "time": "Closed"}], "id": "7750500004", "name": "USPS COLLECTION BOX - BLUE BOX", "address": {"city": "PASADENA", "state": "TX", "street": "8060 SPENCER HWY", "postcode": "77505"}}},
{"geometry": {"type": "Point", "coordinates": [-95.1498312078, 29.650270513]}, "type": "Feature", "properties": {"collection_times": [{"days": "Mon-Fri", "time": "3:00pm"}, {"days": "Sat-Sun", "time": "Closed"}], "id": "7750500005", "name": "USPS COLLECTION BOX - BLUE BOX", "address": {"city": "PASADENA", "state": "TX", "street": "5953 FAIRMONT PKWY", "postcode": "77505"}}},
{"geometry": {"type": "Point", "coordinates": [-95.1475291762, 29.6657059979]}, "type": "Feature", "properties": {"collection_times": [{"days": "Mon-Fri", "time": "5:00pm"}, {"days": "Sat", "time": "1:45pm"}, {"days": "Sun", "time": "Closed"}], "id": "7750500009", "name": "USPS COLLECTION BOX - BLUE BOX", "address": {"city": "PASADENA", "state": "TX", "street": "6100 SPENCER HWY", "postcode": "77505"}}},
{"geometry": {"type": "Point", "coordinates": [-95.1442417267, 29.6503769793]}, "type": "Feature", "properties": {"collection_times": [{"days": "Mon-Fri", "time": "2:45pm"}, {"days": "Sat-Sun", "time": "Closed"}], "id": "7750500013", "name": "USPS COLLECTION BOX - BLUE BOX", "address": {"city": "PASADENA", "state": "TX", "street": "6243 FAIRMONT PKWY", "postcode": "77505"}}},
{"geometry": {"type": "Point", "coordinates": [-95.1259224242, 29.6636391323]}, "type": "Feature", "properties": {"collection_times": [{"days": "Mon-Fri", "time": "2:30pm"}, {"days": "Sat-Sun", "time": "Closed"}], "id": "7750500014", "name": "USPS COLLECTION BOX - BLUE BOX", "address": {"city": "PASADENA", "state": "TX", "street": "7330 SPENCER HWY", "postcode": "77505"}}},
{"geometry": {"type": "Point", "coordinates": [-95.1475291762, 29.6657059979]}, "type": "Feature", "properties": {"collection_times": [{"days": "Mon-Fri", "time": "5:00pm"}, {"days": "Sat", "time": "1:45pm"}, {"days": "Sun", "time": "Closed"}], "id": "7750500019", "name": "USPS COLLECTION BOX - PO LOBBY", "address": {"city": "PASADENA", "state": "TX", "street": "6100 SPENCER HWY", "postcode": "77505"}}},
{"geometry": {"type": "Point", "coordinates": [-95.1699805479, 29.6495370784]}, "type": "Feature", "properties": {"collection_times": [{"days": "Mon-Fri", "time": "2:15pm"}, {"days": "Sat-Sun", "time": "Closed"}], "id": "7750500020", "name": "USPS COLLECTION BOX - BLUE BOX", "address": {"city": "PASADENA", "state": "TX", "street": "4802 FAIRMONT PKWY", "postcode": "77505"}}},
{"geometry": {"type": "Point", "coordinates": [-95.1352914502, 29.6635189897]}, "type": "Feature", "properties": {"collection_times": [{"days": "Mon-Fri", "time": "2:45pm"}, {"days": "Sat-Sun", "time": "Closed"}], "id": "7750500023", "name": "USPS COLLECTION BOX - BLUE BOX", "address": {"city": "PASADENA", "state": "TX", "street": "6767 SPENCER HWY", "postcode": "77505"}}},
{"geometry": {"type": "Point", "coordinates": [-95.1475291762, 29.6657059979]}, "type": "Feature", "properties": {"collection_times": [{"days": "Mon-Fri", "time": "5:00pm"}, {"days": "Sat", "time": "1:45pm"}, {"days": "Sun", "time": "Closed"}], "id": "7750500024", "name": "USPS COLLECTION BOX - APC", "address": {"city": "PASADENA", "state": "TX", "street": "6100 SPENCER HWY", "postcode": "77505"}}},
{"geometry": {"type": "Point", "coordinates": [-95.1649342115, 29.6495629908]}, "type": "Feature", "properties": {"collection_times": [{"days": "Mon-Fri", "time": "1:00pm"}, {"days": "Sat-Sun", "time": "Closed"}], "id": "7750500027", "name": "USPS COLLECTION BOX - BLUE BOX", "address": {"city": "PASADENA", "state": "TX", "street": "5108 FAIRMONT PKWY", "postcode": "77505"}}},
{"geometry": {"type": "Point", "coordinates": [-95.1967118716, 29.694088496]}, "type": "Feature", "properties": {"collection_times": [{"days": "Mon-Fri", "time": "3:45pm"}, {"days": "Sat-Sun", "time": "Closed"}], "id": "7750600004", "name": "USPS COLLECTION BOX - BLUE BOX", "address": {"city": "PASADENA", "state": "TX", "street": "1149 ELLSWORTH DR", "postcode": "77506"}}},
{"geometry": {"type": "Point", "coordinates": [-95.2106317498, 29.7122161592]}, "type": "Feature", "properties": {"collection_times": [{"days": "Mon-Fri", "time": "4:45pm"}, {"days": "Sat", "time": "4:15pm"}, {"days": "Sun", "time": "Closed"}], "id": "7750600023", "name": "USPS COLLECTION BOX - BLUE BOX", "address": {"city": "PASADENA", "state": "TX", "street": "101 RICHEY ST", "postcode": "77506"}}},
{"geometry": {"type": "Point", "coordinates": [-95.1743634109, 29.6954607284]}, "type": "Feature", "properties": {"collection_times": [{"days": "Mon-Fri", "time": "4:15pm"}, {"days": "Sat-Sun", "time": "Closed"}], "id": "7750600026", "name": "USPS COLLECTION BOX - BLUE BOX", "address": {"city": "PASADENA", "state": "TX", "street": "2619 RED BLUFF RD", "postcode": "77506"}}},
{"geometry": {"type": "Point", "coordinates": [-95.0879786116, 29.3702030507]}, "type": "Feature", "properties": {"collection_times": [{"days": "Mon-Fri", "time": "4:30pm"}, {"days": "Sat", "time": "10:30am"}, {"days": "Sun", "time": "Closed"}], "id": "7751000001", "name": "USPS COLLECTION BOX - BLUE BOX", "address": {"city": "SANTA FE", "state": "TX", "street": "13002 HIGHWAY 6", "postcode": "77510"}}},
{"geometry": {"type": "Point", "coordinates": [-95.0879786116, 29.3702030507]}, "type": "Feature", "properties": {"collection_times": [{"days": "Mon-Fri", "time": "4:30pm"}, {"days": "Sat", "time": "10:30am"}, {"days": "Sun", "time": "Closed"}], "id": "7751000003", "name": "USPS COLLECTION BOX - PO LOBBY", "address": {"city": "SANTA FE", "state": "TX", "street": "13002 HIGHWAY 6", "postcode": "77510"}}},
{"geometry": {"type": "Point", "coordinates": [-95.2290847267, 29.4239077662]}, "type": "Feature", "properties": {"collection_times": [{"days": "Mon-Fri", "time": "12:45pm"}, {"days": "Sat-Sun", "time": "Closed"}], "id": "7751100002", "name": "USPS COLLECTION BOX - BLUE BOX", "address": {"city": "ALVIN", "state": "TX", "street": "1600 E HIGHWAY 6", "postcode": "77511"}}},
{"geometry": {"type": "Point", "coordinates": [-95.2455870042, 29.4238107635]}, "type": "Feature", "properties": {"collection_times": [{"days": "Mon-Fri", "time": "12:15pm"}, {"days": "Sat-Sun", "time": "Closed"}], "id": "7751100008", "name": "USPS COLLECTION BOX - BLUE BOX", "address": {"city": "ALVIN", "state": "TX", "street": "216 W SEALY ST", "postcode": "77511"}}},
{"geometry": {"type": "Point", "coordinates": [-95.2440467917, 29.4227259902]}, "type": "Feature", "properties": {"collection_times": [{"days": "Mon-Fri", "time": "12:30pm"}, {"days": "Sat-Sun", "time": "Closed"}], "id": "7751100009", "name": "USPS COLLECTION BOX - BLUE BOX", "address": {"city": "ALVIN", "state": "TX", "street": "221 S GORDON ST", "postcode": "77511"}}},
{"geometry": {"type": "Point", "coordinates": [-95.2516462788, 29.4124321591]}, "type": "Feature", "properties": {"collection_times": [{"days": "Mon-Fri", "time": "5:15pm"}, {"days": "Sat", "time": "4:00pm"}, {"days": "Sun", "time": "Closed"}], "id": "7751100017", "name": "USPS COLLECTION BOX - BLUE BOX", "address": {"city": "ALVIN", "state": "TX", "street": "455 E HOUSE ST", "postcode": "77511"}}},
{"geometry": {"type": "Point", "coordinates": [-95.2516462788, 29.4124321591]}, "type": "Feature", "properties": {"collection_times": [{"days": "Mon-Fri", "time": "5:15pm"}, {"days": "Sat", "time": "4:00pm"}, {"days": "Sun", "time": "Closed"}], "id": "7751100019", "name": "USPS COLLECTION BOX - PO LOBBY", "address": {"city": "ALVIN", "state": "TX", "street": "455 E HOUSE ST", "postcode": "77511"}}},
{"geometry": {"type": "Point", "coordinates": [-95.2516462788, 29.4124321591]}, "type": "Feature", "properties": {"collection_times": [{"days": "Mon-Fri", "time": "5:15pm"}, {"days": "Sat", "time": "4:00pm"}, {"days": "Sun", "time": "Closed"}], "id": "7751100020", "name": "USPS COLLECTION BOX - PO LOBBY", "address": {"city": "ALVIN", "state": "TX", "street": "455 E HOUSE ST", "postcode": "77511"}}},
{"geometry": {"type": "Point", "coordinates": [-95.246338825, 29.3996382493]}, "type": "Feature", "properties": {"collection_times": [{"days": "Mon-Fri", "time": "12:30pm"}, {"days": "Sat-Sun", "time": "Closed"}], "id": "7751100021", "name": "USPS COLLECTION BOX - BLUE BOX", "address": {"city": "ALVIN", "state": "TX", "street": "3100 S GORDON ST", "postcode": "77511"}}},
{"geometry": {"type": "Point", "coordinates": [-94.693886, 29.657743]}, "type": "Feature", "properties": {"collection_times": [{"days": "Mon-Fri", "time": "4:00pm"}, {"days": "Sat", "time": "2:00pm"}, {"days": "Sun", "time": "Closed"}], "id": "7751400002", "name": "USPS COLLECTION BOX - BLUE BOX", "address": {"city": "ANAHUAC", "state": "TX", "street": "411 S MAIN ST", "postcode": "77514"}}},
{"geometry": {"type": "Point", "coordinates": [-94.693886, 29.657743]}, "type": "Feature", "properties": {"collection_times": [{"days": "Mon-Fri", "time": "4:00pm"}, {"days": "Sat", "time": "2:00pm"}, {"days": "Sun", "time": "Closed"}], "id": "7751400007", "name": "USPS COLLECTION BOX - BLUE BOX", "address": {"city": "ANAHUAC", "state": "TX", "street": "411 S MAIN ST", "postcode": "77514"}}},
{"geometry": {"type": "Point", "coordinates": [-94.693886, 29.657743]}, "type": "Feature", "properties": {"collection_times": [{"days": "Mon-Fri", "time": "4:00pm"}, {"days": "Sat-Sun", "time": "Closed"}], "id": "7751400009", "name": "USPS COLLECTION BOX - PO LOBBY", "address": {"city": "ANAHUAC", "state": "TX", "street": "411 S MAIN ST", "postcode": "77514"}}},
{"geometry": {"type": "Point", "coordinates": [-95.4329624296, 29.1825713173]}, "type": "Feature", "properties": {"collection_times": [{"days": "Mon-Fri", "time": "5:00pm"}, {"days": "Sat", "time": "4:00pm"}, {"days": "Sun", "time": "Closed"}], "id": "7751500006", "name": "USPS COLLECTION BOX - BLUE BOX", "address": {"city": "ANGLETON", "state": "TX", "street": "100 CANNAN DR", "postcode": "77515"}}},
{"geometry": {"type": "Point", "coordinates": [-95.4037010332, 29.1851562495]}, "type": "Feature", "properties": {"collection_times": [{"days": "Mon-Fri", "time": "12:00pm"}, {"days": "Sat-Sun", "time": "Closed"}], "id": "7751500012", "name": "USPS COLLECTION BOX - BLUE BOX", "address": {"city": "ANGLETON", "state": "TX", "street": "146 E HOSPITAL DR", "postcode": "77515"}}},
{"geometry": {"type": "Point", "coordinates": [-94.9889472463, 29.5077441998]}, "type": "Feature", "properties": {"collection_times": [{"days": "Mon-Fri", "time": "4:00pm"}, {"days": "Sat", "time": "10:30am"}, {"days": "Sun", "time": "Closed"}], "id": "7751800003", "name": "USPS COLLECTION BOX - PO LOBBY", "address": {"city": "BACLIFF", "state": "TX", "street": "415 GRAND AVE", "postcode": "77518"}}},
{"geometry": {"type": "Point", "coordinates": [-94.6035669835, 30.22291038]}, "type": "Feature", "properties": {"collection_times": [{"days": "Mon-Fri", "time": "3:30pm"}, {"days": "Sat", "time": "9:30am"}, {"days": "Sun", "time": "Closed"}], "id": "7751900001", "name": "USPS COLLECTION BOX - BLUE BOX", "address": {"city": "BATSON", "state": "TX", "street": "9117 MAIN ST", "postcode": "77519"}}},
{"geometry": {"type": "Point", "coordinates": [-94.6035669835, 30.22291038]}, "type": "Feature", "properties": {"collection_times": [{"days": "Mon-Fri", "time": "3:30pm"}, {"days": "Sat", "time": "9:30am"}, {"days": "Sun", "time": "Closed"}], "id": "7751900002", "name": "USPS COLLECTION BOX - PO LOBBY", "address": {"city": "BATSON", "state": "TX", "street": "9117 MAIN ST", "postcode": "77519"}}},
{"geometry": {"type": "Point", "coordinates": [-94.6035669835, 30.22291038]}, "type": "Feature", "properties": {"collection_times": [{"days": "Mon-Fri", "time": "3:30pm"}, {"days": "Sat", "time": "9:30am"}, {"days": "Sun", "time": "Closed"}], "id": "7751900003", "name": "USPS COLLECTION BOX - PO LOBBY", "address": {"city": "BATSON", "state": "TX", "street": "9117 MAIN ST", "postcode": "77519"}}},
{"geometry": {"type": "Point", "coordinates": [-94.9936001833, 29.7554544923]}, "type": "Feature", "properties": {"collection_times": [{"days": "Mon-Fri", "time": "1:00pm"}, {"days": "Sat-Sun", "time": "Closed"}], "id": "7752000005", "name": "USPS COLLECTION BOX - BLUE BOX", "address": {"city": "BAYTOWN", "state": "TX", "street": "2900 DECKER DR", "postcode": "77520"}}},
{"geometry": {"type": "Point", "coordinates": [-94.9495290378, 29.7454651449]}, "type": "Feature", "properties": {"collection_times": [{"days": "Mon-Fri", "time": "1:15pm"}, {"days": "Sat-Sun", "time": "Closed"}], "id": "7752000012", "name": "USPS COLLECTION BOX - BLUE BOX", "address": {"city": "BAYTOWN", "state": "TX", "street": "2219 N ALEXANDER DR", "postcode": "77520"}}},
{"geometry": {"type": "Point", "coordinates": [-94.9495243152, 29.745085857]}, "type": "Feature", "properties": {"collection_times": [{"days": "Mon-Fri", "time": "1:45pm"}, {"days": "Sat-Sun", "time": "Closed"}], "id": "7752000013", "name": "USPS COLLECTION BOX - BLUE BOX", "address": {"city": "BAYTOWN", "state": "TX", "street": "2300 N ALEXANDER DR", "postcode": "77520"}}},
{"geometry": {"type": "Point", "coordinates": [-94.9978220333, 29.7278716035]}, "type": "Feature", "properties": {"collection_times": [{"days": "Mon-Fri", "time": "1:45pm"}, {"days": "Sat-Sun", "time": "Closed"}], "id": "7752000024", "name": "USPS COLLECTION BOX - BLUE BOX", "address": {"city": "BAYTOWN", "state": "TX", "street": "2401 MARKET ST", "postcode": "77520"}}},
{"geometry": {"type": "Point", "coordinates": [-94.9692662771, 29.7340669574]}, "type": "Feature", "properties": {"collection_times": [{"days": "Mon-Fri", "time": "12:00pm"}, {"days": "Sat-Sun", "time": "Closed"}], "id": "7752000031", "name": "USPS COLLECTION BOX - BLUE BOX", "address": {"city": "BAYTOWN", "state": "TX", "street": "217 W STERLING ST", "postcode": "77520"}}},
{"geometry": {"type": "Point", "coordinates": [-94.9750388837, 29.7399803987]}, "type": "Feature", "properties": {"collection_times": [{"days": "Mon-Sat", "time": "4:00pm"}, {"days": "Sun", "time": "Closed"}], "id": "7752000032", "name": "USPS COLLECTION BOX - BLUE BOX", "address": {"city": "BAYTOWN", "state": "TX", "street": "3508 MARKET ST", "postcode": "77520"}}},
{"geometry": {"type": "Point", "coordinates": [-94.9750388837, 29.7399803987]}, "type": "Feature", "properties": {"collection_times": [{"days": "Mon-Fri", "time": "4:00pm"}, {"days": "Sat", "time": "3:00pm"}, {"days": "Sun", "time": "Closed"}], "id": "7752000034", "name": "USPS COLLECTION BOX - PO LOBBY", "address": {"city": "BAYTOWN", "state": "TX", "street": "3508 MARKET ST", "postcode": "77520"}}},
{"geometry": {"type": "Point", "coordinates": [-94.9750388837, 29.7399803987]}, "type": "Feature", "properties": {"collection_times": [{"days": "Mon-Fri", "time": "4:00pm"}, {"days": "Sat", "time": "3:00pm"}, {"days": "Sun", "time": "Closed"}], "id": "7752000035", "name": "USPS COLLECTION BOX - PO LOBBY", "address": {"city": "BAYTOWN", "state": "TX", "street": "3508 MARKET ST", "postcode": "77520"}}},
{"geometry": {"type": "Point", "coordinates": [-94.9771452241, 29.7526248545]}, "type": "Feature", "properties": {"collection_times": [{"days": "Mon-Fri", "time": "12:15pm"}, {"days": "Sat-Sun", "time": "Closed"}], "id": "7752100001", "name": "USPS COLLECTION BOX - BLUE BOX", "address": {"city": "BAYTOWN", "state": "TX", "street": "2802 GARTH RD", "postcode": "77521"}}},
{"geometry": {"type": "Point", "coordinates": [-94.9781696665, 29.761230881]}, "type": "Feature", "properties": {"collection_times": [{"days": "Mon-Fri", "time": "12:50pm"}, {"days": "Sat-Sun", "time": "Closed"}], "id": "7752100009", "name": "USPS COLLECTION BOX - BLUE BOX", "address": {"city": "BAYTOWN", "state": "TX", "street": "1300 ROLLINGBROOK ST", "postcode": "77521"}}},
{"geometry": {"type": "Point", "coordinates": [-94.9827063141, 29.8033820748]}, "type": "Feature", "properties": {"collection_times": [{"days": "Mon-Fri", "time": "2:00pm"}, {"days": "Sat-Sun", "time": "Closed"}], "id": "7752100011", "name": "USPS COLLECTION BOX - BLUE BOX", "address": {"city": "BAYTOWN", "state": "TX", "street": "1000 SAN JACINTO MALL", "postcode": "77521"}}},
{"geometry": {"type": "Point", "coordinates": [-94.9697366366, 29.7696332978]}, "type": "Feature", "properties": {"collection_times": [{"days": "Mon-Fri", "time": "5:00pm"}, {"days": "Sat", "time": "4:30pm"}, {"days": "Sun", "time": "Closed"}], "id": "7752100020", "name": "USPS COLLECTION BOX - BLUE BOX", "address": {"city": "BAYTOWN", "state": "TX", "street": "601 W BAKER RD", "postcode": "77521"}}},
{"geometry": {"type": "Point", "coordinates": [-95.0318949309, 29.7967480409]}, "type": "Feature", "properties": {"collection_times": [{"days": "Mon-Fri", "time": "2:00pm"}, {"days": "Sat-Sun", "time": "Closed"}], "id": "7752100027", "name": "USPS COLLECTION BOX - BLUE BOX", "address": {"city": "BAYTOWN", "state": "TX", "street": "6800 THOMPSON RD", "postcode": "77521"}}},
{"geometry": {"type": "Point", "coordinates": [-94.9775877428, 29.7676486552]}, "type": "Feature", "properties": {"collection_times": [{"days": "Mon-Fri", "time": "2:00pm"}, {"days": "Sat-Sun", "time": "Closed"}], "id": "7752100028", "name": "USPS COLLECTION BOX - BLUE BOX", "address": {"city": "BAYTOWN", "state": "TX", "street": "4201 GARTH RD", "postcode": "77521"}}},
{"geometry": {"type": "Point", "coordinates": [-94.9697366366, 29.7696332978]}, "type": "Feature", "properties": {"collection_times": [{"days": "Mon-Fri", "time": "5:00pm"}, {"days": "Sat", "time": "4:30pm"}, {"days": "Sun", "time": "Closed"}], "id": "7752100030", "name": "USPS COLLECTION BOX - PO LOBBY", "address": {"city": "BAYTOWN", "state": "TX", "street": "601 W BAKER RD", "postcode": "77521"}}},
{"geometry": {"type": "Point", "coordinates": [-94.9697366366, 29.7696332978]}, "type": "Feature", "properties": {"collection_times": [{"days": "Mon-Fri", "time": "5:00pm"}, {"days": "Sat", "time": "4:30pm"}, {"days": "Sun", "time": "Closed"}], "id": "7752100031", "name": "USPS COLLECTION BOX - PO LOBBY", "address": {"city": "BAYTOWN", "state": "TX", "street": "601 W BAKER RD", "postcode": "77521"}}},
{"geometry": {"type": "Point", "coordinates": [-94.9697366366, 29.7696332978]}, "type": "Feature", "properties": {"collection_times": [{"days": "Mon-Fri", "time": "5:00pm"}, {"days": "Sat", "time": "4:30pm"}, {"days": "Sun", "time": "Closed"}], "id": "7752100037", "name": "USPS COLLECTION BOX - APC", "address": {"city": "BAYTOWN", "state": "TX", "street": "601 W BAKER RD", "postcode": "77521"}}},
{"geometry": {"type": "Point", "coordinates": [-95.1246732195, 29.7820095552]}, "type": "Feature", "properties": {"collection_times": [{"days": "Mon-Fri", "time": "5:00pm"}, {"days": "Sat", "time": "3:00pm"}, {"days": "Sun", "time": "Closed"}], "id": "7753000019", "name": "USPS COLLECTION BOX - BLUE BOX", "address": {"city": "CHANNELVIEW", "state": "TX", "street": "531 SHELDON RD", "postcode": "77530"}}},
{"geometry": {"type": "Point", "coordinates": [-95.1246732195, 29.7820095552]}, "type": "Feature", "properties": {"collection_times": [{"days": "Mon-Fri", "time": "5:00pm"}, {"days": "Sat", "time": "3:00pm"}, {"days": "Sun", "time": "Closed"}], "id": "7753000022", "name": "USPS COLLECTION BOX - PO LOBBY", "address": {"city": "CHANNELVIEW", "state": "TX", "street": "531 SHELDON RD", "postcode": "77530"}}},
{"geometry": {"type": "Point", "coordinates": [-95.1246732195, 29.7820095552]}, "type": "Feature", "properties": {"collection_times": [{"days": "Mon-Fri", "time": "5:00pm"}, {"days": "Sat", "time": "3:00pm"}, {"days": "Sun", "time": "Closed"}], "id": "7753000025", "name": "USPS COLLECTION BOX - PO LOBBY", "address": {"city": "CHANNELVIEW", "state": "TX", "street": "531 SHELDON RD", "postcode": "77530"}}},
{"geometry": {"type": "Point", "coordinates": [-95.4027395001, 29.0313404167]}, "type": "Feature", "properties": {"collection_times": [{"days": "Mon-Fri", "time": "5:00pm"}, {"days": "Sat", "time": "3:00pm"}, {"days": "Sun", "time": "Closed"}], "id": "7753100011", "name": "USPS COLLECTION BOX - BLUE BOX", "address": {"city": "CLUTE", "state": "TX", "street": "530 E MAIN ST", "postcode": "77531"}}},
{"geometry": {"type": "Point", "coordinates": [-95.4027395001, 29.0313404167]}, "type": "Feature", "properties": {"collection_times": [{"days": "Mon-Fri", "time": "5:00pm"}, {"days": "Sat-Sun", "time": "Closed"}], "id": "7753100015", "name": "USPS COLLECTION BOX - PO LOBBY", "address": {"city": "CLUTE", "state": "TX", "street": "530 E MAIN ST", "postcode": "77531"}}},
{"geometry": {"type": "Point", "coordinates": [-95.0645286769, 29.9061418585]}, "type": "Feature", "properties": {"collection_times": [{"days": "Mon-Fri", "time": "4:30pm"}, {"days": "Sat", "time": "12:30pm"}, {"days": "Sun", "time": "Closed"}], "id": "7753200002", "name": "USPS COLLECTION BOX - BLUE BOX", "address": {"city": "CROSBY", "state": "TX", "street": "133 HARE RD", "postcode": "77532"}}},
{"geometry": {"type": "Point", "coordinates": [-95.0566458607, 29.9314156814]}, "type": "Feature", "properties": {"collection_times": [{"days": "Mon-Sat", "time": "10:00am"}, {"days": "Sun", "time": "Closed"}], "id": "7753200004", "name": "USPS COLLECTION BOX - BLUE BOX", "address": {"city": "CROSBY", "state": "TX", "street": "105 KENNINGS RD", "postcode": "77532"}}},
{"geometry": {"type": "Point", "coordinates": [-95.0623865292, 29.9256815888]}, "type": "Feature", "properties": {"collection_times": [{"days": "Mon-Fri", "time": "4:30pm"}, {"days": "Sat", "time": "12:30pm"}, {"days": "Sun", "time": "Closed"}], "id": "7753200010", "name": "USPS COLLECTION BOX - PO LOBBY", "address": {"city": "CROSBY", "state": "TX", "street": "133 HARE RD", "postcode": "77532"}}},
{"geometry": {"type": "Point", "coordinates": [-94.6446881155, 30.1134118964]}, "type": "Feature", "properties": {"collection_times": [{"days": "Mon-Fri", "time": "2:45pm"}, {"days": "Sat", "time": "9:00am"}, {"days": "Sun", "time": "Closed"}], "id": "7753300002", "name": "USPS COLLECTION BOX - PO LOBBY", "address": {"city": "DAISETTA", "state": "TX", "street": "410 MAIN ST", "postcode": "77533"}}},
{"geometry": {"type": "Point", "coordinates": [-94.6446881155, 30.1134118964]}, "type": "Feature", "properties": {"collection_times": [{"days": "Mon-Fri", "time": "2:45pm"}, {"days": "Sat", "time": "9:00am"}, {"days": "Sun", "time": "Closed"}], "id": "7753300003", "name": "USPS COLLECTION BOX - PO LOBBY", "address": {"city": "DAISETTA", "state": "TX", "street": "410 MAIN ST", "postcode": "77533"}}},
{"geometry": {"type": "Point", "coordinates": [-95.3482773061, 29.2249837525]}, "type": "Feature", "properties": {"collection_times": [{"days": "Mon-Fri", "time": "3:00pm"}, {"days": "Sat", "time": "10:30am"}, {"days": "Sun", "time": "Closed"}], "id": "7753400001", "name": "USPS COLLECTION BOX - BLUE BOX", "address": {"city": "DANBURY", "state": "TX", "street": "6003 5TH ST", "postcode": "77534"}}},
{"geometry": {"type": "Point", "coordinates": [-95.3482773061, 29.2249837525]}, "type": "Feature", "properties": {"collection_times": [{"days": "Mon-Fri", "time": "3:45pm"}, {"days": "Sat", "time": "10:30am"}, {"days": "Sun", "time": "Closed"}], "id": "7753400002", "name": "USPS COLLECTION BOX - PO LOBBY", "address": {"city": "DANBURY", "state": "TX", "street": "6003 5TH ST", "postcode": "77534"}}},
{"geometry": {"type": "Point", "coordinates": [-95.3482773061, 29.2249837525]}, "type": "Feature", "properties": {"collection_times": [{"days": "Mon-Fri", "time": "3:45pm"}, {"days": "Sat", "time": "10:30am"}, {"days": "Sun", "time": "Closed"}], "id": "7753400003", "name": "USPS COLLECTION BOX - PO LOBBY", "address": {"city": "DANBURY", "state": "TX", "street": "6003 5TH ST", "postcode": "77534"}}},
{"geometry": {"type": "Point", "coordinates": [-94.8880218826, 30.0449927381]}, "type": "Feature", "properties": {"collection_times": [{"days": "Mon-Fri", "time": "4:15pm"}, {"days": "Sat", "time": "2:00pm"}, {"days": "Sun", "time": "Closed"}], "id": "7753500001", "name": "USPS COLLECTION BOX - BLUE BOX", "address": {"city": "DAYTON", "state": "TX", "street": "110 S MAIN ST", "postcode": "77535"}}},
{"geometry": {"type": "Point", "coordinates": [-95.1222229555, 29.6894980796]}, "type": "Feature", "properties": {"collection_times": [{"days": "Mon-Fri", "time": "4:30pm"}, {"days": "Sat", "time": "3:00pm"}, {"days": "Sun", "time": "Closed"}], "id": "7753600000", "name": "USPS COLLECTION BOX - BLUE BOX", "address": {"city": "DEER PARK", "state": "TX", "street": "200 E SAN AUGUSTINE ST", "postcode": "77536"}}},
{"geometry": {"type": "Point", "coordinates": [-95.1222229555, 29.6894980796]}, "type": "Feature", "properties": {"collection_times": [{"days": "Mon-Fri", "time": "4:30pm"}, {"days": "Sat", "time": "3:00pm"}, {"days": "Sun", "time": "Closed"}], "id": "7753600013", "name": "USPS COLLECTION BOX - PO LOBBY", "address": {"city": "DEER PARK", "state": "TX", "street": "200 E SAN AUGUSTINE ST", "postcode": "77536"}}},
{"geometry": {"type": "Point", "coordinates": [-95.1222229555, 29.6894980796]}, "type": "Feature", "properties": {"collection_times": [{"days": "Mon-Fri", "time": "4:30pm"}, {"days": "Sat", "time": "3:00pm"}, {"days": "Sun", "time": "Closed"}], "id": "7753600014", "name": "USPS COLLECTION BOX - PO LOBBY", "address": {"city": "DEER PARK", "state": "TX", "street": "200 E SAN AUGUSTINE ST", "postcode": "77536"}}},
{"geometry": {"type": "Point", "coordinates": [-95.1222229555, 29.6894980796]}, "type": "Feature", "properties": {"collection_times": [{"days": "Mon-Fri", "time": "4:30pm"}, {"days": "Sat", "time": "3:00pm"}, {"days": "Sun", "time": "Closed"}], "id": "7753600015", "name": "USPS COLLECTION BOX - PO LOBBY", "address": {"city": "DEER PARK", "state": "TX", "street": "200 E SAN AUGUSTINE ST", "postcode": "77536"}}},
{"geometry": {"type": "Point", "coordinates": [-94.5963890344, 29.9578737345]}, "type": "Feature", "properties": {"collection_times": [{"days": "Mon-Fri", "time": "12:45pm"}, {"days": "Sat", "time": "10:00am"}, {"days": "Sun", "time": "Closed"}], "id": "7753800002", "name": "USPS COLLECTION BOX - PO LOBBY", "address": {"city": "DEVERS", "state": "TX", "street": "102 S GATES ST", "postcode": "77538"}}},
{"geometry": {"type": "Point", "coordinates": [-94.5963890344, 29.9578737345]}, "type": "Feature", "properties": {"collection_times": [{"days": "Mon-Fri", "time": "12:30pm"}, {"days": "Sat", "time": "10:00am"}, {"days": "Sun", "time": "Closed"}], "id": "7753800003", "name": "USPS COLLECTION BOX - PO LOBBY", "address": {"city": "DEVERS", "state": "TX", "street": "102 S GATES ST", "postcode": "77538"}}},
{"geometry": {"type": "Point", "coordinates": [-95.0540635819, 29.4614785429]}, "type": "Feature", "properties": {"collection_times": [{"days": "Mon-Fri", "time": "4:30pm"}, {"days": "Sat", "time": "3:30pm"}, {"days": "Sun", "time": "Closed"}], "id": "7753900001", "name": "USPS COLLECTION BOX - BLUE BOX", "address": {"city": "DICKINSON", "state": "TX", "street": "2515 TERMINI ST", "postcode": "77539"}}},
{"geometry": {"type": "Point", "coordinates": [-95.0810480588, 29.4472700228]}, "type": "Feature", "properties": {"collection_times": [{"days": "Mon-Fri", "time": "3:15pm"}, {"days": "Sat-Sun", "time": "Closed"}], "id": "7753900003", "name": "USPS COLLECTION BOX - BLUE BOX", "address": {"city": "DICKINSON", "state": "TX", "street": "215 FM 517 RD W", "postcode": "77539"}}},
{"geometry": {"type": "Point", "coordinates": [-95.0790760433, 29.4509440824]}, "type": "Feature", "properties": {"collection_times": [{"days": "Mon-Fri", "time": "3:00pm"}, {"days": "Sat-Sun", "time": "Closed"}], "id": "7753900007", "name": "USPS COLLECTION BOX - BLUE BOX", "address": {"city": "DICKINSON", "state": "TX", "street": "3422 GULF FWY", "postcode": "77539"}}},
{"geometry": {"type": "Point", "coordinates": [-95.0540635819, 29.4614785429]}, "type": "Feature", "properties": {"collection_times": [{"days": "Mon-Fri", "time": "4:30pm"}, {"days": "Sat", "time": "3:30pm"}, {"days": "Sun", "time": "Closed"}], "id": "7753900016", "name": "USPS COLLECTION BOX - PO LOBBY", "address": {"city": "DICKINSON", "state": "TX", "street": "2515 TERMINI ST", "postcode": "77539"}}},
{"geometry": {"type": "Point", "coordinates": [-95.3478159521, 28.9508543057]}, "type": "Feature", "properties": {"collection_times": [{"days": "Mon-Fri", "time": "2:30pm"}, {"days": "Sat-Sun", "time": "Closed"}], "id": "7754100001", "name": "USPS COLLECTION BOX - BLUE BOX", "address": {"city": "FREEPORT", "state": "TX", "street": "200 W 2ND ST", "postcode": "77541"}}},
{"geometry": {"type": "Point", "coordinates": [-95.3372125394, 28.9947858945]}, "type": "Feature", "properties": {"collection_times": [{"days": "Mon-Fri", "time": "2:30pm"}, {"days": "Sat-Sun", "time": "Closed"}], "id": "7754100005", "name": "USPS COLLECTION BOX - BLUE BOX", "address": {"city": "FREEPORT", "state": "TX", "street": "3210 FM 523 RD", "postcode": "77541"}}},
{"geometry": {"type": "Point", "coordinates": [-95.3679152872, 28.968960745]}, "type": "Feature", "properties": {"collection_times": [{"days": "Mon-Fri", "time": "4:30pm"}, {"days": "Sat", "time": "3:30pm"}, {"days": "Sun", "time": "Closed"}], "id": "7754100010", "name": "USPS COLLECTION BOX - BLUE BOX", "address": {"city": "FREEPORT", "state": "TX", "street": "924 N AVENUE F", "postcode": "77541"}}},
{"geometry": {"type": "Point", "coordinates": [-95.4712689268, 29.5291824569]}, "type": "Feature", "properties": {"collection_times": [{"days": "Mon-Fri", "time": "4:30pm"}, {"days": "Sat", "time": "12:00pm"}, {"days": "Sun", "time": "Closed"}], "id": "7754500001", "name": "USPS COLLECTION BOX - BLUE BOX", "address": {"city": "FRESNO", "state": "TX", "street": "4725 TEAL BEND BLVD", "postcode": "77545"}}},
{"geometry": {"type": "Point", "coordinates": [-95.4712689268, 29.5291824569]}, "type": "Feature", "properties": {"collection_times": [{"days": "Mon-Fri", "time": "4:30pm"}, {"days": "Sat", "time": "12:00pm"}, {"days": "Sun", "time": "Closed"}], "id": "7754500002", "name": "USPS COLLECTION BOX - PO LOBBY", "address": {"city": "FRESNO", "state": "TX", "street": "4725 TEAL BEND BLVD", "postcode": "77545"}}},
{"geometry": {"type": "Point", "coordinates": [-95.4712689268, 29.5291824569]}, "type": "Feature", "properties": {"collection_times": [{"days": "Mon-Fri", "time": "4:30pm"}, {"days": "Sat", "time": "12:00pm"}, {"days": "Sun", "time": "Closed"}], "id": "7754500003", "name": "USPS COLLECTION BOX - PO LOBBY", "address": {"city": "FRESNO", "state": "TX", "street": "4725 TEAL BEND BLVD", "postcode": "77545"}}},
{"geometry": {"type": "Point", "coordinates": [-95.19773868, 29.5267601334]}, "type": "Feature", "properties": {"collection_times": [{"days": "Mon-Fri", "time": "12:30pm"}, {"days": "Sat-Sun", "time": "Closed"}], "id": "7754600002", "name": "USPS COLLECTION BOX - BLUE BOX", "address": {"city": "FRIENDSWOOD", "state": "TX", "street": "607 S FRIENDSWOOD DR", "postcode": "77546"}}},
{"geometry": {"type": "Point", "coordinates": [-95.194366064, 29.523802736]}, "type": "Feature", "properties": {"collection_times": [{"days": "Mon-Fri", "time": "12:15pm"}, {"days": "Sat-Sun", "time": "Closed"}], "id": "7754600003", "name": "USPS COLLECTION BOX - BLUE BOX", "address": {"city": "FRIENDSWOOD", "state": "TX", "street": "820 S FRIENDSWOOD DR", "postcode": "77546"}}},
{"geometry": {"type": "Point", "coordinates": [-95.186985583, 29.5105311193]}, "type": "Feature", "properties": {"collection_times": [{"days": "Mon-Fri", "time": "12:15pm"}, {"days": "Sat-Sun", "time": "Closed"}], "id": "7754600006", "name": "USPS COLLECTION BOX - BLUE BOX", "address": {"city": "FRIENDSWOOD", "state": "TX", "street": "211 E PARKWOOD AVE", "postcode": "77546"}}},
{"geometry": {"type": "Point", "coordinates": [-95.1506157358, 29.5444892312]}, "type": "Feature", "properties": {"collection_times": [{"days": "Mon-Fri", "time": "11:45am"}, {"days": "Sat-Sun", "time": "Closed"}], "id": "7754600009", "name": "USPS COLLECTION BOX - BLUE BOX", "address": {"city": "FRIENDSWOOD", "state": "TX", "street": "1014 BAYBROOK MALL", "postcode": "77546"}}},
{"geometry": {"type": "Point", "coordinates": [-95.1800806515, 29.5448250997]}, "type": "Feature", "properties": {"collection_times": [{"days": "Mon-Fri", "time": "12:30pm"}, {"days": "Sat-Sun", "time": "Closed"}], "id": "7754600011", "name": "USPS COLLECTION BOX - BLUE BOX", "address": {"city": "FRIENDSWOOD", "state": "TX", "street": "15811 HOPE VILLAGE RD", "postcode": "77546"}}},
{"geometry": {"type": "Point", "coordinates": [-95.1499920903, 29.5382703241]}, "type": "Feature", "properties": {"collection_times": [{"days": "Mon-Fri", "time": "12:00pm"}, {"days": "Sat-Sun", "time": "Closed"}], "id": "7754600012", "name": "USPS COLLECTION BOX - BLUE BOX", "address": {"city": "FRIENDSWOOD", "state": "TX", "street": "1560 W BAY AREA BLVD", "postcode": "77546"}}},
{"geometry": {"type": "Point", "coordinates": [-95.20114087, 29.5318977242]}, "type": "Feature", "properties": {"collection_times": [{"days": "Mon-Fri", "time": "5:30pm"}, {"days": "Sat", "time": "4:00pm"}, {"days": "Sun", "time": "Closed"}], "id": "7754600015", "name": "USPS COLLECTION BOX - BLUE BOX", "address": {"city": "FRIENDSWOOD", "state": "TX", "street": "310 MORNINGSIDE DR", "postcode": "77546"}}},
{"geometry": {"type": "Point", "coordinates": [-95.20114087, 29.5318977242]}, "type": "Feature", "properties": {"collection_times": [{"days": "Mon-Fri", "time": "5:30pm"}, {"days": "Sat", "time": "4:00pm"}, {"days": "Sun", "time": "Closed"}], "id": "7754600021", "name": "USPS COLLECTION BOX - PO LOBBY", "address": {"city": "FRIENDSWOOD", "state": "TX", "street": "310 MORNINGSIDE DR", "postcode": "77546"}}},
{"geometry": {"type": "Point", "coordinates": [-95.20114087, 29.5318977242]}, "type": "Feature", "properties": {"collection_times": [{"days": "Mon-Fri", "time": "5:30pm"}, {"days": "Sat", "time": "4:00pm"}, {"days": "Sun", "time": "Closed"}], "id": "7754600022", "name": "USPS COLLECTION BOX - PO LOBBY", "address": {"city": "FRIENDSWOOD", "state": "TX", "street": "310 MORNINGSIDE DR", "postcode": "77546"}}},
{"geometry": {"type": "Point", "coordinates": [-95.20114087, 29.5318977242]}, "type": "Feature", "properties": {"collection_times": [{"days": "Mon-Fri", "time": "5:30pm"}, {"days": "Sat", "time": "4:00pm"}, {"days": "Sun", "time": "Closed"}], "id": "7754600025", "name": "USPS COLLECTION BOX - APC", "address": {"city": "FRIENDSWOOD", "state": "TX", "street": "310 MORNINGSIDE DR", "postcode": "77546"}}},
{"geometry": {"type": "Point", "coordinates": [-95.2389671659, 29.7324506723]}, "type": "Feature", "properties": {"collection_times": [{"days": "Mon-Fri", "time": "5:00pm"}, {"days": "Sat", "time": "3:00pm"}, {"days": "Sun", "time": "Closed"}], "id": "7754700007", "name": "USPS COLLECTION BOX - BLUE BOX", "address": {"city": "GALENA PARK", "state": "TX", "street": "1805 CLINTON DR", "postcode": "77547"}}},
{"geometry": {"type": "Point", "coordinates": [-94.783340559, 29.3038523898]}, "type": "Feature", "properties": {"collection_times": [{"days": "Mon-Fri", "time": "12:45pm"}, {"days": "Sat", "time": "10:00am"}, {"days": "Sun", "time": "Closed"}], "id": "7755000003", "name": "USPS COLLECTION BOX - BLUE BOX", "address": {"city": "GALVESTON", "state": "TX", "street": "1501 AVENUE H REAR", "postcode": "77550"}}},
{"geometry": {"type": "Point", "coordinates": [-94.7986952377, 29.2954737306]}, "type": "Feature", "properties": {"collection_times": [{"days": "Mon-Fri", "time": "4:30pm"}, {"days": "Sat-Sun", "time": "Closed"}], "id": "7755000011", "name": "USPS COLLECTION BOX - BLUE BOX", "address": {"city": "GALVESTON", "state": "TX", "street": "2102 AVENUE C REAR", "postcode": "77550"}}},
{"geometry": {"type": "Point", "coordinates": [-94.7911102976, 29.3050706882]}, "type": "Feature", "properties": {"collection_times": [{"days": "Mon-Fri", "time": "4:30pm"}, {"days": "Sat-Sun", "time": "Closed"}], "id": "7755000012", "name": "USPS COLLECTION BOX - BLUE BOX", "address": {"city": "GALVESTON", "state": "TX", "street": "502 21ST ST", "postcode": "77550"}}},
{"geometry": {"type": "Point", "coordinates": [-94.7899703413, 29.2958170178]}, "type": "Feature", "properties": {"collection_times": [{"days": "Mon-Fri", "time": "12:45pm"}, {"days": "Sat-Sun", "time": "Closed"}], "id": "7755000025", "name": "USPS COLLECTION BOX - BLUE BOX", "address": {"city": "GALVESTON", "state": "TX", "street": "2228 N AVE", "postcode": "77550"}}},
{"geometry": {"type": "Point", "coordinates": [-94.7926790025, 29.2984322955]}, "type": "Feature", "properties": {"collection_times": [{"days": "Mon-Fri", "time": "5:30pm"}, {"days": "Sat", "time": "5:00pm"}, {"days": "Sun", "time": "Closed"}], "id": "7755000028", "name": "USPS COLLECTION BOX - BLUE BOX", "address": {"city": "GALVESTON", "state": "TX", "street": "601 25TH ST", "postcode": "77550"}}},
{"geometry": {"type": "Point", "coordinates": [-94.8086593214, 29.2928477867]}, "type": "Feature", "properties": {"collection_times": [{"days": "Mon-Fri", "time": "12:30pm"}, {"days": "Sat-Sun", "time": "Closed"}], "id": "7755000040", "name": "USPS COLLECTION BOX - BLUE BOX", "address": {"city": "GALVESTON", "state": "TX", "street": "3828 M AVE", "postcode": "77550"}}},
{"geometry": {"type": "Point", "coordinates": [-94.7730883515, 29.3200309565]}, "type": "Feature", "properties": {"collection_times": [{"days": "Mon-Fri", "time": "1:00pm"}, {"days": "Sat-Sun", "time": "Closed"}], "id": "7755000063", "name": "USPS COLLECTION BOX - BLUE BOX", "address": {"city": "GALVESTON", "state": "TX", "street": "921 MARINE DR", "postcode": "77550"}}},
{"geometry": {"type": "Point", "coordinates": [-94.7926598259, 29.3056272248]}, "type": "Feature", "properties": {"collection_times": [{"days": "Mon-Fri", "time": "4:30pm"}, {"days": "Sat-Sun", "time": "Closed"}], "id": "7755000068", "name": "USPS COLLECTION BOX - BLUE BOX", "address": {"city": "GALVESTON", "state": "TX", "street": "2201 AVENUE D", "postcode": "77550"}}},
{"geometry": {"type": "Point", "coordinates": [-94.7949098426, 29.3004250181]}, "type": "Feature", "properties": {"collection_times": [{"days": "Mon-Fri", "time": "4:30pm"}, {"days": "Sat-Sun", "time": "Closed"}], "id": "7755000070", "name": "USPS COLLECTION BOX - BLUE BOX", "address": {"city": "GALVESTON", "state": "TX", "street": "2512 AVENUE I", "postcode": "77550"}}},
{"geometry": {"type": "Point", "coordinates": [-94.7757807661, 29.3043792264]}, "type": "Feature", "properties": {"collection_times": [{"days": "Mon-Fri", "time": "1:00pm"}, {"days": "Sat-Sun", "time": "Closed"}], "id": "7755000080", "name": "USPS COLLECTION BOX - BLUE BOX", "address": {"city": "GALVESTON", "state": "TX", "street": "828 BROADWAY ST", "postcode": "77550"}}},
{"geometry": {"type": "Point", "coordinates": [-94.7701524457, 29.3076299114]}, "type": "Feature", "properties": {"collection_times": [{"days": "Mon-Fri", "time": "12:45pm"}, {"days": "Sat-Sun", "time": "Closed"}], "id": "7755000082", "name": "USPS COLLECTION BOX - BLUE BOX", "address": {"city": "GALVESTON", "state": "TX", "street": "328 SEAWALL BLVD", "postcode": "77550"}}},
{"geometry": {"type": "Point", "coordinates": [-94.7954628373, 29.3025409082]}, "type": "Feature", "properties": {"collection_times": [{"days": "Mon-Fri", "time": "5:30pm"}, {"days": "Sat", "time": "5:00pm"}, {"days": "Sun", "time": "Closed"}], "id": "7755000096", "name": "USPS COLLECTION BOX - PO LOBBY", "address": {"city": "GALVESTON", "state": "TX", "street": "601 25TH ST", "postcode": "77550"}}},
{"geometry": {"type": "Point", "coordinates": [-94.7954628373, 29.3025409082]}, "type": "Feature", "properties": {"collection_times": [{"days": "Mon-Fri", "time": "5:30pm"}, {"days": "Sat", "time": "5:00pm"}, {"days": "Sun", "time": "Closed"}], "id": "7755000097", "name": "USPS COLLECTION BOX - PO LOBBY", "address": {"city": "GALVESTON", "state": "TX", "street": "601 25TH ST", "postcode": "77550"}}},
{"geometry": {"type": "Point", "coordinates": [-94.8268725901, 29.267314152]}, "type": "Feature", "properties": {"collection_times": [{"days": "Mon-Fri", "time": "1:45pm"}, {"days": "Sat-Sun", "time": "Closed"}], "id": "7755100001", "name": "USPS COLLECTION BOX - BLUE BOX", "address": {"city": "GALVESTON", "state": "TX", "street": "2931 61ST ST", "postcode": "77551"}}},
{"geometry": {"type": "Point", "coordinates": [-94.8256166326, 29.2914252644]}, "type": "Feature", "properties": {"collection_times": [{"days": "Mon-Fri", "time": "2:30pm"}, {"days": "Sat-Sun", "time": "Closed"}], "id": "7755100004", "name": "USPS COLLECTION BOX - BLUE BOX", "address": {"city": "GALVESTON", "state": "TX", "street": "5228 AVENUE J", "postcode": "77551"}}},
{"geometry": {"type": "Point", "coordinates": [-94.8348623545, 29.2642796523]}, "type": "Feature", "properties": {"collection_times": [{"days": "Mon-Fri", "time": "2:15pm"}, {"days": "Sat-Sun", "time": "Closed"}], "id": "7755100010", "name": "USPS COLLECTION BOX - BLUE BOX", "address": {"city": "GALVESTON", "state": "TX", "street": "6902 LASKER DR", "postcode": "77551"}}},
{"geometry": {"type": "Point", "coordinates": [-94.838772148, 29.2716573985]}, "type": "Feature", "properties": {"collection_times": [{"days": "Mon-Fri", "time": "2:15pm"}, {"days": "Sat-Sun", "time": "Closed"}], "id": "7755100011", "name": "USPS COLLECTION BOX - BLUE BOX", "address": {"city": "GALVESTON", "state": "TX", "street": "2411 69TH ST", "postcode": "77551"}}},
{"geometry": {"type": "Point", "coordinates": [-94.8361733147, 29.273458678]}, "type": "Feature", "properties": {"collection_times": [{"days": "Mon-Fri", "time": "2:15pm"}, {"days": "Sat-Sun", "time": "Closed"}], "id": "7755100016", "name": "USPS COLLECTION BOX - BLUE BOX", "address": {"city": "GALVESTON", "state": "TX", "street": "6610 STEWART RD", "postcode": "77551"}}},
{"geometry": {"type": "Point", "coordinates": [-94.8296376196, 29.277710965]}, "type": "Feature", "properties": {"collection_times": [{"days": "Mon-Fri", "time": "5:00pm"}, {"days": "Sat", "time": "3:30pm"}, {"days": "Sun", "time": "Closed"}], "id": "7755100024", "name": "USPS COLLECTION BOX - BLUE BOX", "address": {"city": "GALVESTON", "state": "TX", "street": "5826 BROADWAY ST", "postcode": "77551"}}},
{"geometry": {"type": "Point", "coordinates": [-94.8317773116, 29.2634677736]}, "type": "Feature", "properties": {"collection_times": [{"days": "Mon-Fri", "time": "1:45pm"}, {"days": "Sat-Sun", "time": "Closed"}], "id": "7755100029", "name": "USPS COLLECTION BOX - BLUE BOX", "address": {"city": "GALVESTON", "state": "TX", "street": "6702 SEAWALL BLVD", "postcode": "77551"}}},
{"geometry": {"type": "Point", "coordinates": [-94.8228758637, 29.2686209363]}, "type": "Feature", "properties": {"collection_times": [{"days": "Mon-Fri", "time": "2:00pm"}, {"days": "Sat-Sun", "time": "Closed"}], "id": "7755100035", "name": "USPS COLLECTION BOX - BLUE BOX", "address": {"city": "GALVESTON", "state": "TX", "street": "5730 SEAWALL BLVD", "postcode": "77551"}}},
{"geometry": {"type": "Point", "coordinates": [-94.8331637395, 29.2893864045]}, "type": "Feature", "properties": {"collection_times": [{"days": "Mon-Fri", "time": "5:00pm"}, {"days": "Sat", "time": "3:30pm"}, {"days": "Sun", "time": "Closed"}], "id": "7755100036", "name": "USPS COLLECTION BOX - PO LOBBY", "address": {"city": "GALVESTON", "state": "TX", "street": "5826 BROADWAY ST", "postcode": "77551"}}},
{"geometry": {"type": "Point", "coordinates": [-94.8331637395, 29.2893864045]}, "type": "Feature", "properties": {"collection_times": [{"days": "Mon-Fri", "time": "5:00pm"}, {"days": "Sat", "time": "3:30pm"}, {"days": "Sun", "time": "Closed"}], "id": "7755100037", "name": "USPS COLLECTION BOX - PO LOBBY", "address": {"city": "GALVESTON", "state": "TX", "street": "5826 BROADWAY ST", "postcode": "77551"}}},
{"geometry": {"type": "Point", "coordinates": [-94.9371529003, 29.2082278575]}, "type": "Feature", "properties": {"collection_times": [{"days": "Mon-Fri", "time": "1:45pm"}, {"days": "Sat-Sun", "time": "Closed"}], "id": "7755400003", "name": "USPS COLLECTION BOX - BLUE BOX", "address": {"city": "GALVESTON", "state": "TX", "street": "13722 FM 3005 RD", "postcode": "77554"}}},
{"geometry": {"type": "Point", "coordinates": [-94.9040277134, 29.3018772682]}, "type": "Feature", "properties": {"collection_times": [{"days": "Mon-Fri", "time": "12:15pm"}, {"days": "Sat-Sun", "time": "Closed"}], "id": "7755400004", "name": "USPS COLLECTION BOX - BLUE BOX", "address": {"city": "GALVESTON", "state": "TX", "street": "400 TIKI DR", "postcode": "77554"}}},
{"geometry": {"type": "Point", "coordinates": [-94.8820029669, 29.2527862449]}, "type": "Feature", "properties": {"collection_times": [{"days": "Mon-Fri", "time": "1:30pm"}, {"days": "Sat-Sun", "time": "Closed"}], "id": "7755400005", "name": "USPS COLLECTION BOX - BLUE BOX", "address": {"city": "GALVESTON", "state": "TX", "street": "9100 SHELBY DR S", "postcode": "77554"}}},
{"geometry": {"type": "Point", "coordinates": [-94.8820029669, 29.2527862449]}, "type": "Feature", "properties": {"collection_times": [{"days": "Mon-Fri", "time": "1:45pm"}, {"days": "Sat-Sun", "time": "Closed"}], "id": "7755400006", "name": "USPS COLLECTION BOX - BLUE BOX", "address": {"city": "GALVESTON", "state": "TX", "street": "16602 BUCCANEER RD", "postcode": "77554"}}},
{"geometry": {"type": "Point", "coordinates": [-94.6297065365, 29.8607802416]}, "type": "Feature", "properties": {"collection_times": [{"days": "Mon-Fri", "time": "4:00pm"}, {"days": "Sat", "time": "9:00am"}, {"days": "Sun", "time": "Closed"}], "id": "7756000001", "name": "USPS COLLECTION BOX - BLUE BOX", "address": {"city": "HANKAMER", "state": "TX", "street": "9322 HIGHWAY 61 N", "postcode": "77560"}}},
{"geometry": {"type": "Point", "coordinates": [-94.6297065365, 29.8607802416]}, "type": "Feature", "properties": {"collection_times": [{"days": "Mon-Fri", "time": "2:15pm"}, {"days": "Sat", "time": "9:00am"}, {"days": "Sun", "time": "Closed"}], "id": "7756000002", "name": "USPS COLLECTION BOX - PO LOBBY", "address": {"city": "HANKAMER", "state": "TX", "street": "9322 HIGHWAY 61 N", "postcode": "77560"}}},
{"geometry": {"type": "Point", "coordinates": [-94.7393903726, 30.1613620204]}, "type": "Feature", "properties": {"collection_times": [{"days": "Mon-Fri", "time": "4:00pm"}, {"days": "Sat", "time": "9:00am"}, {"days": "Sun", "time": "Closed"}], "id": "7756100001", "name": "USPS COLLECTION BOX - BLUE BOX", "address": {"city": "HARDIN", "state": "TX", "street": "11158 HIGHWAY 146 N", "postcode": "77561"}}},
{"geometry": {"type": "Point", "coordinates": [-94.7393570953, 30.1613633771]}, "type": "Feature", "properties": {"collection_times": [{"days": "Mon-Fri", "time": "4:00pm"}, {"days": "Sat", "time": "9:00am"}, {"days": "Sun", "time": "Closed"}], "id": "7756100002", "name": "USPS COLLECTION BOX - PO LOBBY", "address": {"city": "HARDIN", "state": "TX", "street": "11158 HIGHWAY 146 N", "postcode": "77561"}}},
{"geometry": {"type": "Point", "coordinates": [-95.048769282, 29.8219532725]}, "type": "Feature", "properties": {"collection_times": [{"days": "Mon-Fri", "time": "4:00pm"}, {"days": "Sat", "time": "1:30pm"}, {"days": "Sun", "time": "Closed"}], "id": "7756200006", "name": "USPS COLLECTION BOX - BLUE BOX", "address": {"city": "HIGHLANDS", "state": "TX", "street": "608 S MAIN ST", "postcode": "77562"}}},
{"geometry": {"type": "Point", "coordinates": [-95.048769282, 29.8219532725]}, "type": "Feature", "properties": {"collection_times": [{"days": "Mon-Fri", "time": "4:00pm"}, {"days": "Sat", "time": "1:30pm"}, {"days": "Sun", "time": "Closed"}], "id": "7756200008", "name": "USPS COLLECTION BOX - PO LOBBY", "address": {"city": "HIGHLANDS", "state": "TX", "street": "608 S MAIN ST", "postcode": "77562"}}},
{"geometry": {"type": "Point", "coordinates": [-95.048769282, 29.8219532725]}, "type": "Feature", "properties": {"collection_times": [{"days": "Mon-Fri", "time": "4:00pm"}, {"days": "Sat", "time": "1:30pm"}, {"days": "Sun", "time": "Closed"}], "id": "7756200009", "name": "USPS COLLECTION BOX - PO LOBBY", "address": {"city": "HIGHLANDS", "state": "TX", "street": "608 S MAIN ST", "postcode": "77562"}}},
{"geometry": {"type": "Point", "coordinates": [-95.0219012935, 29.3500887608]}, "type": "Feature", "properties": {"collection_times": [{"days": "Mon-Fri", "time": "4:30pm"}, {"days": "Sat", "time": "3:00pm"}, {"days": "Sun", "time": "Closed"}], "id": "7756300001", "name": "USPS COLLECTION BOX - BLUE BOX", "address": {"city": "HITCHCOCK", "state": "TX", "street": "8210 HIGHWAY 6", "postcode": "77563"}}},
{"geometry": {"type": "Point", "coordinates": [-95.0219012935, 29.3500887608]}, "type": "Feature", "properties": {"collection_times": [{"days": "Mon-Fri", "time": "4:30pm"}, {"days": "Sat", "time": "12:00pm"}, {"days": "Sun", "time": "Closed"}], "id": "7756300005", "name": "USPS COLLECTION BOX - PO LOBBY", "address": {"city": "HITCHCOCK", "state": "TX", "street": "8210 HIGHWAY 6", "postcode": "77563"}}},
{"geometry": {"type": "Point", "coordinates": [-94.6809471864, 30.1933035126]}, "type": "Feature", "properties": {"collection_times": [{"days": "Mon-Fri", "time": "4:00pm"}, {"days": "Sat", "time": "8:30am"}, {"days": "Sun", "time": "Closed"}], "id": "7756400001", "name": "USPS COLLECTION BOX - BLUE BOX", "address": {"city": "HULL", "state": "TX", "street": "7404 FM 834 E", "postcode": "77564"}}},
{"geometry": {"type": "Point", "coordinates": [-94.6809471864, 30.1933035126]}, "type": "Feature", "properties": {"collection_times": [{"days": "Mon-Fri", "time": "2:45pm"}, {"days": "Sat", "time": "8:30am"}, {"days": "Sun", "time": "Closed"}], "id": "7756400002", "name": "USPS COLLECTION BOX - PO LOBBY", "address": {"city": "HULL", "state": "TX", "street": "7404 FM 834 E", "postcode": "77564"}}},
{"geometry": {"type": "Point", "coordinates": [-94.6809471864, 30.1933035126]}, "type": "Feature", "properties": {"collection_times": [{"days": "Mon-Fri", "time": "2:45pm"}, {"days": "Sat", "time": "8:30am"}, {"days": "Sun", "time": "Closed"}], "id": "7756400003", "name": "USPS COLLECTION BOX - PO LOBBY", "address": {"city": "HULL", "state": "TX", "street": "7404 FM 834 E", "postcode": "77564"}}},
{"geometry": {"type": "Point", "coordinates": [-95.0423799287, 29.5414868339]}, "type": "Feature", "properties": {"collection_times": [{"days": "Mon-Sat", "time": "1:00pm"}, {"days": "Sun", "time": "Closed"}], "id": "7756500002", "name": "USPS COLLECTION BOX - BLUE BOX", "address": {"city": "KEMAH", "state": "TX", "street": "1500 MARINA BAY DR", "postcode": "77565"}}},
{"geometry": {"type": "Point", "coordinates": [-95.0171907509, 29.536427274]}, "type": "Feature", "properties": {"collection_times": [{"days": "Mon-Fri", "time": "5:00pm"}, {"days": "Sat", "time": "12:00pm"}, {"days": "Sun", "time": "Closed"}], "id": "7756500003", "name": "USPS COLLECTION BOX - BLUE BOX", "address": {"city": "KEMAH", "state": "TX", "street": "1129 HIGHWAY 146", "postcode": "77565"}}},
{"geometry": {"type": "Point", "coordinates": [-95.0171907509, 29.536427274]}, "type": "Feature", "properties": {"collection_times": [{"days": "Mon-Fri", "time": "5:00pm"}, {"days": "Sat", "time": "12:00pm"}, {"days": "Sun", "time": "Closed"}], "id": "7756500005", "name": "USPS COLLECTION BOX - PO LOBBY", "address": {"city": "KEMAH", "state": "TX", "street": "1129 HIGHWAY 146", "postcode": "77565"}}},
{"geometry": {"type": "Point", "coordinates": [-95.0171907509, 29.536427274]}, "type": "Feature", "properties": {"collection_times": [{"days": "Mon-Fri", "time": "5:00pm"}, {"days": "Sat", "time": "12:00pm"}, {"days": "Sun", "time": "Closed"}], "id": "7756500006", "name": "USPS COLLECTION BOX - PO LOBBY", "address": {"city": "KEMAH", "state": "TX", "street": "1129 HIGHWAY 146", "postcode": "77565"}}},
{"geometry": {"type": "Point", "coordinates": [-95.4521955193, 29.046151114]}, "type": "Feature", "properties": {"collection_times": [{"days": "Mon-Fri", "time": "2:30pm"}, {"days": "Sat-Sun", "time": "Closed"}], "id": "7756600006", "name": "USPS COLLECTION BOX - BLUE BOX", "address": {"city": "LAKE JACKSON", "state": "TX", "street": "145 OYSTER CREEK DR", "postcode": "77566"}}},
{"geometry": {"type": "Point", "coordinates": [-95.421356962, 29.0240522575]}, "type": "Feature", "properties": {"collection_times": [{"days": "Mon-Fri", "time": "2:30pm"}, {"days": "Sat-Sun", "time": "Closed"}], "id": "7756600009", "name": "USPS COLLECTION BOX - BLUE BOX", "address": {"city": "LAKE JACKSON", "state": "TX", "street": "115 N DIXIE DR", "postcode": "77566"}}},
{"geometry": {"type": "Point", "coordinates": [-95.4449333342, 29.0514081836]}, "type": "Feature", "properties": {"collection_times": [{"days": "Mon-Fri", "time": "2:30pm"}, {"days": "Sat-Sun", "time": "Closed"}], "id": "7756600027", "name": "USPS COLLECTION BOX - BLUE BOX", "address": {"city": "LAKE JACKSON", "state": "TX", "street": "201 OAK DR S", "postcode": "77566"}}},
{"geometry": {"type": "Point", "coordinates": [-95.4450398005, 29.0523793929]}, "type": "Feature", "properties": {"collection_times": [{"days": "Mon-Fri", "time": "5:00pm"}, {"days": "Sat", "time": "3:30pm"}, {"days": "Sun", "time": "Closed"}], "id": "7756600032", "name": "USPS COLLECTION BOX - BLUE BOX", "address": {"city": "LAKE JACKSON", "state": "TX", "street": "210 OAK DR S", "postcode": "77566"}}},
{"geometry": {"type": "Point", "coordinates": [-95.4450398005, 29.0523793929]}, "type": "Feature", "properties": {"collection_times": [{"days": "Mon-Fri", "time": "5:00pm"}, {"days": "Sat", "time": "3:30pm"}, {"days": "Sun", "time": "Closed"}], "id": "7756600036", "name": "USPS COLLECTION BOX - PO LOBBY", "address": {"city": "LAKE JACKSON", "state": "TX", "street": "210 OAK DR S", "postcode": "77566"}}},
{"geometry": {"type": "Point", "coordinates": [-95.4450398005, 29.0523793929]}, "type": "Feature", "properties": {"collection_times": [{"days": "Mon-Fri", "time": "5:00pm"}, {"days": "Sat", "time": "3:30pm"}, {"days": "Sun", "time": "Closed"}], "id": "7756600037", "name": "USPS COLLECTION BOX - PO LOBBY", "address": {"city": "LAKE JACKSON", "state": "TX", "street": "210 OAK DR S", "postcode": "77566"}}},
{"geometry": {"type": "Point", "coordinates": [-95.4450398005, 29.0523793929]}, "type": "Feature", "properties": {"collection_times": [{"days": "Mon-Fri", "time": "5:00pm"}, {"days": "Sat", "time": "3:30pm"}, {"days": "Sun", "time": "Closed"}], "id": "7756600038", "name": "USPS COLLECTION BOX - APC", "address": {"city": "LAKE JACKSON", "state": "TX", "street": "210 OAK DR S", "postcode": "77566"}}},
{"geometry": {"type": "Point", "coordinates": [-95.4482172283, 29.0389965781]}, "type": "Feature", "properties": {"collection_times": [{"days": "Mon-Fri", "time": "2:30pm"}, {"days": "Sat-Sun", "time": "Closed"}], "id": "7756600039", "name": "USPS COLLECTION BOX - BLUE BOX", "address": {"city": "LAKE JACKSON", "state": "TX", "street": "25 OAK DR", "postcode": "77566"}}},
{"geometry": {"type": "Point", "coordinates": [-95.4450398005, 29.0523793929]}, "type": "Feature", "properties": {"collection_times": [{"days": "Mon-Fri", "time": "5:00pm"}, {"days": "Sat", "time": "3:30pm"}, {"days": "Sun", "time": "Closed"}], "id": "7756600040", "name": "USPS COLLECTION BOX - PO LOBBY", "address": {"city": "LAKE JACKSON", "state": "TX", "street": "210 OAK DR S", "postcode": "77566"}}},
{"geometry": {"type": "Point", "coordinates": [-94.9670013509, 29.3770235535]}, "type": "Feature", "properties": {"collection_times": [{"days": "Mon-Fri", "time": "1:30pm"}, {"days": "Sat-Sun", "time": "Closed"}], "id": "7756800005", "name": "USPS COLLECTION BOX - BLUE BOX", "address": {"city": "LA MARQUE", "state": "TX", "street": "920 1ST ST", "postcode": "77568"}}},
{"geometry": {"type": "Point", "coordinates": [-94.981578117, 29.3689908406]}, "type": "Feature", "properties": {"collection_times": [{"days": "Mon-Fri", "time": "5:00pm"}, {"days": "Sat", "time": "12:00pm"}, {"days": "Sun", "time": "Closed"}], "id": "7756800017", "name": "USPS COLLECTION BOX - BLUE BOX", "address": {"city": "LA MARQUE", "state": "TX", "street": "509 LAUREL ST", "postcode": "77568"}}},
{"geometry": {"type": "Point", "coordinates": [-95.0209194376, 29.3862695608]}, "type": "Feature", "properties": {"collection_times": [{"days": "Mon-Fri", "time": "1:15pm"}, {"days": "Sat-Sun", "time": "Closed"}], "id": "7756800019", "name": "USPS COLLECTION BOX - BLUE BOX", "address": {"city": "LA MARQUE", "state": "TX", "street": "11001 DELANEY ST", "postcode": "77568"}}},
{"geometry": {"type": "Point", "coordinates": [-95.0363464055, 29.4000522157]}, "type": "Feature", "properties": {"collection_times": [{"days": "Mon-Fri", "time": "1:00pm"}, {"days": "Sat-Sun", "time": "Closed"}], "id": "7756800025", "name": "USPS COLLECTION BOX - BLUE BOX", "address": {"city": "LA MARQUE", "state": "TX", "street": "3000 FM 1764 RD", "postcode": "77568"}}},
{"geometry": {"type": "Point", "coordinates": [-94.9694086724, 29.3740259355]}, "type": "Feature", "properties": {"collection_times": [{"days": "Mon-Fri", "time": "5:00pm"}, {"days": "Sat", "time": "12:00pm"}, {"days": "Sun", "time": "Closed"}], "id": "7756800026", "name": "USPS COLLECTION BOX - PO LOBBY", "address": {"city": "LA MARQUE", "state": "TX", "street": "509 LAUREL ST", "postcode": "77568"}}},
{"geometry": {"type": "Point", "coordinates": [-95.0304824779, 29.6506466939]}, "type": "Feature", "properties": {"collection_times": [{"days": "Mon-Sat", "time": "3:00pm"}, {"days": "Sun", "time": "Closed"}], "id": "7757100005", "name": "USPS COLLECTION BOX - BLUE BOX", "address": {"city": "LA PORTE", "state": "TX", "street": "1200 HIGHWAY 146 S", "postcode": "77571"}}},
{"geometry": {"type": "Point", "coordinates": [-95.0263511281, 29.6522342795]}, "type": "Feature", "properties": {"collection_times": [{"days": "Mon-Fri", "time": "4:30pm"}, {"days": "Sat", "time": "3:00pm"}, {"days": "Sun", "time": "Closed"}], "id": "7757100015", "name": "USPS COLLECTION BOX - BLUE BOX", "address": {"city": "LA PORTE", "state": "TX", "street": "801 W FAIRMONT PKWY", "postcode": "77571"}}},
{"geometry": {"type": "Point", "coordinates": [-95.0263511281, 29.6522342795]}, "type": "Feature", "properties": {"collection_times": [{"days": "Mon-Fri", "time": "4:30pm"}, {"days": "Sat", "time": "3:00pm"}, {"days": "Sun", "time": "Closed"}], "id": "7757100019", "name": "USPS COLLECTION BOX - PO LOBBY", "address": {"city": "LA PORTE", "state": "TX", "street": "801 W FAIRMONT PKWY", "postcode": "77571"}}},
{"geometry": {"type": "Point", "coordinates": [-95.0263511281, 29.6522342795]}, "type": "Feature", "properties": {"collection_times": [{"days": "Mon-Fri", "time": "4:30pm"}, {"days": "Sat", "time": "3:00pm"}, {"days": "Sun", "time": "Closed"}], "id": "7757100020", "name": "USPS COLLECTION BOX - PO LOBBY", "address": {"city": "LA PORTE", "state": "TX", "street": "801 W FAIRMONT PKWY", "postcode": "77571"}}},
{"geometry": {"type": "Point", "coordinates": [-95.0614047765, 29.5418080723]}, "type": "Feature", "properties": {"collection_times": [{"days": "Mon-Fri", "time": "2:30pm"}, {"days": "Sat-Sun", "time": "Closed"}], "id": "7757300001", "name": "USPS COLLECTION BOX - BLUE BOX", "address": {"city": "LEAGUE CITY", "state": "TX", "street": "3027 FM 2094", "postcode": "77573"}}},
{"geometry": {"type": "Point", "coordinates": [-95.1215987092, 29.5012105857]}, "type": "Feature", "properties": {"collection_times": [{"days": "Mon-Fri", "time": "1:45pm"}, {"days": "Sat-Sun", "time": "Closed"}], "id": "7757300008", "name": "USPS COLLECTION BOX - BLUE BOX", "address": {"city": "LEAGUE CITY", "state": "TX", "street": "2204 W MAIN ST", "postcode": "77573"}}},
{"geometry": {"type": "Point", "coordinates": [-95.0659716265, 29.5438196093]}, "type": "Feature", "properties": {"collection_times": [{"days": "Mon-Fri", "time": "2:45pm"}, {"days": "Sat-Sun", "time": "Closed"}], "id": "7757300013", "name": "USPS COLLECTION BOX - PO LOBBY", "address": {"city": "LEAGUE CITY", "state": "TX", "street": "2525 S SHORE BLVD", "postcode": "77573"}}},
{"geometry": {"type": "Point", "coordinates": [-95.0616073112, 29.539051077]}, "type": "Feature", "properties": {"collection_times": [{"days": "Mon-Fri", "time": "2:30pm"}, {"days": "Sat-Sun", "time": "Closed"}], "id": "7757300015", "name": "USPS COLLECTION BOX - BLUE BOX", "address": {"city": "LEAGUE CITY", "state": "TX", "street": "2911 S SHORE BLVD", "postcode": "77573"}}},
{"geometry": {"type": "Point", "coordinates": [-95.0652595163, 29.5435107983]}, "type": "Feature", "properties": {"collection_times": [{"days": "Mon-Fri", "time": "2:45pm"}, {"days": "Sat-Sun", "time": "Closed"}], "id": "7757300016", "name": "USPS COLLECTION BOX - PO LOBBY", "address": {"city": "LEAGUE CITY", "state": "TX", "street": "2450 S SHORE BLVD", "postcode": "77573"}}},
{"geometry": {"type": "Point", "coordinates": [-95.0979973794, 29.5043941744]}, "type": "Feature", "properties": {"collection_times": [{"days": "Mon-Sat", "time": "5:00pm"}, {"days": "Sun", "time": "Closed"}], "id": "7757300018", "name": "USPS COLLECTION BOX - BLUE BOX", "address": {"city": "LEAGUE CITY", "state": "TX", "street": "240 W GALVESTON ST", "postcode": "77573"}}},
{"geometry": {"type": "Point", "coordinates": [-95.0646529199, 29.5390611345]}, "type": "Feature", "properties": {"collection_times": [{"days": "Mon-Fri", "time": "2:15pm"}, {"days": "Sat-Sun", "time": "Closed"}], "id": "7757300022", "name": "USPS COLLECTION BOX - BLUE BOX", "address": {"city": "LEAGUE CITY", "state": "TX", "street": "2901 FM 2094", "postcode": "77573"}}},
{"geometry": {"type": "Point", "coordinates": [-95.0942806378, 29.5026904673]}, "type": "Feature", "properties": {"collection_times": [{"days": "Mon-Fri", "time": "2:00pm"}, {"days": "Sat-Sun", "time": "Closed"}], "id": "7757300023", "name": "USPS COLLECTION BOX - BLUE BOX", "address": {"city": "LEAGUE CITY", "state": "TX", "street": "300 W WALKER ST", "postcode": "77573"}}},
{"geometry": {"type": "Point", "coordinates": [-95.072251576, 29.5299943432]}, "type": "Feature", "properties": {"collection_times": [{"days": "Mon-Fri", "time": "2:15pm"}, {"days": "Sat-Sun", "time": "Closed"}], "id": "7757300024", "name": "USPS COLLECTION BOX - BLUE BOX", "address": {"city": "LEAGUE CITY", "state": "TX", "street": "2460 MARINA BAY DR", "postcode": "77573"}}},
{"geometry": {"type": "Point", "coordinates": [-95.0979856657, 29.5043738182]}, "type": "Feature", "properties": {"collection_times": [{"days": "Mon-Sat", "time": "5:00pm"}, {"days": "Sun", "time": "Closed"}], "id": "7757300027", "name": "USPS COLLECTION BOX - PO LOBBY", "address": {"city": "LEAGUE CITY", "state": "TX", "street": "240 W GALVESTON ST", "postcode": "77573"}}},
{"geometry": {"type": "Point", "coordinates": [-95.0979856657, 29.5043738182]}, "type": "Feature", "properties": {"collection_times": [{"days": "Mon-Sat", "time": "5:00pm"}, {"days": "Sun", "time": "Closed"}], "id": "7757300028", "name": "USPS COLLECTION BOX - PO LOBBY", "address": {"city": "LEAGUE CITY", "state": "TX", "street": "240 W GALVESTON ST", "postcode": "77573"}}},
{"geometry": {"type": "Point", "coordinates": [-95.0545368578, 29.5294289653]}, "type": "Feature", "properties": {"collection_times": [{"days": "Mon-Fri", "time": "2:15pm"}, {"days": "Sat", "time": "12:00pm"}, {"days": "Sun", "time": "Closed"}], "id": "7757300029", "name": "USPS COLLECTION BOX - BLUE BOX", "address": {"city": "LEAGUE CITY", "state": "TX", "street": "4400 MASTERS DR", "postcode": "77573"}}},
{"geometry": {"type": "Point", "coordinates": [-95.0979856657, 29.5043738182]}, "type": "Feature", "properties": {"collection_times": [{"days": "Mon-Sat", "time": "5:00pm"}, {"days": "Sun", "time": "Closed"}], "id": "7757300030", "name": "USPS COLLECTION BOX - APC", "address": {"city": "LEAGUE CITY", "state": "TX", "street": "240 W GALVESTON ST", "postcode": "77573"}}},
{"geometry": {"type": "Point", "coordinates": [-94.8018344426, 30.0587507738]}, "type": "Feature", "properties": {"collection_times": [{"days": "Mon-Fri", "time": "4:30pm"}, {"days": "Sat", "time": "3:30pm"}, {"days": "Sun", "time": "Closed"}], "id": "7757500009", "name": "USPS COLLECTION BOX - BLUE BOX", "address": {"city": "LIBERTY", "state": "TX", "street": "1515 SAM HOUSTON ST", "postcode": "77575"}}},
{"geometry": {"type": "Point", "coordinates": [-94.8018344426, 30.0587507738]}, "type": "Feature", "properties": {"collection_times": [{"days": "Mon-Fri", "time": "4:30pm"}, {"days": "Sat", "time": "3:30pm"}, {"days": "Sun", "time": "Closed"}], "id": "7757500013", "name": "USPS COLLECTION BOX - PO LOBBY", "address": {"city": "LIBERTY", "state": "TX", "street": "1515 SAM HOUSTON ST", "postcode": "77575"}}},
{"geometry": {"type": "Point", "coordinates": [-95.2668972481, 29.2801701917]}, "type": "Feature", "properties": {"collection_times": [{"days": "Mon-Fri", "time": "3:45pm"}, {"days": "Sat", "time": "10:00am"}, {"days": "Sun", "time": "Closed"}], "id": "7757700001", "name": "USPS COLLECTION BOX - BLUE BOX", "address": {"city": "LIVERPOOL", "state": "TX", "street": "2320 MAIN ST", "postcode": "77577"}}},
{"geometry": {"type": "Point", "coordinates": [-95.2668972481, 29.2801701917]}, "type": "Feature", "properties": {"collection_times": [{"days": "Mon-Fri", "time": "2:45pm"}, {"days": "Sat", "time": "10:00am"}, {"days": "Sun", "time": "Closed"}], "id": "7757700003", "name": "USPS COLLECTION BOX - PO LOBBY", "address": {"city": "LIVERPOOL", "state": "TX", "street": "2320 MAIN ST", "postcode": "77577"}}},
{"geometry": {"type": "Point", "coordinates": [-95.3541684417, 29.4749903002]}, "type": "Feature", "properties": {"collection_times": [{"days": "Mon-Fri", "time": "4:30pm"}, {"days": "Sat", "time": "12:00pm"}, {"days": "Sun", "time": "Closed"}], "id": "7757800001", "name": "USPS COLLECTION BOX - BLUE BOX", "address": {"city": "MANVEL", "state": "TX", "street": "6925 MASTERS RD", "postcode": "77578"}}},
{"geometry": {"type": "Point", "coordinates": [-95.3541684417, 29.4749903002]}, "type": "Feature", "properties": {"collection_times": [{"days": "Mon-Fri", "time": "4:30pm"}, {"days": "Sat", "time": "12:00pm"}, {"days": "Sun", "time": "Closed"}], "id": "7757800002", "name": "USPS COLLECTION BOX - PO LOBBY", "address": {"city": "MANVEL", "state": "TX", "street": "6925 MASTERS RD", "postcode": "77578"}}},
{"geometry": {"type": "Point", "coordinates": [-95.3541684417, 29.4749903002]}, "type": "Feature", "properties": {"collection_times": [{"days": "Mon-Fri", "time": "4:30pm"}, {"days": "Sat", "time": "12:00pm"}, {"days": "Sun", "time": "Closed"}], "id": "7757800003", "name": "USPS COLLECTION BOX - PO LOBBY", "address": {"city": "MANVEL", "state": "TX", "street": "6925 MASTERS RD", "postcode": "77578"}}},
{"geometry": {"type": "Point", "coordinates": [-94.8904981117, 29.8475019048]}, "type": "Feature", "properties": {"collection_times": [{"days": "Mon-Fri", "time": "4:00pm"}, {"days": "Sat", "time": "10:00am"}, {"days": "Sun", "time": "Closed"}], "id": "7758000002", "name": "USPS COLLECTION BOX - BLUE BOX", "address": {"city": "MONT BELVIEU", "state": "TX", "street": "16043 EAGLE DR", "postcode": "77580"}}},
{"geometry": {"type": "Point", "coordinates": [-94.8904981117, 29.8475019048]}, "type": "Feature", "properties": {"collection_times": [{"days": "Mon-Fri", "time": "4:00pm"}, {"days": "Sat", "time": "10:00am"}, {"days": "Sun", "time": "Closed"}], "id": "7758000004", "name": "USPS COLLECTION BOX - PO LOBBY", "address": {"city": "MONT BELVIEU", "state": "TX", "street": "16043 EAGLE DR", "postcode": "77580"}}},
{"geometry": {"type": "Point", "coordinates": [-95.310120923, 29.587378523]}, "type": "Feature", "properties": {"collection_times": [{"days": "Mon-Fri", "time": "1:30pm"}, {"days": "Sat", "time": "9:30am"}, {"days": "Sun", "time": "Closed"}], "id": "7758100002", "name": "USPS COLLECTION BOX - BLUE BOX", "address": {"city": "PEARLAND", "state": "TX", "street": "6243 BROOKSIDE RD", "postcode": "77581"}}},
{"geometry": {"type": "Point", "coordinates": [-95.3034124044, 29.5596523074]}, "type": "Feature", "properties": {"collection_times": [{"days": "Mon-Fri", "time": "1:30pm"}, {"days": "Sat-Sun", "time": "Closed"}], "id": "7758100004", "name": "USPS COLLECTION BOX - BLUE BOX", "address": {"city": "PEARLAND", "state": "TX", "street": "5517 BROADWAY ST", "postcode": "77581"}}},
{"geometry": {"type": "Point", "coordinates": [-95.2861979855, 29.5707236204]}, "type": "Feature", "properties": {"collection_times": [{"days": "Mon-Fri", "time": "1:15pm"}, {"days": "Sat-Sun", "time": "Closed"}], "id": "7758100005", "name": "USPS COLLECTION BOX - BLUE BOX", "address": {"city": "PEARLAND", "state": "TX", "street": "2028 N MAIN ST", "postcode": "77581"}}},
{"geometry": {"type": "Point", "coordinates": [-95.2842390054, 29.5617757187]}, "type": "Feature", "properties": {"collection_times": [{"days": "Mon-Fri", "time": "2:45pm"}, {"days": "Sat-Sun", "time": "Closed"}], "id": "7758100006", "name": "USPS COLLECTION BOX - BLUE BOX", "address": {"city": "PEARLAND", "state": "TX", "street": "3801 E PEAR ST", "postcode": "77581"}}},
{"geometry": {"type": "Point", "coordinates": [-95.2705332429, 29.5588124065]}, "type": "Feature", "properties": {"collection_times": [{"days": "Mon-Fri", "time": "2:45pm"}, {"days": "Sat-Sun", "time": "Closed"}], "id": "7758100007", "name": "USPS COLLECTION BOX - BLUE BOX", "address": {"city": "PEARLAND", "state": "TX", "street": "3102 BROADWAY ST", "postcode": "77581"}}},
{"geometry": {"type": "Point", "coordinates": [-95.2343571748, 29.5721881236]}, "type": "Feature", "properties": {"collection_times": [{"days": "Mon-Fri", "time": "1:00pm"}, {"days": "Sat", "time": "10:00am"}, {"days": "Sun", "time": "Closed"}], "id": "7758100008", "name": "USPS COLLECTION BOX - BLUE BOX", "address": {"city": "PEARLAND", "state": "TX", "street": "2423 GOLFCREST DR", "postcode": "77581"}}},
{"geometry": {"type": "Point", "coordinates": [-95.2282791316, 29.5719645443]}, "type": "Feature", "properties": {"collection_times": [{"days": "Mon-Fri", "time": "1:00pm"}, {"days": "Sat", "time": "10:00am"}, {"days": "Sun", "time": "Closed"}], "id": "7758100009", "name": "USPS COLLECTION BOX - BLUE BOX", "address": {"city": "PEARLAND", "state": "TX", "street": "2105 TIPPERARY DR", "postcode": "77581"}}},
{"geometry": {"type": "Point", "coordinates": [-95.2571544025, 29.5505950573]}, "type": "Feature", "properties": {"collection_times": [{"days": "Mon-Fri", "time": "2:45pm"}, {"days": "Sat-Sun", "time": "Closed"}], "id": "7758100010", "name": "USPS COLLECTION BOX - BLUE BOX", "address": {"city": "PEARLAND", "state": "TX", "street": "3519 LIBERTY DR", "postcode": "77581"}}},
{"geometry": {"type": "Point", "coordinates": [-95.2637695386, 29.5638926817]}, "type": "Feature", "properties": {"collection_times": [{"days": "Mon-Fri", "time": "1:15pm"}, {"days": "Sat-Sun", "time": "Closed"}], "id": "7758100011", "name": "USPS COLLECTION BOX - BLUE BOX", "address": {"city": "PEARLAND", "state": "TX", "street": "2200 WESTMINISTER ST", "postcode": "77581"}}},
{"geometry": {"type": "Point", "coordinates": [-95.2811644951, 29.5600261224]}, "type": "Feature", "properties": {"collection_times": [{"days": "Mon-Fri", "time": "5:30pm"}, {"days": "Sat", "time": "4:30pm"}, {"days": "Sun", "time": "Closed"}], "id": "7758100014", "name": "USPS COLLECTION BOX - BLUE BOX", "address": {"city": "PEARLAND", "state": "TX", "street": "3519 E WALNUT ST", "postcode": "77581"}}},
{"geometry": {"type": "Point", "coordinates": [-95.2499580376, 29.5503885557]}, "type": "Feature", "properties": {"collection_times": [{"days": "Mon-Fri", "time": "3:00pm"}, {"days": "Sat-Sun", "time": "Closed"}], "id": "7758100018", "name": "USPS COLLECTION BOX - BLUE BOX", "address": {"city": "PEARLAND", "state": "TX", "street": "2206 BROADWAY ST", "postcode": "77581"}}},
{"geometry": {"type": "Point", "coordinates": [-95.330492701, 29.5593116152]}, "type": "Feature", "properties": {"collection_times": [{"days": "Mon-Fri", "time": "1:45pm"}, {"days": "Sat-Sun", "time": "Closed"}], "id": "7758100020", "name": "USPS COLLECTION BOX - BLUE BOX", "address": {"city": "PEARLAND", "state": "TX", "street": "7121 BROADWAY ST", "postcode": "77581"}}},
{"geometry": {"type": "Point", "coordinates": [-95.2811644951, 29.5600261224]}, "type": "Feature", "properties": {"collection_times": [{"days": "Mon-Fri", "time": "5:30pm"}, {"days": "Sat", "time": "4:30pm"}, {"days": "Sun", "time": "Closed"}], "id": "7758100021", "name": "USPS COLLECTION BOX - PO LOBBY", "address": {"city": "PEARLAND", "state": "TX", "street": "3519 E WALNUT ST", "postcode": "77581"}}},
{"geometry": {"type": "Point", "coordinates": [-95.2811644951, 29.5600261224]}, "type": "Feature", "properties": {"collection_times": [{"days": "Mon-Fri", "time": "5:30pm"}, {"days": "Sat", "time": "4:30pm"}, {"days": "Sun", "time": "Closed"}], "id": "7758100022", "name": "USPS COLLECTION BOX - PO LOBBY", "address": {"city": "PEARLAND", "state": "TX", "street": "3519 E WALNUT ST", "postcode": "77581"}}},
{"geometry": {"type": "Point", "coordinates": [-95.2811644951, 29.5600261224]}, "type": "Feature", "properties": {"collection_times": [{"days": "Mon-Fri", "time": "5:30pm"}, {"days": "Sat", "time": "4:30pm"}, {"days": "Sun", "time": "Closed"}], "id": "7758100023", "name": "USPS COLLECTION BOX - BLUE BOX", "address": {"city": "PEARLAND", "state": "TX", "street": "3519 E WALNUT ST", "postcode": "77581"}}},
{"geometry": {"type": "Point", "coordinates": [-95.2811644951, 29.5600261224]}, "type": "Feature", "properties": {"collection_times": [{"days": "Mon-Fri", "time": "5:30pm"}, {"days": "Sat", "time": "4:30pm"}, {"days": "Sun", "time": "Closed"}], "id": "7758100024", "name": "USPS COLLECTION BOX - APC", "address": {"city": "PEARLAND", "state": "TX", "street": "3519 E WALNUT ST", "postcode": "77581"}}},
{"geometry": {"type": "Point", "coordinates": [-94.6720659952, 30.0401811737]}, "type": "Feature", "properties": {"collection_times": [{"days": "Mon-Fri", "time": "2:45pm"}, {"days": "Sat-Sun", "time": "Closed"}], "id": "7758200002", "name": "USPS COLLECTION BOX - PO LOBBY", "address": {"city": "RAYWOOD", "state": "TX", "street": "13615 HIGHWAY 90 E", "postcode": "77582"}}},
{"geometry": {"type": "Point", "coordinates": [-95.447718997, 29.4243722342]}, "type": "Feature", "properties": {"collection_times": [{"days": "Mon-Fri", "time": "4:00pm"}, {"days": "Sat", "time": "12:00pm"}, {"days": "Sun", "time": "Closed"}], "id": "7758300001", "name": "USPS COLLECTION BOX - BLUE BOX", "address": {"city": "ROSHARON", "state": "TX", "street": "1810 E FM 1462 RD", "postcode": "77583"}}},
{"geometry": {"type": "Point", "coordinates": [-95.447718997, 29.4243722342]}, "type": "Feature", "properties": {"collection_times": [{"days": "Mon-Fri", "time": "4:30pm"}, {"days": "Sat", "time": "12:00pm"}, {"days": "Sun", "time": "Closed"}], "id": "7758300009", "name": "USPS COLLECTION BOX - PO LOBBY", "address": {"city": "ROSHARON", "state": "TX", "street": "1810 E FM 1462 RD", "postcode": "77583"}}},
{"geometry": {"type": "Point", "coordinates": [-95.3730367659, 29.5793128041]}, "type": "Feature", "properties": {"collection_times": [{"days": "Mon-Fri", "time": "2:15pm"}, {"days": "Sat", "time": "10:00am"}, {"days": "Sun", "time": "Closed"}], "id": "7758400001", "name": "USPS COLLECTION BOX - BLUE BOX", "address": {"city": "PEARLAND", "state": "TX", "street": "3119 FLOWERFIELD LN", "postcode": "77584"}}},
{"geometry": {"type": "Point", "coordinates": [-95.3831059839, 29.580247623]}, "type": "Feature", "properties": {"collection_times": [{"days": "Mon-Fri", "time": "2:00pm"}, {"days": "Sat-Sun", "time": "Closed"}], "id": "7758400002", "name": "USPS COLLECTION BOX - BLUE BOX", "address": {"city": "PEARLAND", "state": "TX", "street": "2620 MCHARD RD", "postcode": "77584"}}},
{"geometry": {"type": "Point", "coordinates": [-95.3672637974, 29.5548352985]}, "type": "Feature", "properties": {"collection_times": [{"days": "Mon-Fri", "time": "2:30pm"}, {"days": "Sat-Sun", "time": "Closed"}], "id": "7758400004", "name": "USPS COLLECTION BOX - BLUE BOX", "address": {"city": "PEARLAND", "state": "TX", "street": "2425 COUNTY ROAD 90", "postcode": "77584"}}},
{"geometry": {"type": "Point", "coordinates": [-95.3505112508, 29.5603596883]}, "type": "Feature", "properties": {"collection_times": [{"days": "Mon-Sat", "time": "5:00pm"}, {"days": "Sun", "time": "Closed"}], "id": "7758400007", "name": "USPS COLLECTION BOX - BLUE BOX", "address": {"city": "PEARLAND", "state": "TX", "street": "2700 CULLEN BLVD", "postcode": "77584"}}},
{"geometry": {"type": "Point", "coordinates": [-95.3505112508, 29.5603596883]}, "type": "Feature", "properties": {"collection_times": [{"days": "Mon-Sat", "time": "5:00pm"}, {"days": "Sun", "time": "Closed"}], "id": "7758400009", "name": "USPS COLLECTION BOX - PO LOBBY", "address": {"city": "PEARLAND", "state": "TX", "street": "2700 CULLEN BLVD", "postcode": "77584"}}},
{"geometry": {"type": "Point", "coordinates": [-94.5158587024, 30.2854610792]}, "type": "Feature", "properties": {"collection_times": [{"days": "Mon-Fri", "time": "11:45am"}, {"days": "Sat", "time": "9:00am"}, {"days": "Sun", "time": "Closed"}], "id": "7758500002", "name": "USPS COLLECTION BOX - PO LOBBY", "address": {"city": "SARATOGA", "state": "TX", "street": "17019 FM 770", "postcode": "77585"}}},
{"geometry": {"type": "Point", "coordinates": [-95.0343622685, 29.5804988327]}, "type": "Feature", "properties": {"collection_times": [{"days": "Mon-Sat", "time": "11:00am"}, {"days": "Sun", "time": "Closed"}], "id": "7758600002", "name": "USPS COLLECTION BOX - BLUE BOX", "address": {"city": "SEABROOK", "state": "TX", "street": "1100 TIMBER CV", "postcode": "77586"}}},
{"geometry": {"type": "Point", "coordinates": [-95.0496199558, 29.5655258317]}, "type": "Feature", "properties": {"collection_times": [{"days": "Mon-Sat", "time": "11:00am"}, {"days": "Sun", "time": "Closed"}], "id": "7758600003", "name": "USPS COLLECTION BOX - BLUE BOX", "address": {"city": "SEABROOK", "state": "TX", "street": "98 BAYOU VW", "postcode": "77586"}}},
{"geometry": {"type": "Point", "coordinates": [-95.0593395789, 29.5666175698]}, "type": "Feature", "properties": {"collection_times": [{"days": "Mon-Sat", "time": "11:00am"}, {"days": "Sun", "time": "Closed"}], "id": "7758600005", "name": "USPS COLLECTION BOX - BLUE BOX", "address": {"city": "SEABROOK", "state": "TX", "street": "4614 NASA PKWY # 1", "postcode": "77586"}}},
{"geometry": {"type": "Point", "coordinates": [-95.0335791428, 29.5743922391]}, "type": "Feature", "properties": {"collection_times": [{"days": "Mon-Fri", "time": "4:30pm"}, {"days": "Sat", "time": "3:00pm"}, {"days": "Sun", "time": "Closed"}], "id": "7758600006", "name": "USPS COLLECTION BOX - BLUE BOX", "address": {"city": "SEABROOK", "state": "TX", "street": "1600 2ND ST", "postcode": "77586"}}},
{"geometry": {"type": "Point", "coordinates": [-95.0335791428, 29.5743922391]}, "type": "Feature", "properties": {"collection_times": [{"days": "Mon-Fri", "time": "4:30pm"}, {"days": "Sat", "time": "3:00pm"}, {"days": "Sun", "time": "Closed"}], "id": "7758600010", "name": "USPS COLLECTION BOX - PO LOBBY", "address": {"city": "SEABROOK", "state": "TX", "street": "1600 2ND ST", "postcode": "77586"}}},
{"geometry": {"type": "Point", "coordinates": [-95.2183115194, 29.6683011735]}, "type": "Feature", "properties": {"collection_times": [{"days": "Mon-Fri", "time": "4:00pm"}, {"days": "Sat", "time": "2:00pm"}, {"days": "Sun", "time": "Closed"}], "id": "7758700001", "name": "USPS COLLECTION BOX - BLUE BOX", "address": {"city": "SOUTH HOUSTON", "state": "TX", "street": "315 N ALLEN GENOA RD", "postcode": "77587"}}},
{"geometry": {"type": "Point", "coordinates": [-95.2183115194, 29.6683011735]}, "type": "Feature", "properties": {"collection_times": [{"days": "Mon-Fri", "time": "4:00pm"}, {"days": "Sat", "time": "2:00pm"}, {"days": "Sun", "time": "Closed"}], "id": "7758700012", "name": "USPS COLLECTION BOX - PO LOBBY", "address": {"city": "SOUTH HOUSTON", "state": "TX", "street": "315 N ALLEN GENOA RD", "postcode": "77587"}}},
{"geometry": {"type": "Point", "coordinates": [-94.9026128945, 29.3912427203]}, "type": "Feature", "properties": {"collection_times": [{"days": "Mon-Fri", "time": "1:45pm"}, {"days": "Sat-Sun", "time": "Closed"}], "id": "7759000015", "name": "USPS COLLECTION BOX - BLUE BOX", "address": {"city": "TEXAS CITY", "state": "TX", "street": "621 6TH ST N", "postcode": "77590"}}},
{"geometry": {"type": "Point", "coordinates": [-94.9027070456, 29.3933250076]}, "type": "Feature", "properties": {"collection_times": [{"days": "Mon-Fri", "time": "1:45pm"}, {"days": "Sat-Sun", "time": "Closed"}], "id": "7759000022", "name": "USPS COLLECTION BOX - BLUE BOX", "address": {"city": "TEXAS CITY", "state": "TX", "street": "605 9TH AVE N", "postcode": "77590"}}},
{"geometry": {"type": "Point", "coordinates": [-94.9246088335, 29.3952706955]}, "type": "Feature", "properties": {"collection_times": [{"days": "Mon-Fri", "time": "5:00pm"}, {"days": "Sat", "time": "3:00pm"}, {"days": "Sun", "time": "Closed"}], "id": "7759000028", "name": "USPS COLLECTION BOX - BLUE BOX", "address": {"city": "TEXAS CITY", "state": "TX", "street": "2002 11TH AVE N", "postcode": "77590"}}},
{"geometry": {"type": "Point", "coordinates": [-94.9246088335, 29.3952706955]}, "type": "Feature", "properties": {"collection_times": [{"days": "Mon-Fri", "time": "5:00pm"}, {"days": "Sat", "time": "3:00pm"}, {"days": "Sun", "time": "Closed"}], "id": "7759000039", "name": "USPS COLLECTION BOX - PO LOBBY", "address": {"city": "TEXAS CITY", "state": "TX", "street": "2002 11TH AVE N", "postcode": "77590"}}},
{"geometry": {"type": "Point", "coordinates": [-94.9208088696, 29.3971030254]}, "type": "Feature", "properties": {"collection_times": [{"days": "Mon-Fri", "time": "5:00pm"}, {"days": "Sat", "time": "3:00pm"}, {"days": "Sun", "time": "Closed"}], "id": "7759000040", "name": "USPS COLLECTION BOX - BLUE BOX", "address": {"city": "TEXAS CITY", "state": "TX", "street": "2002 11TH AVE N", "postcode": "77590"}}},
{"geometry": {"type": "Point", "coordinates": [-94.9837226491, 29.4036480391]}, "type": "Feature", "properties": {"collection_times": [{"days": "Mon-Fri", "time": "2:45pm"}, {"days": "Sat-Sun", "time": "Closed"}], "id": "7759100008", "name": "USPS COLLECTION BOX - BLUE BOX", "address": {"city": "TEXAS CITY", "state": "TX", "street": "6801 EMMETT LOWRY EXPY", "postcode": "77591"}}},
{"geometry": {"type": "Point", "coordinates": [-94.9837226491, 29.4036480391]}, "type": "Feature", "properties": {"collection_times": [{"days": "Mon-Fri", "time": "2:15pm"}, {"days": "Sat-Sun", "time": "Closed"}], "id": "7759100009", "name": "USPS COLLECTION BOX - BLUE BOX", "address": {"city": "TEXAS CITY", "state": "TX", "street": "9300 EMMETT LOWRY EXPY", "postcode": "77591"}}},
{"geometry": {"type": "Point", "coordinates": [-95.0322048661, 29.4135036421]}, "type": "Feature", "properties": {"collection_times": [{"days": "Mon-Fri", "time": "2:30pm"}, {"days": "Sat-Sun", "time": "Closed"}], "id": "7759100012", "name": "USPS COLLECTION BOX - BLUE BOX", "address": {"city": "TEXAS CITY", "state": "TX", "street": "10806 32ND AVE N", "postcode": "77591"}}},
{"geometry": {"type": "Point", "coordinates": [-94.6862045844, 29.8635504645]}, "type": "Feature", "properties": {"collection_times": [{"days": "Mon-Fri", "time": "1:45pm"}, {"days": "Sat", "time": "12:00pm"}, {"days": "Sun", "time": "Closed"}], "id": "7759700002", "name": "USPS COLLECTION BOX - PO LOBBY", "address": {"city": "WALLISVILLE", "state": "TX", "street": "20142 INTERSTATE 10", "postcode": "77597"}}},
{"geometry": {"type": "Point", "coordinates": [-95.1280324716, 29.5305510075]}, "type": "Feature", "properties": {"collection_times": [{"days": "Mon-Fri", "time": "1:30pm"}, {"days": "Sat-Sun", "time": "Closed"}], "id": "7759800001", "name": "USPS COLLECTION BOX - BLUE BOX", "address": {"city": "WEBSTER", "state": "TX", "street": "1020 W NASA RD 1", "postcode": "77598"}}},
{"geometry": {"type": "Point", "coordinates": [-95.12145371, 29.5411562088]}, "type": "Feature", "properties": {"collection_times": [{"days": "Mon-Fri", "time": "1:30pm"}, {"days": "Sat-Sun", "time": "Closed"}], "id": "7759800005", "name": "USPS COLLECTION BOX - BLUE BOX", "address": {"city": "WEBSTER", "state": "TX", "street": "17448 HIGHWAY 3", "postcode": "77598"}}},
{"geometry": {"type": "Point", "coordinates": [-95.1413124133, 29.5612376024]}, "type": "Feature", "properties": {"collection_times": [{"days": "Mon-Fri", "time": "1:00pm"}, {"days": "Sat-Sun", "time": "Closed"}], "id": "7759800007", "name": "USPS COLLECTION BOX - BLUE BOX", "address": {"city": "WEBSTER", "state": "TX", "street": "570 EL DORADO BLVD", "postcode": "77598"}}},
{"geometry": {"type": "Point", "coordinates": [-95.1356794697, 29.5435569677]}, "type": "Feature", "properties": {"collection_times": [{"days": "Mon-Fri", "time": "1:15pm"}, {"days": "Sat-Sun", "time": "Closed"}], "id": "7759800008", "name": "USPS COLLECTION BOX - BLUE BOX", "address": {"city": "WEBSTER", "state": "TX", "street": "711 W BAY AREA BLVD", "postcode": "77598"}}},
{"geometry": {"type": "Point", "coordinates": [-95.1270166612, 29.540522678]}, "type": "Feature", "properties": {"collection_times": [{"days": "Mon-Fri", "time": "1:15pm"}, {"days": "Sat-Sun", "time": "Closed"}], "id": "7759800010", "name": "USPS COLLECTION BOX - BLUE BOX", "address": {"city": "WEBSTER", "state": "TX", "street": "500 MEDICAL CENTER BLVD", "postcode": "77598"}}},
{"geometry": {"type": "Point", "coordinates": [-95.1250553153, 29.5419753516]}, "type": "Feature", "properties": {"collection_times": [{"days": "Mon-Fri", "time": "1:30pm"}, {"days": "Sat-Sun", "time": "Closed"}], "id": "7759800011", "name": "USPS COLLECTION BOX - BLUE BOX", "address": {"city": "WEBSTER", "state": "TX", "street": "400 MEDICAL CENTER BLVD", "postcode": "77598"}}},
{"geometry": {"type": "Point", "coordinates": [-95.1356794697, 29.5435569677]}, "type": "Feature", "properties": {"collection_times": [{"days": "Mon-Fri", "time": "1:15pm"}, {"days": "Sat-Sun", "time": "Closed"}], "id": "7759800012", "name": "USPS COLLECTION BOX - BLUE BOX", "address": {"city": "WEBSTER", "state": "TX", "street": "711 W BAY AREA BLVD", "postcode": "77598"}}},
{"geometry": {"type": "Point", "coordinates": [-95.1316877333, 29.5413204958]}, "type": "Feature", "properties": {"collection_times": [{"days": "Mon-Fri", "time": "4:30pm"}, {"days": "Sat", "time": "1:00pm"}, {"days": "Sun", "time": "Closed"}], "id": "7759800016", "name": "USPS COLLECTION BOX - BLUE BOX", "address": {"city": "WEBSTER", "state": "TX", "street": "17077 N TEXAS AVE", "postcode": "77598"}}},
{"geometry": {"type": "Point", "coordinates": [-95.1356794697, 29.5435569677]}, "type": "Feature", "properties": {"collection_times": [{"days": "Mon-Fri", "time": "1:15pm"}, {"days": "Sat-Sun", "time": "Closed"}], "id": "7759800019", "name": "USPS COLLECTION BOX - BLUE BOX", "address": {"city": "WEBSTER", "state": "TX", "street": "711 W BAY AREA BLVD", "postcode": "77598"}}},
{"geometry": {"type": "Point", "coordinates": [-95.1614575159, 29.5319873052]}, "type": "Feature", "properties": {"collection_times": [{"days": "Mon-Fri", "time": "12:00pm"}, {"days": "Sat-Sun", "time": "Closed"}], "id": "7759800020", "name": "USPS COLLECTION BOX - BLUE BOX", "address": {"city": "WEBSTER", "state": "TX", "street": "2507 W BAY AREA BLVD", "postcode": "77598"}}},
{"geometry": {"type": "Point", "coordinates": [-95.1316877333, 29.5413204958]}, "type": "Feature", "properties": {"collection_times": [{"days": "Mon-Fri", "time": "4:30pm"}, {"days": "Sat", "time": "1:00pm"}, {"days": "Sun", "time": "Closed"}], "id": "7759800023", "name": "USPS COLLECTION BOX - PO LOBBY", "address": {"city": "WEBSTER", "state": "TX", "street": "17077 N TEXAS AVE", "postcode": "77598"}}},
{"geometry": {"type": "Point", "coordinates": [-95.1316877333, 29.5413204958]}, "type": "Feature", "properties": {"collection_times": [{"days": "Mon-Fri", "time": "4:30pm"}, {"days": "Sat", "time": "1:00pm"}, {"days": "Sun", "time": "Closed"}], "id": "7759800028", "name": "USPS COLLECTION BOX - PO LOBBY", "address": {"city": "WEBSTER", "state": "TX", "street": "17077 N TEXAS AVE", "postcode": "77598"}}},
{"geometry": {"type": "Point", "coordinates": [-95.1501648023, 29.5696435788]}, "type": "Feature", "properties": {"collection_times": [{"days": "Mon-Fri", "time": "12:45pm"}, {"days": "Sat-Sun", "time": "Closed"}], "id": "7759800029", "name": "USPS COLLECTION BOX - BLUE BOX", "address": {"city": "WEBSTER", "state": "TX", "street": "695 PINELOCH DR", "postcode": "77598"}}},
{"geometry": {"type": "Point", "coordinates": [-95.1316877333, 29.5413204958]}, "type": "Feature", "properties": {"collection_times": [{"days": "Mon-Fri", "time": "4:30pm"}, {"days": "Sat", "time": "1:00pm"}, {"days": "Sun", "time": "Closed"}], "id": "7759800030", "name": "USPS COLLECTION BOX - APC", "address": {"city": "WEBSTER", "state": "TX", "street": "17077 N TEXAS AVE", "postcode": "77598"}}}
]}
