{"type": "FeatureCollection", "features": [
{"geometry": {"type": "Point", "coordinates": [-93.8425390811, 30.0244014729]}, "type": "Feature", "properties": {"collection_times": [{"days": "Mon-Fri", "time": "4:45pm"}, {"days": "Sat", "time": "11:30am"}, {"days": "Sun", "time": "Closed"}], "id": "7761100001", "name": "USPS COLLECTION BOX - PO LOBBY", "address": {"city": "BRIDGE CITY", "state": "TX", "street": "900 TEXAS AVE", "postcode": "77611"}}},
{"geometry": {"type": "Point", "coordinates": [-93.8425390811, 30.0244014729]}, "type": "Feature", "properties": {"collection_times": [{"days": "Mon-Fri", "time": "4:45pm"}, {"days": "Sat", "time": "3:00pm"}, {"days": "Sun", "time": "Closed"}], "id": "7761100005", "name": "USPS COLLECTION BOX - BLUE BOX", "address": {"city": "BRIDGE CITY", "state": "TX", "street": "900 TEXAS AVE", "postcode": "77611"}}},
{"geometry": {"type": "Point", "coordinates": [-93.8425390811, 30.0244014729]}, "type": "Feature", "properties": {"collection_times": [{"days": "Mon-Fri", "time": "4:45pm"}, {"days": "Sat", "time": "11:30am"}, {"days": "Sun", "time": "Closed"}], "id": "7761100008", "name": "USPS COLLECTION BOX - PO LOBBY", "address": {"city": "BRIDGE CITY", "state": "TX", "street": "900 TEXAS AVE", "postcode": "77611"}}},
{"geometry": {"type": "Point", "coordinates": [-93.9868499378, 30.4106233076]}, "type": "Feature", "properties": {"collection_times": [{"days": "Mon-Fri", "time": "4:00pm"}, {"days": "Sat", "time": "12:00pm"}, {"days": "Sun", "time": "Closed"}], "id": "7761200001", "name": "USPS COLLECTION BOX - BLUE BOX", "address": {"city": "BUNA", "state": "TX", "street": "332 TX STATE HIGHWAY 62", "postcode": "77612"}}},
{"geometry": {"type": "Point", "coordinates": [-93.9868499378, 30.4106233076]}, "type": "Feature", "properties": {"collection_times": [{"days": "Mon-Fri", "time": "4:00pm"}, {"days": "Sat", "time": "12:00pm"}, {"days": "Sun", "time": "Closed"}], "id": "7761200003", "name": "USPS COLLECTION BOX - PO LOBBY", "address": {"city": "BUNA", "state": "TX", "street": "332 TX STATE HIGHWAY 62", "postcode": "77612"}}},
{"geometry": {"type": "Point", "coordinates": [-93.9868499378, 30.4106233076]}, "type": "Feature", "properties": {"collection_times": [{"days": "Mon-Fri", "time": "4:00pm"}, {"days": "Sat", "time": "12:00pm"}, {"days": "Sun", "time": "Closed"}], "id": "7761200004", "name": "USPS COLLECTION BOX - PO LOBBY", "address": {"city": "BUNA", "state": "TX", "street": "332 TX STATE HIGHWAY 62", "postcode": "77612"}}},
{"geometry": {"type": "Point", "coordinates": [-94.3361188599, 30.0497228058]}, "type": "Feature", "properties": {"collection_times": [{"days": "Mon-Fri", "time": "4:15pm"}, {"days": "Sat", "time": "10:00am"}, {"days": "Sun", "time": "Closed"}], "id": "7761300001", "name": "USPS COLLECTION BOX - BLUE BOX", "address": {"city": "CHINA", "state": "TX", "street": "305 N BROADWAY ST", "postcode": "77613"}}},
{"geometry": {"type": "Point", "coordinates": [-94.3361188599, 30.0497228058]}, "type": "Feature", "properties": {"collection_times": [{"days": "Mon-Fri", "time": "4:15pm"}, {"days": "Sat", "time": "10:00am"}, {"days": "Sun", "time": "Closed"}], "id": "7761300002", "name": "USPS COLLECTION BOX - PO LOBBY", "address": {"city": "CHINA", "state": "TX", "street": "305 N BROADWAY ST", "postcode": "77613"}}},
{"geometry": {"type": "Point", "coordinates": [-94.3361188599, 30.0497228058]}, "type": "Feature", "properties": {"collection_times": [{"days": "Mon-Fri", "time": "4:15pm"}, {"days": "Sat", "time": "10:00am"}, {"days": "Sun", "time": "Closed"}], "id": "7761300003", "name": "USPS COLLECTION BOX - PO LOBBY", "address": {"city": "CHINA", "state": "TX", "street": "305 N BROADWAY ST", "postcode": "77613"}}},
{"geometry": {"type": "Point", "coordinates": [-93.7445184725, 30.2963026009]}, "type": "Feature", "properties": {"collection_times": [{"days": "Mon-Fri", "time": "3:30pm"}, {"days": "Sat", "time": "9:30am"}, {"days": "Sun", "time": "Closed"}], "id": "7761400001", "name": "USPS COLLECTION BOX - BLUE BOX", "address": {"city": "DEWEYVILLE", "state": "TX", "street": "680 TX STATE HIGHWAY 272", "postcode": "77614"}}},
{"geometry": {"type": "Point", "coordinates": [-93.7445184725, 30.2963026009]}, "type": "Feature", "properties": {"collection_times": [{"days": "Mon-Fri", "time": "3:30pm"}, {"days": "Sat", "time": "9:30am"}, {"days": "Sun", "time": "Closed"}], "id": "7761400002", "name": "USPS COLLECTION BOX - PO LOBBY", "address": {"city": "DEWEYVILLE", "state": "TX", "street": "680 TX STATE HIGHWAY 272", "postcode": "77614"}}},
{"geometry": {"type": "Point", "coordinates": [-93.7445184725, 30.2963026009]}, "type": "Feature", "properties": {"collection_times": [{"days": "Mon-Fri", "time": "3:30pm"}, {"days": "Sat", "time": "9:30am"}, {"days": "Sun", "time": "Closed"}], "id": "7761400003", "name": "USPS COLLECTION BOX - PO LOBBY", "address": {"city": "DEWEYVILLE", "state": "TX", "street": "680 TX STATE HIGHWAY 272", "postcode": "77614"}}},
{"geometry": {"type": "Point", "coordinates": [-94.0727289715, 30.3554634628]}, "type": "Feature", "properties": {"collection_times": [{"days": "Mon-Fri", "time": "4:30pm"}, {"days": "Sat", "time": "9:00am"}, {"days": "Sun", "time": "Closed"}], "id": "7761500001", "name": "USPS COLLECTION BOX - BLUE BOX", "address": {"city": "EVADALE", "state": "TX", "street": "225 FM 105", "postcode": "77615"}}},
{"geometry": {"type": "Point", "coordinates": [-94.0727289715, 30.3554634628]}, "type": "Feature", "properties": {"collection_times": [{"days": "Mon-Fri", "time": "4:30pm"}, {"days": "Sat", "time": "9:00am"}, {"days": "Sun", "time": "Closed"}], "id": "7761500002", "name": "USPS COLLECTION BOX - PO LOBBY", "address": {"city": "EVADALE", "state": "TX", "street": "225 FM 105", "postcode": "77615"}}},
{"geometry": {"type": "Point", "coordinates": [-94.2199464479, 30.5662309896]}, "type": "Feature", "properties": {"collection_times": [{"days": "Mon-Fri", "time": "4:00pm"}, {"days": "Sat", "time": "12:00pm"}, {"days": "Sun", "time": "Closed"}], "id": "7761600001", "name": "USPS COLLECTION BOX - BLUE BOX", "address": {"city": "FRED", "state": "TX", "street": "20239 FM 92 S", "postcode": "77616"}}},
{"geometry": {"type": "Point", "coordinates": [-94.2199464479, 30.5662309896]}, "type": "Feature", "properties": {"collection_times": [{"days": "Mon-Fri", "time": "2:15pm"}, {"days": "Sat", "time": "12:00pm"}, {"days": "Sun", "time": "Closed"}], "id": "7761600002", "name": "USPS COLLECTION BOX - PO LOBBY", "address": {"city": "FRED", "state": "TX", "street": "20239 FM 92 S", "postcode": "77616"}}},
{"geometry": {"type": "Point", "coordinates": [-94.2199464479, 30.5662309896]}, "type": "Feature", "properties": {"collection_times": [{"days": "Mon-Fri", "time": "2:15pm"}, {"days": "Sat", "time": "12:00pm"}, {"days": "Sun", "time": "Closed"}], "id": "7761600003", "name": "USPS COLLECTION BOX - PO LOBBY", "address": {"city": "FRED", "state": "TX", "street": "20239 FM 92 S", "postcode": "77616"}}},
{"geometry": {"type": "Point", "coordinates": [-93.9169692144, 29.9452037443]}, "type": "Feature", "properties": {"collection_times": [{"days": "Mon-Fri", "time": "4:00pm"}, {"days": "Sat", "time": "3:30pm"}, {"days": "Sun", "time": "Closed"}], "id": "7761900002", "name": "USPS COLLECTION BOX - BLUE BOX", "address": {"city": "GROVES", "state": "TX", "street": "6230 39TH ST", "postcode": "77619"}}},
{"geometry": {"type": "Point", "coordinates": [-93.9169692143, 29.9452123885]}, "type": "Feature", "properties": {"collection_times": [{"days": "Mon-Fri", "time": "4:00pm"}, {"days": "Sat", "time": "3:30pm"}, {"days": "Sun", "time": "Closed"}], "id": "7761900006", "name": "USPS COLLECTION BOX - PO LOBBY", "address": {"city": "GROVES", "state": "TX", "street": "6230 39TH ST", "postcode": "77619"}}},
{"geometry": {"type": "Point", "coordinates": [-93.9169692143, 29.9452123885]}, "type": "Feature", "properties": {"collection_times": [{"days": "Mon-Fri", "time": "4:00pm"}, {"days": "Sat", "time": "3:30pm"}, {"days": "Sun", "time": "Closed"}], "id": "7761900007", "name": "USPS COLLECTION BOX - PO LOBBY", "address": {"city": "GROVES", "state": "TX", "street": "6230 39TH ST", "postcode": "77619"}}},
{"geometry": {"type": "Point", "coordinates": [-94.2961493709, 29.8455221235]}, "type": "Feature", "properties": {"collection_times": [{"days": "Mon-Fri", "time": "4:30pm"}, {"days": "Sat", "time": "9:30am"}, {"days": "Sun", "time": "Closed"}], "id": "7762200001", "name": "USPS COLLECTION BOX - BLUE BOX", "address": {"city": "HAMSHIRE", "state": "TX", "street": "25142 HIGHWAY 124", "postcode": "77622"}}},
{"geometry": {"type": "Point", "coordinates": [-94.2961493709, 29.8455221235]}, "type": "Feature", "properties": {"collection_times": [{"days": "Mon-Fri", "time": "2:45pm"}, {"days": "Sat", "time": "9:30am"}, {"days": "Sun", "time": "Closed"}], "id": "7762200002", "name": "USPS COLLECTION BOX - PO LOBBY", "address": {"city": "HAMSHIRE", "state": "TX", "street": "25142 HIGHWAY 124", "postcode": "77622"}}},
{"geometry": {"type": "Point", "coordinates": [-94.4308182548, 29.5547006742]}, "type": "Feature", "properties": {"collection_times": [{"days": "Mon-Fri", "time": "12:15pm"}, {"days": "Sat", "time": "9:00am"}, {"days": "Sun", "time": "Closed"}], "id": "7762300001", "name": "USPS COLLECTION BOX - BLUE BOX", "address": {"city": "HIGH ISLAND", "state": "TX", "street": "2008 S 5TH ST", "postcode": "77623"}}},
{"geometry": {"type": "Point", "coordinates": [-94.4308182548, 29.5547006742]}, "type": "Feature", "properties": {"collection_times": [{"days": "Mon-Fri", "time": "12:15pm"}, {"days": "Sat", "time": "9:00am"}, {"days": "Sun", "time": "Closed"}], "id": "7762300002", "name": "USPS COLLECTION BOX - PO LOBBY", "address": {"city": "HIGH ISLAND", "state": "TX", "street": "2008 S 5TH ST", "postcode": "77623"}}},
{"geometry": {"type": "Point", "coordinates": [-94.2816281459, 30.6883604042]}, "type": "Feature", "properties": {"collection_times": [{"days": "Mon-Fri", "time": "4:00pm"}, {"days": "Sat", "time": "10:30am"}, {"days": "Sun", "time": "Closed"}], "id": "7762400001", "name": "USPS COLLECTION BOX - BLUE BOX", "address": {"city": "HILLISTER", "state": "TX", "street": "283 FM 1013 RD", "postcode": "77624"}}},
{"geometry": {"type": "Point", "coordinates": [-94.2816281459, 30.6883604042]}, "type": "Feature", "properties": {"collection_times": [{"days": "Mon-Fri", "time": "2:45pm"}, {"days": "Sat", "time": "10:30am"}, {"days": "Sun", "time": "Closed"}], "id": "7762400002", "name": "USPS COLLECTION BOX - PO LOBBY", "address": {"city": "HILLISTER", "state": "TX", "street": "283 FM 1013 RD", "postcode": "77624"}}},
{"geometry": {"type": "Point", "coordinates": [-94.3081964985, 30.3662969654]}, "type": "Feature", "properties": {"collection_times": [{"days": "Mon-Fri", "time": "4:00pm"}, {"days": "Sat", "time": "12:00pm"}, {"days": "Sun", "time": "Closed"}], "id": "7762500001", "name": "USPS COLLECTION BOX - BLUE BOX", "address": {"city": "KOUNTZE", "state": "TX", "street": "1245 S PINE ST", "postcode": "77625"}}},
{"geometry": {"type": "Point", "coordinates": [-94.3175147247, 30.36843206]}, "type": "Feature", "properties": {"collection_times": [{"days": "Mon-Fri", "time": "1:30pm"}, {"days": "Sat-Sun", "time": "Closed"}], "id": "7762500002", "name": "USPS COLLECTION BOX - BLUE BOX", "address": {"city": "KOUNTZE", "state": "TX", "street": "300 W MONROE ST", "postcode": "77625"}}},
{"geometry": {"type": "Point", "coordinates": [-94.3081964985, 30.3662969654]}, "type": "Feature", "properties": {"collection_times": [{"days": "Mon-Fri", "time": "4:00pm"}, {"days": "Sat", "time": "12:00pm"}, {"days": "Sun", "time": "Closed"}], "id": "7762500006", "name": "USPS COLLECTION BOX - PO LOBBY", "address": {"city": "KOUNTZE", "state": "TX", "street": "1245 S PINE ST", "postcode": "77625"}}},
{"geometry": {"type": "Point", "coordinates": [-94.3081964985, 30.3662969654]}, "type": "Feature", "properties": {"collection_times": [{"days": "Mon-Fri", "time": "4:00pm"}, {"days": "Sat", "time": "12:00pm"}, {"days": "Sun", "time": "Closed"}], "id": "7762500007", "name": "USPS COLLECTION BOX - PO LOBBY", "address": {"city": "KOUNTZE", "state": "TX", "street": "1245 S PINE ST", "postcode": "77625"}}},
{"geometry": {"type": "Point", "coordinates": [-93.8728978236, 30.2183003292]}, "type": "Feature", "properties": {"collection_times": [{"days": "Mon-Fri", "time": "4:00pm"}, {"days": "Sat", "time": "10:00am"}, {"days": "Sun", "time": "Closed"}], "id": "7762600001", "name": "USPS COLLECTION BOX - BLUE BOX", "address": {"city": "MAURICEVILLE", "state": "TX", "street": "11424 HIGHWAY 12", "postcode": "77626"}}},
{"geometry": {"type": "Point", "coordinates": [-93.8728978236, 30.2183003292]}, "type": "Feature", "properties": {"collection_times": [{"days": "Mon-Fri", "time": "4:00pm"}, {"days": "Sat", "time": "10:00am"}, {"days": "Sun", "time": "Closed"}], "id": "7762600002", "name": "USPS COLLECTION BOX - PO LOBBY", "address": {"city": "MAURICEVILLE", "state": "TX", "street": "11424 HIGHWAY 12", "postcode": "77626"}}},
{"geometry": {"type": "Point", "coordinates": [-93.9919362863, 29.973770226]}, "type": "Feature", "properties": {"collection_times": [{"days": "Mon-Fri", "time": "4:45pm"}, {"days": "Sat", "time": "2:45pm"}, {"days": "Sun", "time": "Closed"}], "id": "7762700001", "name": "USPS COLLECTION BOX - BLUE BOX", "address": {"city": "NEDERLAND", "state": "TX", "street": "223 N 14TH ST", "postcode": "77627"}}},
{"geometry": {"type": "Point", "coordinates": [-93.983705532, 29.9575747621]}, "type": "Feature", "properties": {"collection_times": [{"days": "Mon-Fri", "time": "4:00pm"}, {"days": "Sat-Sun", "time": "Closed"}], "id": "7762700005", "name": "USPS COLLECTION BOX - BLUE BOX", "address": {"city": "NEDERLAND", "state": "TX", "street": "2300 HIGHWAY 365", "postcode": "77627"}}},
{"geometry": {"type": "Point", "coordinates": [-93.9863253005, 29.977905996]}, "type": "Feature", "properties": {"collection_times": [{"days": "Mon-Fri", "time": "4:00pm"}, {"days": "Sat-Sun", "time": "Closed"}], "id": "7762700007", "name": "USPS COLLECTION BOX - BLUE BOX", "address": {"city": "NEDERLAND", "state": "TX", "street": "900 NEDERLAND AVE", "postcode": "77627"}}},
{"geometry": {"type": "Point", "coordinates": [-93.9985860772, 29.9631750503]}, "type": "Feature", "properties": {"collection_times": [{"days": "Mon-Fri", "time": "4:00pm"}, {"days": "Sat-Sun", "time": "Closed"}], "id": "7762700008", "name": "USPS COLLECTION BOX - BLUE BOX", "address": {"city": "NEDERLAND", "state": "TX", "street": "212 S 27TH ST", "postcode": "77627"}}},
{"geometry": {"type": "Point", "coordinates": [-93.9919362863, 29.973770226]}, "type": "Feature", "properties": {"collection_times": [{"days": "Mon-Fri", "time": "4:45pm"}, {"days": "Sat", "time": "2:45pm"}, {"days": "Sun", "time": "Closed"}], "id": "7762700011", "name": "USPS COLLECTION BOX - PO LOBBY", "address": {"city": "NEDERLAND", "state": "TX", "street": "223 N 14TH ST", "postcode": "77627"}}},
{"geometry": {"type": "Point", "coordinates": [-93.9919362863, 29.973770226]}, "type": "Feature", "properties": {"collection_times": [{"days": "Mon-Fri", "time": "4:45pm"}, {"days": "Sat", "time": "2:45pm"}, {"days": "Sun", "time": "Closed"}], "id": "7762700012", "name": "USPS COLLECTION BOX - PO LOBBY", "address": {"city": "NEDERLAND", "state": "TX", "street": "223 N 14TH ST", "postcode": "77627"}}},
{"geometry": {"type": "Point", "coordinates": [-94.4235968556, 30.0355841579]}, "type": "Feature", "properties": {"collection_times": [{"days": "Mon-Fri", "time": "4:00pm"}, {"days": "Sat", "time": "9:30am"}, {"days": "Sun", "time": "Closed"}], "id": "7762900001", "name": "USPS COLLECTION BOX - BLUE BOX", "address": {"city": "NOME", "state": "TX", "street": "2285 HIGHWAY 90", "postcode": "77629"}}},
{"geometry": {"type": "Point", "coordinates": [-94.4235968556, 30.0355841579]}, "type": "Feature", "properties": {"collection_times": [{"days": "Mon-Fri", "time": "3:45pm"}, {"days": "Sat", "time": "9:30am"}, {"days": "Sun", "time": "Closed"}], "id": "7762900002", "name": "USPS COLLECTION BOX - PO LOBBY", "address": {"city": "NOME", "state": "TX", "street": "2285 HIGHWAY 90", "postcode": "77629"}}},
{"geometry": {"type": "Point", "coordinates": [-93.8554984013, 30.0746929114]}, "type": "Feature", "properties": {"collection_times": [{"days": "Mon-Fri", "time": "3:45pm"}, {"days": "Sat", "time": "10:00am"}, {"days": "Sun", "time": "Closed"}], "id": "7763900001", "name": "USPS COLLECTION BOX - BLUE BOX", "address": {"city": "ORANGEFIELD", "state": "TX", "street": "5481 FM 408", "postcode": "77639"}}},
{"geometry": {"type": "Point", "coordinates": [-93.8555264916, 30.0735030209]}, "type": "Feature", "properties": {"collection_times": [{"days": "Mon-Fri", "time": "3:45pm"}, {"days": "Sat", "time": "10:00am"}, {"days": "Sun", "time": "Closed"}], "id": "7763900002", "name": "USPS COLLECTION BOX - PO LOBBY", "address": {"city": "ORANGEFIELD", "state": "TX", "street": "5481 FM 408", "postcode": "77639"}}},
{"geometry": {"type": "Point", "coordinates": [-93.8555264916, 30.0735030209]}, "type": "Feature", "properties": {"collection_times": [{"days": "Mon-Fri", "time": "3:45pm"}, {"days": "Sat", "time": "10:00am"}, {"days": "Sun", "time": "Closed"}], "id": "7763900003", "name": "USPS COLLECTION BOX - PO LOBBY", "address": {"city": "ORANGEFIELD", "state": "TX", "street": "5481 FM 408", "postcode": "77639"}}},
{"geometry": {"type": "Point", "coordinates": [-93.9337654788, 29.8689240734]}, "type": "Feature", "properties": {"collection_times": [{"days": "Mon-Fri", "time": "5:00pm"}, {"days": "Sat", "time": "4:00pm"}, {"days": "Sun", "time": "Closed"}], "id": "7764000000", "name": "USPS COLLECTION BOX - BLUE BOX", "address": {"city": "PORT ARTHUR", "state": "TX", "street": "345 LAKESHORE DR", "postcode": "77640"}}},
{"geometry": {"type": "Point", "coordinates": [-93.9324689852, 29.8702221417]}, "type": "Feature", "properties": {"collection_times": [{"days": "Mon-Fri", "time": "4:45pm"}, {"days": "Sat-Sun", "time": "Closed"}], "id": "7764000001", "name": "USPS COLLECTION BOX - BLUE BOX", "address": {"city": "PORT ARTHUR", "state": "TX", "street": "525 LAKESHORE DR", "postcode": "77640"}}},
{"geometry": {"type": "Point", "coordinates": [-93.9414684029, 29.8709342688]}, "type": "Feature", "properties": {"collection_times": [{"days": "Mon-Fri", "time": "4:45pm"}, {"days": "Sat-Sun", "time": "Closed"}], "id": "7764000003", "name": "USPS COLLECTION BOX - BLUE BOX", "address": {"city": "PORT ARTHUR", "state": "TX", "street": "800 HOUSTON AVE", "postcode": "77640"}}},
{"geometry": {"type": "Point", "coordinates": [-93.933142857, 29.8845758103]}, "type": "Feature", "properties": {"collection_times": [{"days": "Mon-Fri", "time": "4:15pm"}, {"days": "Sat-Sun", "time": "Closed"}], "id": "7764000010", "name": "USPS COLLECTION BOX - BLUE BOX", "address": {"city": "PORT ARTHUR", "state": "TX", "street": "200 GILHAM CIR", "postcode": "77640"}}},
{"geometry": {"type": "Point", "coordinates": [-93.9295008617, 29.8992506534]}, "type": "Feature", "properties": {"collection_times": [{"days": "Mon-Fri", "time": "4:15pm"}, {"days": "Sat-Sun", "time": "Closed"}], "id": "7764000011", "name": "USPS COLLECTION BOX - BLUE BOX", "address": {"city": "PORT ARTHUR", "state": "TX", "street": "1748 WOODWORTH BLVD", "postcode": "77640"}}},
{"geometry": {"type": "Point", "coordinates": [-93.9469984265, 29.9114405364]}, "type": "Feature", "properties": {"collection_times": [{"days": "Mon-Fri", "time": "4:30pm"}, {"days": "Sat-Sun", "time": "Closed"}], "id": "7764000013", "name": "USPS COLLECTION BOX - BLUE BOX", "address": {"city": "PORT ARTHUR", "state": "TX", "street": "3700 MEMORIAL BLVD", "postcode": "77640"}}},
{"geometry": {"type": "Point", "coordinates": [-94.0045100172, 29.8938299286]}, "type": "Feature", "properties": {"collection_times": [{"days": "Mon-Fri", "time": "4:30pm"}, {"days": "Sat-Sun", "time": "Closed"}], "id": "7764000023", "name": "USPS COLLECTION BOX - BLUE BOX", "address": {"city": "PORT ARTHUR", "state": "TX", "street": "5883 W PORT ARTHUR RD", "postcode": "77640"}}},
{"geometry": {"type": "Point", "coordinates": [-93.941357223, 29.8852836074]}, "type": "Feature", "properties": {"collection_times": [{"days": "Mon-Fri", "time": "4:15pm"}, {"days": "Sat-Sun", "time": "Closed"}], "id": "7764000025", "name": "USPS COLLECTION BOX - BLUE BOX", "address": {"city": "PORT ARTHUR", "state": "TX", "street": "1200 GULFWAY DR", "postcode": "77640"}}},
{"geometry": {"type": "Point", "coordinates": [-93.9337654788, 29.8689240734]}, "type": "Feature", "properties": {"collection_times": [{"days": "Mon-Fri", "time": "5:00pm"}, {"days": "Sat", "time": "4:00pm"}, {"days": "Sun", "time": "Closed"}], "id": "7764000026", "name": "USPS COLLECTION BOX - PO LOBBY", "address": {"city": "PORT ARTHUR", "state": "TX", "street": "345 LAKESHORE DR", "postcode": "77640"}}},
{"geometry": {"type": "Point", "coordinates": [-93.9532756243, 29.8725278711]}, "type": "Feature", "properties": {"collection_times": [{"days": "Mon-Fri", "time": "4:45pm"}, {"days": "Sat-Sun", "time": "Closed"}], "id": "7764000029", "name": "USPS COLLECTION BOX - BLUE BOX", "address": {"city": "PORT ARTHUR", "state": "TX", "street": "600 W GULFWAY DR", "postcode": "77640"}}},
{"geometry": {"type": "Point", "coordinates": [-93.8775363788, 29.9155128348]}, "type": "Feature", "properties": {"collection_times": [{"days": "Mon-Fri", "time": "4:00pm"}, {"days": "Sat-Sun", "time": "Closed"}], "id": "7764200004", "name": "USPS COLLECTION BOX - BLUE BOX", "address": {"city": "PORT ARTHUR", "state": "TX", "street": "3100 HIGHWAY 365", "postcode": "77642"}}},
{"geometry": {"type": "Point", "coordinates": [-93.8775363788, 29.9155128348]}, "type": "Feature", "properties": {"collection_times": [{"days": "Mon-Fri", "time": "4:00pm"}, {"days": "Sat-Sun", "time": "Closed"}], "id": "7764200005", "name": "USPS COLLECTION BOX - BLUE BOX", "address": {"city": "PORT ARTHUR", "state": "TX", "street": "3500 HIGHWAY 365", "postcode": "77642"}}},
{"geometry": {"type": "Point", "coordinates": [-93.8775363788, 29.9155128348]}, "type": "Feature", "properties": {"collection_times": [{"days": "Mon-Fri", "time": "4:15pm"}, {"days": "Sat-Sun", "time": "Closed"}], "id": "7764200007", "name": "USPS COLLECTION BOX - BLUE BOX", "address": {"city": "PORT ARTHUR", "state": "TX", "street": "4749 N TWIN CITY HWY", "postcode": "77642"}}},
{"geometry": {"type": "Point", "coordinates": [-93.9274609832, 29.931569817]}, "type": "Feature", "properties": {"collection_times": [{"days": "Mon-Fri", "time": "4:15pm"}, {"days": "Sat-Sun", "time": "Closed"}], "id": "7764200008", "name": "USPS COLLECTION BOX - BLUE BOX", "address": {"city": "PORT ARTHUR", "state": "TX", "street": "3639 N TWIN CITY HWY", "postcode": "77642"}}},
{"geometry": {"type": "Point", "coordinates": [-93.8995550355, 29.9117213855]}, "type": "Feature", "properties": {"collection_times": [{"days": "Mon-Fri", "time": "4:15pm"}, {"days": "Sat-Sun", "time": "Closed"}], "id": "7764200013", "name": "USPS COLLECTION BOX - BLUE BOX", "address": {"city": "PORT ARTHUR", "state": "TX", "street": "548 STADIUM RD", "postcode": "77642"}}},
{"geometry": {"type": "Point", "coordinates": [-93.9103238584, 29.9188498781]}, "type": "Feature", "properties": {"collection_times": [{"days": "Mon-Fri", "time": "4:15pm"}, {"days": "Sat-Sun", "time": "Closed"}], "id": "7764200014", "name": "USPS COLLECTION BOX - BLUE BOX", "address": {"city": "PORT ARTHUR", "state": "TX", "street": "4945 GULFWAY DR", "postcode": "77642"}}},
{"geometry": {"type": "Point", "coordinates": [-93.9202512612, 29.9081625336]}, "type": "Feature", "properties": {"collection_times": [{"days": "Mon-Fri", "time": "4:30pm"}, {"days": "Sat-Sun", "time": "Closed"}], "id": "7764200015", "name": "USPS COLLECTION BOX - BLUE BOX", "address": {"city": "PORT ARTHUR", "state": "TX", "street": "3725 GULFWAY DR", "postcode": "77642"}}},
{"geometry": {"type": "Point", "coordinates": [-93.9231557447, 29.9097424665]}, "type": "Feature", "properties": {"collection_times": [{"days": "Mon-Fri", "time": "4:15pm"}, {"days": "Sat-Sun", "time": "Closed"}], "id": "7764200016", "name": "USPS COLLECTION BOX - BLUE BOX", "address": {"city": "PORT ARTHUR", "state": "TX", "street": "1926 9TH AVE", "postcode": "77642"}}},
{"geometry": {"type": "Point", "coordinates": [-93.9565385743, 29.9333571742]}, "type": "Feature", "properties": {"collection_times": [{"days": "Mon-Fri", "time": "3:45pm"}, {"days": "Sat-Sun", "time": "Closed"}], "id": "7764200050", "name": "USPS COLLECTION BOX - BLUE BOX", "address": {"city": "PORT ARTHUR", "state": "TX", "street": "5860 9TH AVE", "postcode": "77642"}}},
{"geometry": {"type": "Point", "coordinates": [-93.9076614562, 29.9235987554]}, "type": "Feature", "properties": {"collection_times": [{"days": "Mon-Fri", "time": "4:15pm"}, {"days": "Sat-Sun", "time": "Closed"}], "id": "7764200059", "name": "USPS COLLECTION BOX - BLUE BOX", "address": {"city": "PORT ARTHUR", "state": "TX", "street": "5266 GULFWAY DR", "postcode": "77642"}}},
{"geometry": {"type": "Point", "coordinates": [-93.8775363788, 29.9155128348]}, "type": "Feature", "properties": {"collection_times": [{"days": "Mon-Fri", "time": "4:00pm"}, {"days": "Sat-Sun", "time": "Closed"}], "id": "7764200063", "name": "USPS COLLECTION BOX - BLUE BOX", "address": {"city": "PORT ARTHUR", "state": "TX", "street": "3800 HIGHWAY 365", "postcode": "77642"}}},
{"geometry": {"type": "Point", "coordinates": [-93.9177802929, 29.9059526644]}, "type": "Feature", "properties": {"collection_times": [{"days": "Mon-Fri", "time": "4:45pm"}, {"days": "Sat-Sun", "time": "Closed"}], "id": "7764200064", "name": "USPS COLLECTION BOX - BLUE BOX", "address": {"city": "PORT ARTHUR", "state": "TX", "street": "1400 9TH AVE", "postcode": "77642"}}},
{"geometry": {"type": "Point", "coordinates": [-94.7527331766, 29.3887230177]}, "type": "Feature", "properties": {"collection_times": [{"days": "Mon-Fri", "time": "3:45pm"}, {"days": "Sat", "time": "9:45am"}, {"days": "Sun", "time": "Closed"}], "id": "7765000007", "name": "USPS COLLECTION BOX - PO LOBBY", "address": {"city": "PORT BOLIVAR", "state": "TX", "street": "2500 BROADWAY AVE", "postcode": "77650"}}},
{"geometry": {"type": "Point", "coordinates": [-94.7527331766, 29.3887230177]}, "type": "Feature", "properties": {"collection_times": [{"days": "Mon-Fri", "time": "3:45pm"}, {"days": "Sat", "time": "9:45am"}, {"days": "Sun", "time": "Closed"}], "id": "7765000008", "name": "USPS COLLECTION BOX - BLUE BOX", "address": {"city": "PORT BOLIVAR", "state": "TX", "street": "2500 BROADWAY AVE", "postcode": "77650"}}},
{"geometry": {"type": "Point", "coordinates": [-94.4880365458, 29.5127527466]}, "type": "Feature", "properties": {"collection_times": [{"days": "Mon-Fri", "time": "4:15pm"}, {"days": "Sat", "time": "9:45am"}, {"days": "Sun", "time": "Closed"}], "id": "7765000009", "name": "USPS COLLECTION BOX - BLUE BOX", "address": {"city": "PORT BOLIVAR", "state": "TX", "street": "2200 HIGHWAY 87", "postcode": "77650"}}},
{"geometry": {"type": "Point", "coordinates": [-94.4880365458, 29.5127527466]}, "type": "Feature", "properties": {"collection_times": [{"days": "Mon-Fri", "time": "4:15pm"}, {"days": "Sat", "time": "9:45am"}, {"days": "Sun", "time": "Closed"}], "id": "7765000010", "name": "USPS COLLECTION BOX - PO LOBBY", "address": {"city": "PORT BOLIVAR", "state": "TX", "street": "2200 HIGHWAY 87", "postcode": "77650"}}},
{"geometry": {"type": "Point", "coordinates": [-93.9614881405, 29.9813628802]}, "type": "Feature", "properties": {"collection_times": [{"days": "Mon-Fri", "time": "5:00pm"}, {"days": "Sat", "time": "3:30pm"}, {"days": "Sun", "time": "Closed"}], "id": "7765100004", "name": "USPS COLLECTION BOX - BLUE BOX", "address": {"city": "PORT NECHES", "state": "TX", "street": "1324 PORT NECHES AVE", "postcode": "77651"}}},
{"geometry": {"type": "Point", "coordinates": [-93.9606987337, 29.9913382832]}, "type": "Feature", "properties": {"collection_times": [{"days": "Mon-Fri", "time": "5:00pm"}, {"days": "Sat", "time": "3:30pm"}, {"days": "Sun", "time": "Closed"}], "id": "7765100014", "name": "USPS COLLECTION BOX - PO LOBBY", "address": {"city": "PORT NECHES", "state": "TX", "street": "1324 PORT NECHES AVE", "postcode": "77651"}}},
{"geometry": {"type": "Point", "coordinates": [-93.9606987337, 29.9913382832]}, "type": "Feature", "properties": {"collection_times": [{"days": "Mon-Fri", "time": "5:00pm"}, {"days": "Sat", "time": "3:30pm"}, {"days": "Sun", "time": "Closed"}], "id": "7765100015", "name": "USPS COLLECTION BOX - PO LOBBY", "address": {"city": "PORT NECHES", "state": "TX", "street": "1324 PORT NECHES AVE", "postcode": "77651"}}},
{"geometry": {"type": "Point", "coordinates": [-93.8950802321, 29.732609497]}, "type": "Feature", "properties": {"collection_times": [{"days": "Mon-Fri", "time": "3:30pm"}, {"days": "Sat", "time": "7:00am"}, {"days": "Sun", "time": "Closed"}], "id": "7765500005", "name": "USPS COLLECTION BOX - BLUE BOX", "address": {"city": "SABINE PASS", "state": "TX", "street": "5424 TREMONT ST", "postcode": "77655"}}},
{"geometry": {"type": "Point", "coordinates": [-93.8950802321, 29.732609497]}, "type": "Feature", "properties": {"collection_times": [{"days": "Mon-Fri", "time": "12:45pm"}, {"days": "Sat", "time": "7:00am"}, {"days": "Sun", "time": "Closed"}], "id": "7765500006", "name": "USPS COLLECTION BOX - PO LOBBY", "address": {"city": "SABINE PASS", "state": "TX", "street": "5424 TREMONT ST", "postcode": "77655"}}},
{"geometry": {"type": "Point", "coordinates": [-94.1856991145, 30.3859002263]}, "type": "Feature", "properties": {"collection_times": [{"days": "Mon-Fri", "time": "4:30pm"}, {"days": "Sat", "time": "3:30pm"}, {"days": "Sun", "time": "Closed"}], "id": "7765600002", "name": "USPS COLLECTION BOX - BLUE BOX", "address": {"city": "SILSBEE", "state": "TX", "street": "111 W AVENUE P", "postcode": "77656"}}},
{"geometry": {"type": "Point", "coordinates": [-94.18605, 30.351154]}, "type": "Feature", "properties": {"collection_times": [{"days": "Mon-Fri", "time": "1:00pm"}, {"days": "Sat", "time": "12:00pm"}, {"days": "Sun", "time": "Closed"}], "id": "7765600004", "name": "USPS COLLECTION BOX - BLUE BOX", "address": {"city": "SILSBEE", "state": "TX", "street": "100 PINE PLZ", "postcode": "77656"}}},
{"geometry": {"type": "Point", "coordinates": [-94.1856991145, 30.3859002263]}, "type": "Feature", "properties": {"collection_times": [{"days": "Mon-Fri", "time": "4:30pm"}, {"days": "Sat", "time": "3:30pm"}, {"days": "Sun", "time": "Closed"}], "id": "7765600006", "name": "USPS COLLECTION BOX - PO LOBBY", "address": {"city": "SILSBEE", "state": "TX", "street": "111 W AVENUE P", "postcode": "77656"}}},
{"geometry": {"type": "Point", "coordinates": [-94.1964000335, 30.2443804602]}, "type": "Feature", "properties": {"collection_times": [{"days": "Mon-Fri", "time": "4:00pm"}, {"days": "Sat", "time": "2:30pm"}, {"days": "Sun", "time": "Closed"}], "id": "7765700000", "name": "USPS COLLECTION BOX - BLUE BOX", "address": {"city": "LUMBERTON", "state": "TX", "street": "650 S MAIN ST", "postcode": "77657"}}},
{"geometry": {"type": "Point", "coordinates": [-94.1964000335, 30.2443804602]}, "type": "Feature", "properties": {"collection_times": [{"days": "Mon-Fri", "time": "4:00pm"}, {"days": "Sat", "time": "2:30pm"}, {"days": "Sun", "time": "Closed"}], "id": "7765700002", "name": "USPS COLLECTION BOX - PO LOBBY", "address": {"city": "LUMBERTON", "state": "TX", "street": "650 S MAIN ST", "postcode": "77657"}}},
{"geometry": {"type": "Point", "coordinates": [-94.404139921, 30.1471508641]}, "type": "Feature", "properties": {"collection_times": [{"days": "Mon-Fri", "time": "4:45pm"}, {"days": "Sat", "time": "12:00pm"}, {"days": "Sun", "time": "Closed"}], "id": "7765900001", "name": "USPS COLLECTION BOX - BLUE BOX", "address": {"city": "SOUR LAKE", "state": "TX", "street": "665 6TH ST", "postcode": "77659"}}},
{"geometry": {"type": "Point", "coordinates": [-94.412720093, 30.1397898072]}, "type": "Feature", "properties": {"collection_times": [{"days": "Mon-Fri", "time": "4:30pm"}, {"days": "Sat", "time": "12:00pm"}, {"days": "Sun", "time": "Closed"}], "id": "7765900004", "name": "USPS COLLECTION BOX - PO LOBBY", "address": {"city": "SOUR LAKE", "state": "TX", "street": "665 6TH ST", "postcode": "77659"}}},
{"geometry": {"type": "Point", "coordinates": [-94.1733897139, 30.6364636585]}, "type": "Feature", "properties": {"collection_times": [{"days": "Mon-Fri", "time": "4:00pm"}, {"days": "Sat", "time": "12:00pm"}, {"days": "Sun", "time": "Closed"}], "id": "7766000001", "name": "USPS COLLECTION BOX - BLUE BOX", "address": {"city": "SPURGER", "state": "TX", "street": "12385 FM 92 RD S", "postcode": "77660"}}},
{"geometry": {"type": "Point", "coordinates": [-94.1733897139, 30.6364636585]}, "type": "Feature", "properties": {"collection_times": [{"days": "Mon-Fri", "time": "4:00pm"}, {"days": "Sat", "time": "12:00pm"}, {"days": "Sun", "time": "Closed"}], "id": "7766000002", "name": "USPS COLLECTION BOX - PO LOBBY", "address": {"city": "SPURGER", "state": "TX", "street": "12385 FM 92 RD S", "postcode": "77660"}}},
{"geometry": {"type": "Point", "coordinates": [-94.3831142008, 29.7898216678]}, "type": "Feature", "properties": {"collection_times": [{"days": "Mon-Fri", "time": "2:15pm"}, {"days": "Sat", "time": "9:30am"}, {"days": "Sun", "time": "Closed"}], "id": "7766100001", "name": "USPS COLLECTION BOX - BLUE BOX", "address": {"city": "STOWELL", "state": "TX", "street": "3608 STATE HIGHWAY 124", "postcode": "77661"}}},
{"geometry": {"type": "Point", "coordinates": [-94.3831142008, 29.7898216678]}, "type": "Feature", "properties": {"collection_times": [{"days": "Mon-Fri", "time": "2:15pm"}, {"days": "Sat", "time": "9:30am"}, {"days": "Sun", "time": "Closed"}], "id": "7766100003", "name": "USPS COLLECTION BOX - PO LOBBY", "address": {"city": "STOWELL", "state": "TX", "street": "3608 STATE HIGHWAY 124", "postcode": "77661"}}},
{"geometry": {"type": "Point", "coordinates": [-94.0151195722, 30.1262577381]}, "type": "Feature", "properties": {"collection_times": [{"days": "Mon-Fri", "time": "5:00pm"}, {"days": "Sat", "time": "2:00pm"}, {"days": "Sun", "time": "Closed"}], "id": "7766200002", "name": "USPS COLLECTION BOX - BLUE BOX", "address": {"city": "VIDOR", "state": "TX", "street": "285 S ARCHIE ST", "postcode": "77662"}}},
{"geometry": {"type": "Point", "coordinates": [-94.0151195722, 30.1262577381]}, "type": "Feature", "properties": {"collection_times": [{"days": "Mon-Fri", "time": "5:00pm"}, {"days": "Sat", "time": "2:00pm"}, {"days": "Sun", "time": "Closed"}], "id": "7766200008", "name": "USPS COLLECTION BOX - PO LOBBY", "address": {"city": "VIDOR", "state": "TX", "street": "285 S ARCHIE ST", "postcode": "77662"}}},
{"geometry": {"type": "Point", "coordinates": [-94.0151195722, 30.1262577381]}, "type": "Feature", "properties": {"collection_times": [{"days": "Mon-Fri", "time": "5:00pm"}, {"days": "Sat", "time": "2:00pm"}, {"days": "Sun", "time": "Closed"}], "id": "7766200009", "name": "USPS COLLECTION BOX - PO LOBBY", "address": {"city": "VIDOR", "state": "TX", "street": "285 S ARCHIE ST", "postcode": "77662"}}},
{"geometry": {"type": "Point", "coordinates": [-94.3995143222, 30.5064912023]}, "type": "Feature", "properties": {"collection_times": [{"days": "Mon-Fri", "time": "4:30pm"}, {"days": "Sat", "time": "12:00pm"}, {"days": "Sun", "time": "Closed"}], "id": "7766300001", "name": "USPS COLLECTION BOX - BLUE BOX", "address": {"city": "VILLAGE MILLS", "state": "TX", "street": "4956 FM 3063", "postcode": "77663"}}},
{"geometry": {"type": "Point", "coordinates": [-94.41833, 30.51243]}, "type": "Feature", "properties": {"collection_times": [{"days": "Mon-Fri", "time": "4:30pm"}, {"days": "Sat", "time": "12:00pm"}, {"days": "Sun", "time": "Closed"}], "id": "7766300002", "name": "USPS COLLECTION BOX - PO LOBBY", "address": {"city": "VILLAGE MILLS", "state": "TX", "street": "4956 FM 3063", "postcode": "77663"}}},
{"geometry": {"type": "Point", "coordinates": [-94.3933990674, 30.599700567]}, "type": "Feature", "properties": {"collection_times": [{"days": "Mon-Fri", "time": "4:00pm"}, {"days": "Sat", "time": "10:00am"}, {"days": "Sun", "time": "Closed"}], "id": "7766400001", "name": "USPS COLLECTION BOX - BLUE BOX", "address": {"city": "WARREN", "state": "TX", "street": "120 COUNTY ROAD 1520", "postcode": "77664"}}},
{"geometry": {"type": "Point", "coordinates": [-94.3933990674, 30.599700567]}, "type": "Feature", "properties": {"collection_times": [{"days": "Mon-Fri", "time": "4:00pm"}, {"days": "Sat", "time": "10:00am"}, {"days": "Sun", "time": "Closed"}], "id": "7766400003", "name": "USPS COLLECTION BOX - PO LOBBY", "address": {"city": "WARREN", "state": "TX", "street": "120 COUNTY ROAD 1520", "postcode": "77664"}}},
{"geometry": {"type": "Point", "coordinates": [-94.3841736993, 29.8233578264]}, "type": "Feature", "properties": {"collection_times": [{"days": "Mon-Fri", "time": "4:30pm"}, {"days": "Sat", "time": "11:30am"}, {"days": "Sun", "time": "Closed"}], "id": "7766500001", "name": "USPS COLLECTION BOX - BLUE BOX", "address": {"city": "WINNIE", "state": "TX", "street": "324 HIGHWAY 124", "postcode": "77665"}}},
{"geometry": {"type": "Point", "coordinates": [-94.3841736993, 29.8233578264]}, "type": "Feature", "properties": {"collection_times": [{"days": "Mon-Fri", "time": "4:30pm"}, {"days": "Sat", "time": "11:30am"}, {"days": "Sun", "time": "Closed"}], "id": "7766500003", "name": "USPS COLLECTION BOX - PO LOBBY", "address": {"city": "WINNIE", "state": "TX", "street": "324 HIGHWAY 124", "postcode": "77665"}}},
{"geometry": {"type": "Point", "coordinates": [-94.3841736993, 29.8233578264]}, "type": "Feature", "properties": {"collection_times": [{"days": "Mon-Fri", "time": "4:30pm"}, {"days": "Sat", "time": "11:30am"}, {"days": "Sun", "time": "Closed"}], "id": "7766500004", "name": "USPS COLLECTION BOX - PO LOBBY", "address": {"city": "WINNIE", "state": "TX", "street": "324 HIGHWAY 124", "postcode": "77665"}}}
]}
