{"type": "FeatureCollection", "features": [
{"geometry": {"type": "Point", "coordinates": [-94.101870594, 30.077741119]}, "type": "Feature", "properties": {"collection_times": [{"days": "Mon-Fri", "time": "4:15pm"}, {"days": "Sat-Sun", "time": "Closed"}], "id": "7770100001", "name": "USPS COLLECTION BOX - BLUE BOX", "address": {"city": "BEAUMONT", "state": "TX", "street": "703 ARCHIE ST", "postcode": "77701"}}},
{"geometry": {"type": "Point", "coordinates": [-94.1065673685, 30.0714650449]}, "type": "Feature", "properties": {"collection_times": [{"days": "Mon-Fri", "time": "2:15pm"}, {"days": "Sat-Sun", "time": "Closed"}], "id": "7770100008", "name": "USPS COLLECTION BOX - BLUE BOX", "address": {"city": "BEAUMONT", "state": "TX", "street": "1625 COLLEGE ST", "postcode": "77701"}}},
{"geometry": {"type": "Point", "coordinates": [-94.1306427584, 30.0711309319]}, "type": "Feature", "properties": {"collection_times": [{"days": "Mon-Fri", "time": "3:00pm"}, {"days": "Sat-Sun", "time": "Closed"}], "id": "7770100015", "name": "USPS COLLECTION BOX - BLUE BOX", "address": {"city": "BEAUMONT", "state": "TX", "street": "142 GATEWAY ST", "postcode": "77701"}}},
{"geometry": {"type": "Point", "coordinates": [-94.1002707398, 30.0821495413]}, "type": "Feature", "properties": {"collection_times": [{"days": "Mon-Fri", "time": "4:30pm"}, {"days": "Sat-Sun", "time": "Closed"}], "id": "7770100027", "name": "USPS COLLECTION BOX - BLUE BOX", "address": {"city": "BEAUMONT", "state": "TX", "street": "490 PARK ST", "postcode": "77701"}}},
{"geometry": {"type": "Point", "coordinates": [-94.0941101994, 30.0792218334]}, "type": "Feature", "properties": {"collection_times": [{"days": "Mon-Fri", "time": "3:30pm"}, {"days": "Sat-Sun", "time": "Closed"}], "id": "7770100030", "name": "USPS COLLECTION BOX - BLUE BOX", "address": {"city": "BEAUMONT", "state": "TX", "street": "1001 PEARL ST", "postcode": "77701"}}},
{"geometry": {"type": "Point", "coordinates": [-94.1322905412, 30.0700050826]}, "type": "Feature", "properties": {"collection_times": [{"days": "Mon-Fri", "time": "3:00pm"}, {"days": "Sat-Sun", "time": "Closed"}], "id": "7770100035", "name": "USPS COLLECTION BOX - BLUE BOX", "address": {"city": "BEAUMONT", "state": "TX", "street": "3775 STAGG DR", "postcode": "77701"}}},
{"geometry": {"type": "Point", "coordinates": [-94.1016837124, 30.0841207816]}, "type": "Feature", "properties": {"collection_times": [{"days": "Mon-Fri", "time": "4:30pm"}, {"days": "Sat", "time": "1:00pm"}, {"days": "Sun", "time": "Closed"}], "id": "7770100036", "name": "USPS COLLECTION BOX - BLUE BOX", "address": {"city": "BEAUMONT", "state": "TX", "street": "300 WILLOW ST", "postcode": "77701"}}},
{"geometry": {"type": "Point", "coordinates": [-94.1016837124, 30.0841207816]}, "type": "Feature", "properties": {"collection_times": [{"days": "Mon-Fri", "time": "4:30pm"}, {"days": "Sat", "time": "1:00pm"}, {"days": "Sun", "time": "Closed"}], "id": "7770100038", "name": "USPS COLLECTION BOX - BLUE BOX", "address": {"city": "BEAUMONT", "state": "TX", "street": "300 WILLOW ST", "postcode": "77701"}}},
{"geometry": {"type": "Point", "coordinates": [-94.1216188656, 30.0683975101]}, "type": "Feature", "properties": {"collection_times": [{"days": "Mon-Fri", "time": "2:00pm"}, {"days": "Sat-Sun", "time": "Closed"}], "id": "7770100041", "name": "USPS COLLECTION BOX - BLUE BOX", "address": {"city": "BEAUMONT", "state": "TX", "street": "3141 COLLEGE ST", "postcode": "77701"}}},
{"geometry": {"type": "Point", "coordinates": [-94.1041482901, 30.0845581423]}, "type": "Feature", "properties": {"collection_times": [{"days": "Mon-Fri", "time": "3:15pm"}, {"days": "Sat-Sun", "time": "Closed"}], "id": "7770100042", "name": "USPS COLLECTION BOX - BLUE BOX", "address": {"city": "BEAUMONT", "state": "TX", "street": "350 MAGNOLIA ST", "postcode": "77701"}}},
{"geometry": {"type": "Point", "coordinates": [-94.1016837124, 30.0841207816]}, "type": "Feature", "properties": {"collection_times": [{"days": "Mon-Fri", "time": "4:00pm"}, {"days": "Sat-Sun", "time": "Closed"}], "id": "7770100044", "name": "USPS COLLECTION BOX - PO LOBBY", "address": {"city": "BEAUMONT", "state": "TX", "street": "300 WILLOW ST", "postcode": "77701"}}},
{"geometry": {"type": "Point", "coordinates": [-94.1016837124, 30.0841207816]}, "type": "Feature", "properties": {"collection_times": [{"days": "Mon-Fri", "time": "4:00pm"}, {"days": "Sat-Sun", "time": "Closed"}], "id": "7770100045", "name": "USPS COLLECTION BOX - PO LOBBY", "address": {"city": "BEAUMONT", "state": "TX", "street": "300 WILLOW ST", "postcode": "77701"}}},
{"geometry": {"type": "Point", "coordinates": [-94.0977567845, 30.0853685488]}, "type": "Feature", "properties": {"collection_times": [{"days": "Mon-Fri", "time": "4:30pm"}, {"days": "Sat-Sun", "time": "Closed"}], "id": "7770100065", "name": "USPS COLLECTION BOX - BLUE BOX", "address": {"city": "BEAUMONT", "state": "TX", "street": "350 PINE ST", "postcode": "77701"}}},
{"geometry": {"type": "Point", "coordinates": [-94.1272270836, 30.0845986054]}, "type": "Feature", "properties": {"collection_times": [{"days": "Mon-Fri", "time": "3:15pm"}, {"days": "Sat-Sun", "time": "Closed"}], "id": "7770200001", "name": "USPS COLLECTION BOX - BLUE BOX", "address": {"city": "BEAUMONT", "state": "TX", "street": "395 N 10TH ST", "postcode": "77702"}}},
{"geometry": {"type": "Point", "coordinates": [-94.1312818985, 30.0856483969]}, "type": "Feature", "properties": {"collection_times": [{"days": "Mon-Fri", "time": "2:45pm"}, {"days": "Sat-Sun", "time": "Closed"}], "id": "7770200003", "name": "USPS COLLECTION BOX - BLUE BOX", "address": {"city": "BEAUMONT", "state": "TX", "street": "2830 CALDER ST", "postcode": "77702"}}},
{"geometry": {"type": "Point", "coordinates": [-94.1326921458, 30.0855523646]}, "type": "Feature", "properties": {"collection_times": [{"days": "Mon-Fri", "time": "3:15pm"}, {"days": "Sat-Sun", "time": "Closed"}], "id": "7770200004", "name": "USPS COLLECTION BOX - BLUE BOX", "address": {"city": "BEAUMONT", "state": "TX", "street": "2929 CALDER ST", "postcode": "77702"}}},
{"geometry": {"type": "Point", "coordinates": [-94.1297114256, 30.0790261868]}, "type": "Feature", "properties": {"collection_times": [{"days": "Mon-Fri", "time": "3:00pm"}, {"days": "Sat-Sun", "time": "Closed"}], "id": "7770200005", "name": "USPS COLLECTION BOX - BLUE BOX", "address": {"city": "BEAUMONT", "state": "TX", "street": "41 N 11TH ST", "postcode": "77702"}}},
{"geometry": {"type": "Point", "coordinates": [-94.1327014964, 30.0894650636]}, "type": "Feature", "properties": {"collection_times": [{"days": "Mon-Fri", "time": "2:45pm"}, {"days": "Sat-Sun", "time": "Closed"}], "id": "7770200006", "name": "USPS COLLECTION BOX - BLUE BOX", "address": {"city": "BEAUMONT", "state": "TX", "street": "2955 HARRISON ST", "postcode": "77702"}}},
{"geometry": {"type": "Point", "coordinates": [-94.1205167541, 30.0877287625]}, "type": "Feature", "properties": {"collection_times": [{"days": "Mon-Fri", "time": "2:30pm"}, {"days": "Sat-Sun", "time": "Closed"}], "id": "7770200008", "name": "USPS COLLECTION BOX - BLUE BOX", "address": {"city": "BEAUMONT", "state": "TX", "street": "2305 NORTH ST", "postcode": "77702"}}},
{"geometry": {"type": "Point", "coordinates": [-94.1276146779, 30.0856473662]}, "type": "Feature", "properties": {"collection_times": [{"days": "Mon-Fri", "time": "5:30pm"}, {"days": "Sat-Sun", "time": "Closed"}], "id": "7770200017", "name": "USPS COLLECTION BOX - PO LOBBY", "address": {"city": "BEAUMONT", "state": "TX", "street": "2615 CALDER ST", "postcode": "77702"}}},
{"geometry": {"type": "Point", "coordinates": [-94.1389331566, 30.1044820666]}, "type": "Feature", "properties": {"collection_times": [{"days": "Mon-Fri", "time": "2:45pm"}, {"days": "Sat-Sun", "time": "Closed"}], "id": "7770300003", "name": "USPS COLLECTION BOX - BLUE BOX", "address": {"city": "BEAUMONT", "state": "TX", "street": "3560 DELAWARE ST", "postcode": "77703"}}},
{"geometry": {"type": "Point", "coordinates": [-94.1334306197, 30.1060152191]}, "type": "Feature", "properties": {"collection_times": [{"days": "Mon-Fri", "time": "2:45pm"}, {"days": "Sat-Sun", "time": "Closed"}], "id": "7770300010", "name": "USPS COLLECTION BOX - BLUE BOX", "address": {"city": "BEAUMONT", "state": "TX", "street": "3240 DELAWARE ST", "postcode": "77703"}}},
{"geometry": {"type": "Point", "coordinates": [-94.0972966551, 30.0524618046]}, "type": "Feature", "properties": {"collection_times": [{"days": "Mon-Fri", "time": "4:00pm"}, {"days": "Sat", "time": "3:45pm"}, {"days": "Sun", "time": "Closed"}], "id": "7770500001", "name": "USPS COLLECTION BOX - BLUE BOX", "address": {"city": "BEAUMONT", "state": "TX", "street": "3501 AVENUE A", "postcode": "77705"}}},
{"geometry": {"type": "Point", "coordinates": [-94.0972966551, 30.0524618046]}, "type": "Feature", "properties": {"collection_times": [{"days": "Mon-Fri", "time": "4:00pm"}, {"days": "Sat", "time": "3:45pm"}, {"days": "Sun", "time": "Closed"}], "id": "7770500019", "name": "USPS COLLECTION BOX - PO LOBBY", "address": {"city": "BEAUMONT", "state": "TX", "street": "3501 AVENUE A", "postcode": "77705"}}},
{"geometry": {"type": "Point", "coordinates": [-94.0972966551, 30.0524618046]}, "type": "Feature", "properties": {"collection_times": [{"days": "Mon-Fri", "time": "4:00pm"}, {"days": "Sat", "time": "3:45pm"}, {"days": "Sun", "time": "Closed"}], "id": "7770500020", "name": "USPS COLLECTION BOX - PO LOBBY", "address": {"city": "BEAUMONT", "state": "TX", "street": "3501 AVENUE A", "postcode": "77705"}}},
{"geometry": {"type": "Point", "coordinates": [-94.0972966551, 30.0524618046]}, "type": "Feature", "properties": {"collection_times": [{"days": "Mon-Fri", "time": "4:00pm"}, {"days": "Sat", "time": "3:45pm"}, {"days": "Sun", "time": "Closed"}], "id": "7770500022", "name": "USPS COLLECTION BOX - PO LOBBY", "address": {"city": "BEAUMONT", "state": "TX", "street": "3501 AVENUE A", "postcode": "77705"}}},
{"geometry": {"type": "Point", "coordinates": [-94.0213234337, 29.9631983891]}, "type": "Feature", "properties": {"collection_times": [{"days": "Mon-Fri", "time": "10:30am"}, {"days": "Sat-Sun", "time": "Closed"}], "id": "7770500023", "name": "USPS COLLECTION BOX - BLUE BOX", "address": {"city": "BEAUMONT", "state": "TX", "street": "7933 VITERBO RD", "postcode": "77705"}}},
{"geometry": {"type": "Point", "coordinates": [-94.1685689756, 30.1154053473]}, "type": "Feature", "properties": {"collection_times": [{"days": "Mon-Fri", "time": "5:00pm"}, {"days": "Sat", "time": "3:00pm"}, {"days": "Sun", "time": "Closed"}], "id": "7770600006", "name": "USPS COLLECTION BOX - BLUE BOX", "address": {"city": "BEAUMONT", "state": "TX", "street": "3910 N DOWLEN RD", "postcode": "77706"}}},
{"geometry": {"type": "Point", "coordinates": [-94.163676378, 30.0804313811]}, "type": "Feature", "properties": {"collection_times": [{"days": "Mon-Fri", "time": "4:30pm"}, {"days": "Sat-Sun", "time": "Closed"}], "id": "7770600010", "name": "USPS COLLECTION BOX - BLUE BOX", "address": {"city": "BEAUMONT", "state": "TX", "street": "6400 PHELAN BLVD", "postcode": "77706"}}},
{"geometry": {"type": "Point", "coordinates": [-94.1887203589, 30.0765886861]}, "type": "Feature", "properties": {"collection_times": [{"days": "Mon-Fri", "time": "3:30pm"}, {"days": "Sat-Sun", "time": "Closed"}], "id": "7770600011", "name": "USPS COLLECTION BOX - BLUE BOX", "address": {"city": "BEAUMONT", "state": "TX", "street": "8350 PHELAN BLVD", "postcode": "77706"}}},
{"geometry": {"type": "Point", "coordinates": [-94.158065499, 30.1266651938]}, "type": "Feature", "properties": {"collection_times": [{"days": "Mon-Fri", "time": "2:30pm"}, {"days": "Sat-Sun", "time": "Closed"}], "id": "7770600021", "name": "USPS COLLECTION BOX - BLUE BOX", "address": {"city": "BEAUMONT", "state": "TX", "street": "6155 EASTEX FWY", "postcode": "77706"}}},
{"geometry": {"type": "Point", "coordinates": [-94.1665830718, 30.1206161542]}, "type": "Feature", "properties": {"collection_times": [{"days": "Mon-Fri", "time": "3:45pm"}, {"days": "Sat-Sun", "time": "Closed"}], "id": "7770600023", "name": "USPS COLLECTION BOX - BLUE BOX", "address": {"city": "BEAUMONT", "state": "TX", "street": "4145 DOWLEN RD", "postcode": "77706"}}},
{"geometry": {"type": "Point", "coordinates": [-94.1685428338, 30.1155002031]}, "type": "Feature", "properties": {"collection_times": [{"days": "Mon-Fri", "time": "5:00pm"}, {"days": "Sat", "time": "3:00pm"}, {"days": "Sun", "time": "Closed"}], "id": "7770600026", "name": "USPS COLLECTION BOX - PO LOBBY", "address": {"city": "BEAUMONT", "state": "TX", "street": "3910 N DOWLEN RD", "postcode": "77706"}}},
{"geometry": {"type": "Point", "coordinates": [-94.1363161088, 30.0781665999]}, "type": "Feature", "properties": {"collection_times": [{"days": "Mon-Fri", "time": "4:45pm"}, {"days": "Sat-Sun", "time": "Closed"}], "id": "7770700003", "name": "USPS COLLECTION BOX - BLUE BOX", "address": {"city": "BEAUMONT", "state": "TX", "street": "85 INTERSTATE 10 N", "postcode": "77707"}}},
{"geometry": {"type": "Point", "coordinates": [-94.1584148465, 30.0385451183]}, "type": "Feature", "properties": {"collection_times": [{"days": "Mon-Fri", "time": "6:00pm"}, {"days": "Sat", "time": "5:00pm"}, {"days": "Sun", "time": "Closed"}], "id": "7770700006", "name": "USPS COLLECTION BOX - BLUE BOX", "address": {"city": "BEAUMONT", "state": "TX", "street": "5815 WALDEN RD", "postcode": "77707"}}},
{"geometry": {"type": "Point", "coordinates": [-94.1584148465, 30.0385451183]}, "type": "Feature", "properties": {"collection_times": [{"days": "Mon-Fri", "time": "6:00pm"}, {"days": "Sat", "time": "5:00pm"}, {"days": "Sun", "time": "Closed"}], "id": "7770700007", "name": "USPS COLLECTION BOX - BLUE BOX", "address": {"city": "BEAUMONT", "state": "TX", "street": "5815 WALDEN RD", "postcode": "77707"}}},
{"geometry": {"type": "Point", "coordinates": [-94.1584148465, 30.0385451183]}, "type": "Feature", "properties": {"collection_times": [{"days": "Mon-Fri", "time": "6:00pm"}, {"days": "Sat", "time": "5:00pm"}, {"days": "Sun", "time": "Closed"}], "id": "7770700008", "name": "USPS COLLECTION BOX - BLUE BOX", "address": {"city": "BEAUMONT", "state": "TX", "street": "5815 WALDEN RD", "postcode": "77707"}}},
{"geometry": {"type": "Point", "coordinates": [-94.1584148465, 30.0385451183]}, "type": "Feature", "properties": {"collection_times": [{"days": "Mon-Fri", "time": "6:00pm"}, {"days": "Sat", "time": "5:00pm"}, {"days": "Sun", "time": "Closed"}], "id": "7770700009", "name": "USPS COLLECTION BOX - BLUE BOX", "address": {"city": "BEAUMONT", "state": "TX", "street": "5815 WALDEN RD", "postcode": "77707"}}},
{"geometry": {"type": "Point", "coordinates": [-94.1444198872, 30.0842433581]}, "type": "Feature", "properties": {"collection_times": [{"days": "Mon-Fri", "time": "3:15pm"}, {"days": "Sat-Sun", "time": "Closed"}], "id": "7770700013", "name": "USPS COLLECTION BOX - BLUE BOX", "address": {"city": "BEAUMONT", "state": "TX", "street": "3955 PHELAN BLVD", "postcode": "77707"}}},
{"geometry": {"type": "Point", "coordinates": [-94.1584148465, 30.0385451183]}, "type": "Feature", "properties": {"collection_times": [{"days": "Mon-Fri", "time": "6:00pm"}, {"days": "Sat", "time": "5:00pm"}, {"days": "Sun", "time": "Closed"}], "id": "7770700018", "name": "USPS COLLECTION BOX - PO LOBBY", "address": {"city": "BEAUMONT", "state": "TX", "street": "5815 WALDEN RD", "postcode": "77707"}}},
{"geometry": {"type": "Point", "coordinates": [-94.1584148465, 30.0385451183]}, "type": "Feature", "properties": {"collection_times": [{"days": "Mon-Fri", "time": "6:00pm"}, {"days": "Sat", "time": "5:00pm"}, {"days": "Sun", "time": "Closed"}], "id": "7770700019", "name": "USPS COLLECTION BOX - PO LOBBY", "address": {"city": "BEAUMONT", "state": "TX", "street": "5815 WALDEN RD", "postcode": "77707"}}},
{"geometry": {"type": "Point", "coordinates": [-94.1557096854, 30.0679944633]}, "type": "Feature", "properties": {"collection_times": [{"days": "Mon-Fri", "time": "3:45pm"}, {"days": "Sat-Sun", "time": "Closed"}], "id": "7770700021", "name": "USPS COLLECTION BOX - BLUE BOX", "address": {"city": "BEAUMONT", "state": "TX", "street": "5610 COLLEGE ST", "postcode": "77707"}}},
{"geometry": {"type": "Point", "coordinates": [-94.1707853242, 30.1334193497]}, "type": "Feature", "properties": {"collection_times": [{"days": "Mon-Fri", "time": "2:15pm"}, {"days": "Sat-Sun", "time": "Closed"}], "id": "7770800003", "name": "USPS COLLECTION BOX - BLUE BOX", "address": {"city": "BEAUMONT", "state": "TX", "street": "5960 HIGHWAY 105", "postcode": "77708"}}}
]}
