{"type": "FeatureCollection", "features": [
{"geometry": {"type": "Point", "coordinates": [-96.3324093792, 30.6442084892]}, "type": "Feature", "properties": {"collection_times": [{"days": "Mon-Fri", "time": "4:15pm"}, {"days": "Sat-Sun", "time": "Closed"}], "id": "7780200007", "name": "USPS COLLECTION BOX - BLUE BOX", "address": {"city": "BRYAN", "state": "TX", "street": "4343 CARTER CREEK PKWY", "postcode": "77802"}}},
{"geometry": {"type": "Point", "coordinates": [-96.3517372957, 30.6451919087]}, "type": "Feature", "properties": {"collection_times": [{"days": "Mon-Fri", "time": "4:15pm"}, {"days": "Sat-Sun", "time": "Closed"}], "id": "7780200012", "name": "USPS COLLECTION BOX - BLUE BOX", "address": {"city": "BRYAN", "state": "TX", "street": "701 E VILLA MARIA RD", "postcode": "77802"}}},
{"geometry": {"type": "Point", "coordinates": [-96.3554515522, 30.6451153014]}, "type": "Feature", "properties": {"collection_times": [{"days": "Mon-Fri", "time": "4:15pm"}, {"days": "Sat-Sun", "time": "Closed"}], "id": "7780200020", "name": "USPS COLLECTION BOX - BLUE BOX", "address": {"city": "BRYAN", "state": "TX", "street": "2800 S TEXAS AVE", "postcode": "77802"}}},
{"geometry": {"type": "Point", "coordinates": [-96.3469892639, 30.671772488]}, "type": "Feature", "properties": {"collection_times": [{"days": "Mon-Fri", "time": "5:00pm"}, {"days": "Sat", "time": "3:00pm"}, {"days": "Sun", "time": "Closed"}], "id": "7780200025", "name": "USPS COLLECTION BOX - BLUE BOX", "address": {"city": "BRYAN", "state": "TX", "street": "2121 E WM J BRYAN PKWY", "postcode": "77802"}}},
{"geometry": {"type": "Point", "coordinates": [-96.3394897212, 30.652508754]}, "type": "Feature", "properties": {"collection_times": [{"days": "Mon-Fri", "time": "4:00pm"}, {"days": "Sat-Sun", "time": "Closed"}], "id": "7780200036", "name": "USPS COLLECTION BOX - BLUE BOX", "address": {"city": "BRYAN", "state": "TX", "street": "1716 BRIARCREST DR", "postcode": "77802"}}},
{"geometry": {"type": "Point", "coordinates": [-96.3469892639, 30.671772488]}, "type": "Feature", "properties": {"collection_times": [{"days": "Mon-Fri", "time": "5:00pm"}, {"days": "Sat", "time": "3:00pm"}, {"days": "Sun", "time": "Closed"}], "id": "7780200057", "name": "USPS COLLECTION BOX - PO LOBBY", "address": {"city": "BRYAN", "state": "TX", "street": "2121 E WM J BRYAN PKWY", "postcode": "77802"}}},
{"geometry": {"type": "Point", "coordinates": [-96.3469892639, 30.671772488]}, "type": "Feature", "properties": {"collection_times": [{"days": "Mon-Fri", "time": "5:00pm"}, {"days": "Sat", "time": "3:00pm"}, {"days": "Sun", "time": "Closed"}], "id": "7780200058", "name": "USPS COLLECTION BOX - APC", "address": {"city": "BRYAN", "state": "TX", "street": "2121 E WM J BRYAN PKWY", "postcode": "77802"}}},
{"geometry": {"type": "Point", "coordinates": [-96.2962212851, 30.6498480815]}, "type": "Feature", "properties": {"collection_times": [{"days": "Mon-Fri", "time": "3:30pm"}, {"days": "Sat-Sun", "time": "Closed"}], "id": "7780200062", "name": "USPS COLLECTION BOX - BLUE BOX", "address": {"city": "BRYAN", "state": "TX", "street": "3201 UNIVERSITY DR E", "postcode": "77802"}}},
{"geometry": {"type": "Point", "coordinates": [-96.3409971667, 30.671191758]}, "type": "Feature", "properties": {"collection_times": [{"days": "Mon-Fri", "time": "4:00pm"}, {"days": "Sat-Sun", "time": "Closed"}], "id": "7780200066", "name": "USPS COLLECTION BOX - BLUE BOX", "address": {"city": "BRYAN", "state": "TX", "street": "2120 W BRIARGATE DR", "postcode": "77802"}}},
{"geometry": {"type": "Point", "coordinates": [-96.3697944596, 30.6852972364]}, "type": "Feature", "properties": {"collection_times": [{"days": "Mon-Fri", "time": "4:30pm"}, {"days": "Sat-Sun", "time": "Closed"}], "id": "7780300003", "name": "USPS COLLECTION BOX - BLUE BOX", "address": {"city": "BRYAN", "state": "TX", "street": "1300 N TEXAS AVE", "postcode": "77803"}}},
{"geometry": {"type": "Point", "coordinates": [-96.3740376026, 30.6748610916]}, "type": "Feature", "properties": {"collection_times": [{"days": "Mon-Fri", "time": "4:45pm"}, {"days": "Sat", "time": "2:15pm"}, {"days": "Sun", "time": "Closed"}], "id": "7780300004", "name": "USPS COLLECTION BOX - BLUE BOX", "address": {"city": "BRYAN", "state": "TX", "street": "210 W WM J BRYAN PKWY", "postcode": "77803"}}},
{"geometry": {"type": "Point", "coordinates": [-96.3740376026, 30.6748610916]}, "type": "Feature", "properties": {"collection_times": [{"days": "Mon-Fri", "time": "4:45pm"}, {"days": "Sat", "time": "2:15pm"}, {"days": "Sun", "time": "Closed"}], "id": "7780300016", "name": "USPS COLLECTION BOX - BLUE BOX", "address": {"city": "BRYAN", "state": "TX", "street": "210 W WM J BRYAN PKWY", "postcode": "77803"}}},
{"geometry": {"type": "Point", "coordinates": [-96.3740376026, 30.6748610916]}, "type": "Feature", "properties": {"collection_times": [{"days": "Mon-Fri", "time": "4:45pm"}, {"days": "Sat", "time": "2:15pm"}, {"days": "Sun", "time": "Closed"}], "id": "7780300025", "name": "USPS COLLECTION BOX - BLUE BOX", "address": {"city": "BRYAN", "state": "TX", "street": "210 W WM J BRYAN PKWY", "postcode": "77803"}}},
{"geometry": {"type": "Point", "coordinates": [-99.3330489019, 31.4627353752]}, "type": "Feature", "properties": {"collection_times": [{"days": "Mon-Fri", "time": "4:45pm"}, {"days": "Sat-Sun", "time": "Closed"}], "id": "7780300027", "name": "USPS COLLECTION BOX - PO LOBBY", "address": {"city": "BRYAN", "state": "TX", "street": "210 W WM J BRYAN PKWY", "postcode": "77803"}}},
{"geometry": {"type": "Point", "coordinates": [-96.3856216074, 30.7166722309]}, "type": "Feature", "properties": {"collection_times": [{"days": "Mon-Fri", "time": "4:30pm"}, {"days": "Sat", "time": "2:30pm"}, {"days": "Sun", "time": "Closed"}], "id": "7780300028", "name": "USPS COLLECTION BOX - BLUE BOX", "address": {"city": "BRYAN", "state": "TX", "street": "3329 WOODVILLE RD", "postcode": "77803"}}},
{"geometry": {"type": "Point", "coordinates": [-95.9952116772, 30.48321087]}, "type": "Feature", "properties": {"collection_times": [{"days": "Mon-Fri", "time": "4:00pm"}, {"days": "Sat", "time": "10:00am"}, {"days": "Sun", "time": "Closed"}], "id": "7783000001", "name": "USPS COLLECTION BOX - BLUE BOX", "address": {"city": "ANDERSON", "state": "TX", "street": "1035 HIGHWAY 90 N", "postcode": "77830"}}},
{"geometry": {"type": "Point", "coordinates": [-95.9952116772, 30.48321087]}, "type": "Feature", "properties": {"collection_times": [{"days": "Mon-Fri", "time": "4:00pm"}, {"days": "Sat", "time": "10:00am"}, {"days": "Sun", "time": "Closed"}], "id": "7783000005", "name": "USPS COLLECTION BOX - BLUE BOX", "address": {"city": "ANDERSON", "state": "TX", "street": "1035 HIGHWAY 90 N", "postcode": "77830"}}},
{"geometry": {"type": "Point", "coordinates": [-95.9485469473, 30.7756113703]}, "type": "Feature", "properties": {"collection_times": [{"days": "Mon-Fri", "time": "3:30pm"}, {"days": "Sat", "time": "10:00am"}, {"days": "Sun", "time": "Closed"}], "id": "7783100001", "name": "USPS COLLECTION BOX - PO LOBBY", "address": {"city": "BEDIAS", "state": "TX", "street": "3681 MAIN ST", "postcode": "77831"}}},
{"geometry": {"type": "Point", "coordinates": [-95.9485469473, 30.7756113703]}, "type": "Feature", "properties": {"collection_times": [{"days": "Mon-Fri", "time": "3:30pm"}, {"days": "Sat", "time": "10:00am"}, {"days": "Sun", "time": "Closed"}], "id": "7783100002", "name": "USPS COLLECTION BOX - BLUE BOX", "address": {"city": "BEDIAS", "state": "TX", "street": "3681 MAIN ST", "postcode": "77831"}}},
{"geometry": {"type": "Point", "coordinates": [-96.3999144898, 30.1685693449]}, "type": "Feature", "properties": {"collection_times": [{"days": "Mon-Fri", "time": "4:30pm"}, {"days": "Sat-Sun", "time": "Closed"}], "id": "7783300002", "name": "USPS COLLECTION BOX - BLUE BOX", "address": {"city": "BRENHAM", "state": "TX", "street": "305 N AUSTIN PKWY", "postcode": "77833"}}},
{"geometry": {"type": "Point", "coordinates": [-96.3888683426, 30.1460580789]}, "type": "Feature", "properties": {"collection_times": [{"days": "Mon-Fri", "time": "4:00pm"}, {"days": "Sat-Sun", "time": "Closed"}], "id": "7783300003", "name": "USPS COLLECTION BOX - BLUE BOX", "address": {"city": "BRENHAM", "state": "TX", "street": "2450 BECKER DR", "postcode": "77833"}}},
{"geometry": {"type": "Point", "coordinates": [-96.396208603, 30.1437796999]}, "type": "Feature", "properties": {"collection_times": [{"days": "Mon-Fri", "time": "4:00pm"}, {"days": "Sat-Sun", "time": "Closed"}], "id": "7783300006", "name": "USPS COLLECTION BOX - BLUE BOX", "address": {"city": "BRENHAM", "state": "TX", "street": "2500 S DAY ST", "postcode": "77833"}}},
{"geometry": {"type": "Point", "coordinates": [-96.397188093, 30.1675465285]}, "type": "Feature", "properties": {"collection_times": [{"days": "Mon-Fri", "time": "4:30pm"}, {"days": "Sat-Sun", "time": "Closed"}], "id": "7783300007", "name": "USPS COLLECTION BOX - BLUE BOX", "address": {"city": "BRENHAM", "state": "TX", "street": "201 E MAIN ST", "postcode": "77833"}}},
{"geometry": {"type": "Point", "coordinates": [-96.3988241252, 30.1452229099]}, "type": "Feature", "properties": {"collection_times": [{"days": "Mon-Fri", "time": "4:00pm"}, {"days": "Sat-Sun", "time": "Closed"}], "id": "7783300011", "name": "USPS COLLECTION BOX - BLUE BOX", "address": {"city": "BRENHAM", "state": "TX", "street": "700 MEDICAL PKWY", "postcode": "77833"}}},
{"geometry": {"type": "Point", "coordinates": [-96.3968509497, 30.1696379999]}, "type": "Feature", "properties": {"collection_times": [{"days": "Mon-Fri", "time": "5:00pm"}, {"days": "Sat", "time": "3:00pm"}, {"days": "Sun", "time": "Closed"}], "id": "7783300016", "name": "USPS COLLECTION BOX - BLUE BOX", "address": {"city": "BRENHAM", "state": "TX", "street": "309 N MARKET ST", "postcode": "77833"}}},
{"geometry": {"type": "Point", "coordinates": [-96.3958022353, 30.1412831992]}, "type": "Feature", "properties": {"collection_times": [{"days": "Mon-Fri", "time": "4:00pm"}, {"days": "Sat-Sun", "time": "Closed"}], "id": "7783300022", "name": "USPS COLLECTION BOX - BLUE BOX", "address": {"city": "BRENHAM", "state": "TX", "street": "2622 HIGHWAY 36 S", "postcode": "77833"}}},
{"geometry": {"type": "Point", "coordinates": [-96.3968509497, 30.1696379999]}, "type": "Feature", "properties": {"collection_times": [{"days": "Mon-Fri", "time": "5:00pm"}, {"days": "Sat", "time": "3:00pm"}, {"days": "Sun", "time": "Closed"}], "id": "7783300028", "name": "USPS COLLECTION BOX - PO LOBBY", "address": {"city": "BRENHAM", "state": "TX", "street": "309 N MARKET ST", "postcode": "77833"}}},
{"geometry": {"type": "Point", "coordinates": [-96.3968509497, 30.1696379999]}, "type": "Feature", "properties": {"collection_times": [{"days": "Mon-Fri", "time": "5:00pm"}, {"days": "Sat", "time": "3:00pm"}, {"days": "Sun", "time": "Closed"}], "id": "7783300029", "name": "USPS COLLECTION BOX - PO LOBBY", "address": {"city": "BRENHAM", "state": "TX", "street": "309 N MARKET ST", "postcode": "77833"}}},
{"geometry": {"type": "Point", "coordinates": [-96.5897276771, 30.1750003529]}, "type": "Feature", "properties": {"collection_times": [{"days": "Mon-Fri", "time": "4:00pm"}, {"days": "Sat", "time": "11:30am"}, {"days": "Sun", "time": "Closed"}], "id": "7783500004", "name": "USPS COLLECTION BOX - BLUE BOX", "address": {"city": "BURTON", "state": "TX", "street": "500 N RAILROAD ST", "postcode": "77835"}}},
{"geometry": {"type": "Point", "coordinates": [-96.6941569749, 30.5334882593]}, "type": "Feature", "properties": {"collection_times": [{"days": "Mon-Fri", "time": "4:45pm"}, {"days": "Sat", "time": "9:00am"}, {"days": "Sun", "time": "Closed"}], "id": "7783600004", "name": "USPS COLLECTION BOX - BLUE BOX", "address": {"city": "CALDWELL", "state": "TX", "street": "201 N MAIN ST", "postcode": "77836"}}},
{"geometry": {"type": "Point", "coordinates": [-96.6601338803, 30.9980828166]}, "type": "Feature", "properties": {"collection_times": [{"days": "Mon-Fri", "time": "4:15pm"}, {"days": "Sat", "time": "10:00am"}, {"days": "Sun", "time": "Closed"}], "id": "7783700002", "name": "USPS COLLECTION BOX - BLUE BOX", "address": {"city": "CALVERT", "state": "TX", "street": "602 S CEDAR RD", "postcode": "77837"}}},
{"geometry": {"type": "Point", "coordinates": [-96.7718700968, 30.5990070392]}, "type": "Feature", "properties": {"collection_times": [{"days": "Mon-Fri", "time": "12:45pm"}, {"days": "Sat", "time": "1:00pm"}, {"days": "Sun", "time": "Closed"}], "id": "7783800001", "name": "USPS COLLECTION BOX - PO LOBBY", "address": {"city": "CHRIESMAN", "state": "TX", "street": "136 PRAIRIE ST", "postcode": "77838"}}},
{"geometry": {"type": "Point", "coordinates": [-96.3239249981, 30.6106574763]}, "type": "Feature", "properties": {"collection_times": [{"days": "Mon-Fri", "time": "4:00pm"}, {"days": "Sat-Sun", "time": "Closed"}], "id": "7784000001", "name": "USPS COLLECTION BOX - BLUE BOX", "address": {"city": "COLLEGE STATION", "state": "TX", "street": "750 AGRONOMY RD", "postcode": "77840"}}},
{"geometry": {"type": "Point", "coordinates": [-99.3330489019, 31.4627353752]}, "type": "Feature", "properties": {"collection_times": [{"days": "Mon-Fri", "time": "3:30pm"}, {"days": "Sat-Sun", "time": "Closed"}], "id": "7784000003", "name": "USPS COLLECTION BOX - BLUE BOX", "address": {"city": "COLLEGE STATION", "state": "TX", "street": "700 SCOTT AND WHITE DR", "postcode": "77840"}}},
{"geometry": {"type": "Point", "coordinates": [-96.3103689551, 30.6084643112]}, "type": "Feature", "properties": {"collection_times": [{"days": "Mon-Fri", "time": "3:00pm"}, {"days": "Sat-Sun", "time": "Closed"}], "id": "7784000010", "name": "USPS COLLECTION BOX - BLUE BOX", "address": {"city": "COLLEGE STATION", "state": "TX", "street": "2405 TEXAS AVE S", "postcode": "77840"}}},
{"geometry": {"type": "Point", "coordinates": [-96.3239249981, 30.6106574763]}, "type": "Feature", "properties": {"collection_times": [{"days": "Mon-Sat", "time": "3:45pm"}, {"days": "Sun", "time": "Closed"}], "id": "7784000028", "name": "USPS COLLECTION BOX - BLUE BOX", "address": {"city": "COLLEGE STATION", "state": "TX", "street": "104 HOUSTON ST", "postcode": "77840"}}},
{"geometry": {"type": "Point", "coordinates": [-96.3098984779, 30.6079181953]}, "type": "Feature", "properties": {"collection_times": [{"days": "Mon-Fri", "time": "3:00pm"}, {"days": "Sat-Sun", "time": "Closed"}], "id": "7784000042", "name": "USPS COLLECTION BOX - BLUE BOX", "address": {"city": "COLLEGE STATION", "state": "TX", "street": "2412 TEXAS AVE S", "postcode": "77840"}}},
{"geometry": {"type": "Point", "coordinates": [-96.3348188782, 30.6280427973]}, "type": "Feature", "properties": {"collection_times": [{"days": "Mon-Fri", "time": "3:45pm"}, {"days": "Sat-Sun", "time": "Closed"}], "id": "7784000046", "name": "USPS COLLECTION BOX - BLUE BOX", "address": {"city": "COLLEGE STATION", "state": "TX", "street": "111 UNIVERSITY DR E", "postcode": "77840"}}},
{"geometry": {"type": "Point", "coordinates": [-96.3294757628, 30.6233016422]}, "type": "Feature", "properties": {"collection_times": [{"days": "Mon-Fri", "time": "3:15pm"}, {"days": "Sat-Sun", "time": "Closed"}], "id": "7784000050", "name": "USPS COLLECTION BOX - BLUE BOX", "address": {"city": "COLLEGE STATION", "state": "TX", "street": "100 WALTON DR", "postcode": "77840"}}},
{"geometry": {"type": "Point", "coordinates": [-96.3237199009, 30.6145300707]}, "type": "Feature", "properties": {"collection_times": [{"days": "Mon-Fri", "time": "4:30pm"}, {"days": "Sat", "time": "4:00pm"}, {"days": "Sun", "time": "Closed"}], "id": "7784000053", "name": "USPS COLLECTION BOX - BLUE BOX", "address": {"city": "COLLEGE STATION", "state": "TX", "street": "2130 HARVEY MITCHELL PKWY S", "postcode": "77840"}}},
{"geometry": {"type": "Point", "coordinates": [-96.3160247622, 30.6126602208]}, "type": "Feature", "properties": {"collection_times": [{"days": "Mon-Fri", "time": "3:00pm"}, {"days": "Sat-Sun", "time": "Closed"}], "id": "7784000072", "name": "USPS COLLECTION BOX - BLUE BOX", "address": {"city": "COLLEGE STATION", "state": "TX", "street": "2006 TEXAS AVE S", "postcode": "77840"}}},
{"geometry": {"type": "Point", "coordinates": [-96.331558896, 30.6345132175]}, "type": "Feature", "properties": {"collection_times": [{"days": "Mon-Fri", "time": "3:30pm"}, {"days": "Sat-Sun", "time": "Closed"}], "id": "7784000092", "name": "USPS COLLECTION BOX - BLUE BOX", "address": {"city": "COLLEGE STATION", "state": "TX", "street": "301 ARGUELLO DR", "postcode": "77840"}}},
{"geometry": {"type": "Point", "coordinates": [-96.3001047249, 30.6189918944]}, "type": "Feature", "properties": {"collection_times": [{"days": "Mon-Fri", "time": "2:45pm"}, {"days": "Sat-Sun", "time": "Closed"}], "id": "7784000098", "name": "USPS COLLECTION BOX - BLUE BOX", "address": {"city": "COLLEGE STATION", "state": "TX", "street": "7607 EASTMARK DR", "postcode": "77840"}}},
{"geometry": {"type": "Point", "coordinates": [-96.3315101539, 30.6307437597]}, "type": "Feature", "properties": {"collection_times": [{"days": "Mon-Fri", "time": "3:15pm"}, {"days": "Sat-Sun", "time": "Closed"}], "id": "7784000099", "name": "USPS COLLECTION BOX - BLUE BOX", "address": {"city": "COLLEGE STATION", "state": "TX", "street": "404 UNIVERSITY DR E", "postcode": "77840"}}},
{"geometry": {"type": "Point", "coordinates": [-96.3165723123, 30.6375165322]}, "type": "Feature", "properties": {"collection_times": [{"days": "Mon-Fri", "time": "3:15pm"}, {"days": "Sat-Sun", "time": "Closed"}], "id": "7784000100", "name": "USPS COLLECTION BOX - BLUE BOX", "address": {"city": "COLLEGE STATION", "state": "TX", "street": "1500 UNIVERSITY DR E", "postcode": "77840"}}},
{"geometry": {"type": "Point", "coordinates": [-96.3237115417, 30.6356774009]}, "type": "Feature", "properties": {"collection_times": [{"days": "Mon-Fri", "time": "3:30pm"}, {"days": "Sat-Sun", "time": "Closed"}], "id": "7784000101", "name": "USPS COLLECTION BOX - BLUE BOX", "address": {"city": "COLLEGE STATION", "state": "TX", "street": "1021 UNIVERSITY DR E", "postcode": "77840"}}},
{"geometry": {"type": "Point", "coordinates": [-96.3452630952, 30.6181047675]}, "type": "Feature", "properties": {"collection_times": [{"days": "Mon-Sat", "time": "3:45pm"}, {"days": "Sun", "time": "Closed"}], "id": "7784000107", "name": "USPS COLLECTION BOX - BLUE BOX", "address": {"city": "COLLEGE STATION", "state": "TX", "street": "104 N HOUSTON ST", "postcode": "77840"}}},
{"geometry": {"type": "Point", "coordinates": [-96.3237199009, 30.6145300707]}, "type": "Feature", "properties": {"collection_times": [{"days": "Mon-Fri", "time": "4:30pm"}, {"days": "Sat", "time": "4:00pm"}, {"days": "Sun", "time": "Closed"}], "id": "7784000116", "name": "USPS COLLECTION BOX - BLUE BOX", "address": {"city": "COLLEGE STATION", "state": "TX", "street": "2130 HARVEY MITCHELL PKWY S", "postcode": "77840"}}},
{"geometry": {"type": "Point", "coordinates": [-96.3290821982, 30.6353838223]}, "type": "Feature", "properties": {"collection_times": [{"days": "Mon-Fri", "time": "3:30pm"}, {"days": "Sat-Sun", "time": "Closed"}], "id": "7784000120", "name": "USPS COLLECTION BOX - BLUE BOX", "address": {"city": "COLLEGE STATION", "state": "TX", "street": "410 TARROW ST", "postcode": "77840"}}},
{"geometry": {"type": "Point", "coordinates": [-96.3062135423, 30.596476365]}, "type": "Feature", "properties": {"collection_times": [{"days": "Mon-Fri", "time": "4:30pm"}, {"days": "Sat", "time": "4:00pm"}, {"days": "Sun", "time": "Closed"}], "id": "7784000122", "name": "USPS COLLECTION BOX - APC", "address": {"city": "COLLEGE STATION", "state": "TX", "street": "2130 HARVEY MITCHELL PKWY S", "postcode": "77840"}}},
{"geometry": {"type": "Point", "coordinates": [-96.3062135423, 30.596476365]}, "type": "Feature", "properties": {"collection_times": [{"days": "Mon-Fri", "time": "4:30pm"}, {"days": "Sat", "time": "4:00pm"}, {"days": "Sun", "time": "Closed"}], "id": "7784000123", "name": "USPS COLLECTION BOX - PO LOBBY", "address": {"city": "COLLEGE STATION", "state": "TX", "street": "2130 HARVEY MITCHELL PKWY S", "postcode": "77840"}}},
{"geometry": {"type": "Point", "coordinates": [-96.3452630952, 30.6181047675]}, "type": "Feature", "properties": {"collection_times": [{"days": "Mon-Fri", "time": "3:45pm"}, {"days": "Sat-Sun", "time": "Closed"}], "id": "7784000127", "name": "USPS COLLECTION BOX - PO LOBBY", "address": {"city": "COLLEGE STATION", "state": "TX", "street": "104 N HOUSTON ST", "postcode": "77840"}}},
{"geometry": {"type": "Point", "coordinates": [-96.2892518953, 30.6032426505]}, "type": "Feature", "properties": {"collection_times": [{"days": "Mon-Fri", "time": "2:45pm"}, {"days": "Sat-Sun", "time": "Closed"}], "id": "7784500007", "name": "USPS COLLECTION BOX - BLUE BOX", "address": {"city": "COLLEGE STATION", "state": "TX", "street": "1509 EMERALD PKWY", "postcode": "77845"}}},
{"geometry": {"type": "Point", "coordinates": [-96.124, 31.265003]}, "type": "Feature", "properties": {"collection_times": [{"days": "Mon-Fri", "time": "2:45pm"}, {"days": "Sat", "time": "9:30am"}, {"days": "Sun", "time": "Closed"}], "id": "7785000001", "name": "USPS COLLECTION BOX - BLUE BOX", "address": {"city": "CONCORD", "state": "TX", "street": "1117 COUNTY ROAD 3481", "postcode": "77850"}}},
{"geometry": {"type": "Point", "coordinates": [-96.124, 31.265003]}, "type": "Feature", "properties": {"collection_times": [{"days": "Mon-Fri", "time": "2:45pm"}, {"days": "Sat", "time": "9:30am"}, {"days": "Sun", "time": "Closed"}], "id": "7785000002", "name": "USPS COLLECTION BOX - PO LOBBY", "address": {"city": "CONCORD", "state": "TX", "street": "1117 COUNTY ROAD 3481", "postcode": "77850"}}},
{"geometry": {"type": "Point", "coordinates": [-96.7568387391, 30.431431539]}, "type": "Feature", "properties": {"collection_times": [{"days": "Mon-Fri", "time": "3:45pm"}, {"days": "Sat", "time": "9:45am"}, {"days": "Sun", "time": "Closed"}], "id": "7785200001", "name": "USPS COLLECTION BOX - BLUE BOX", "address": {"city": "DEANVILLE", "state": "TX", "street": "6625 FM 111", "postcode": "77852"}}},
{"geometry": {"type": "Point", "coordinates": [-96.7568387391, 30.431431539]}, "type": "Feature", "properties": {"collection_times": [{"days": "Mon-Fri", "time": "2:15pm"}, {"days": "Sat", "time": "9:45am"}, {"days": "Sun", "time": "Closed"}], "id": "7785200002", "name": "USPS COLLECTION BOX - PO LOBBY", "address": {"city": "DEANVILLE", "state": "TX", "street": "6625 FM 111", "postcode": "77852"}}},
{"geometry": {"type": "Point", "coordinates": [-96.825584295, 30.3662881372]}, "type": "Feature", "properties": {"collection_times": [{"days": "Mon-Fri", "time": "2:45pm"}, {"days": "Sat", "time": "10:30am"}, {"days": "Sun", "time": "Closed"}], "id": "7785300001", "name": "USPS COLLECTION BOX - BLUE BOX", "address": {"city": "DIMEBOX", "state": "TX", "street": "1017 STEPHEN F AUSTIN BLVD", "postcode": "77853"}}},
{"geometry": {"type": "Point", "coordinates": [-96.825584295, 30.3662881372]}, "type": "Feature", "properties": {"collection_times": [{"days": "Mon-Fri", "time": "2:45pm"}, {"days": "Sat", "time": "10:30am"}, {"days": "Sun", "time": "Closed"}], "id": "7785300002", "name": "USPS COLLECTION BOX - PO LOBBY", "address": {"city": "DIMEBOX", "state": "TX", "street": "1017 STEPHEN F AUSTIN BLVD", "postcode": "77853"}}},
{"geometry": {"type": "Point", "coordinates": [-96.1240973132, 31.1508036846]}, "type": "Feature", "properties": {"collection_times": [{"days": "Mon-Fri", "time": "2:15pm"}, {"days": "Sat", "time": "10:30am"}, {"days": "Sun", "time": "Closed"}], "id": "7785500001", "name": "USPS COLLECTION BOX - BLUE BOX", "address": {"city": "FLYNN", "state": "TX", "street": "7782 FM 39 S", "postcode": "77855"}}},
{"geometry": {"type": "Point", "coordinates": [-96.1240973132, 31.1508036846]}, "type": "Feature", "properties": {"collection_times": [{"days": "Mon-Fri", "time": "11:45am"}, {"days": "Sat", "time": "10:30am"}, {"days": "Sun", "time": "Closed"}], "id": "7785500002", "name": "USPS COLLECTION BOX - PO LOBBY", "address": {"city": "FLYNN", "state": "TX", "street": "7782 FM 39 S", "postcode": "77855"}}},
{"geometry": {"type": "Point", "coordinates": [-96.4307460763, 31.0517114891]}, "type": "Feature", "properties": {"collection_times": [{"days": "Mon-Fri", "time": "4:00pm"}, {"days": "Sat", "time": "9:00am"}, {"days": "Sun", "time": "Closed"}], "id": "7785600001", "name": "USPS COLLECTION BOX - BLUE BOX", "address": {"city": "FRANKLIN", "state": "TX", "street": "216 E DECHERD ST", "postcode": "77856"}}},
{"geometry": {"type": "Point", "coordinates": [-96.4307460763, 31.0517114891]}, "type": "Feature", "properties": {"collection_times": [{"days": "Mon-Fri", "time": "4:00pm"}, {"days": "Sat", "time": "9:00am"}, {"days": "Sun", "time": "Closed"}], "id": "7785600002", "name": "USPS COLLECTION BOX - PO LOBBY", "address": {"city": "FRANKLIN", "state": "TX", "street": "216 E DECHERD ST", "postcode": "77856"}}},
{"geometry": {"type": "Point", "coordinates": [-96.4307460763, 31.0517114891]}, "type": "Feature", "properties": {"collection_times": [{"days": "Mon-Fri", "time": "4:00pm"}, {"days": "Sat", "time": "9:00am"}, {"days": "Sun", "time": "Closed"}], "id": "7785600003", "name": "USPS COLLECTION BOX - PO LOBBY", "address": {"city": "FRANKLIN", "state": "TX", "street": "216 E DECHERD ST", "postcode": "77856"}}},
{"geometry": {"type": "Point", "coordinates": [-96.7274918769, 30.7834490871]}, "type": "Feature", "properties": {"collection_times": [{"days": "Mon-Fri", "time": "12:00pm"}, {"days": "Sat", "time": "10:00am"}, {"days": "Sun", "time": "Closed"}], "id": "7785700000", "name": "USPS COLLECTION BOX - BLUE BOX", "address": {"city": "GAUSE", "state": "TX", "street": "103 MAIN ST", "postcode": "77857"}}},
{"geometry": {"type": "Point", "coordinates": [-96.7274918769, 30.7834490871]}, "type": "Feature", "properties": {"collection_times": [{"days": "Mon-Fri", "time": "12:00pm"}, {"days": "Sat", "time": "10:00am"}, {"days": "Sun", "time": "Closed"}], "id": "7785700001", "name": "USPS COLLECTION BOX - PO LOBBY", "address": {"city": "GAUSE", "state": "TX", "street": "103 MAIN ST", "postcode": "77857"}}},
{"geometry": {"type": "Point", "coordinates": [-96.5982625397, 30.87708035]}, "type": "Feature", "properties": {"collection_times": [{"days": "Mon-Fri", "time": "4:00pm"}, {"days": "Sat", "time": "2:00pm"}, {"days": "Sun", "time": "Closed"}], "id": "7785900003", "name": "USPS COLLECTION BOX - BLUE BOX", "address": {"city": "HEARNE", "state": "TX", "street": "600 W 1ST ST", "postcode": "77859"}}},
{"geometry": {"type": "Point", "coordinates": [-96.5982625398, 30.8770803499]}, "type": "Feature", "properties": {"collection_times": [{"days": "Mon-Fri", "time": "4:00pm"}, {"days": "Sat", "time": "2:00pm"}, {"days": "Sun", "time": "Closed"}], "id": "7785900013", "name": "USPS COLLECTION BOX - PO LOBBY", "address": {"city": "HEARNE", "state": "TX", "street": "600 W 1ST ST", "postcode": "77859"}}},
{"geometry": {"type": "Point", "coordinates": [-96.5982625398, 30.8770803499]}, "type": "Feature", "properties": {"collection_times": [{"days": "Mon-Fri", "time": "4:00pm"}, {"days": "Sat", "time": "2:00pm"}, {"days": "Sun", "time": "Closed"}], "id": "7785900014", "name": "USPS COLLECTION BOX - PO LOBBY", "address": {"city": "HEARNE", "state": "TX", "street": "600 W 1ST ST", "postcode": "77859"}}},
{"geometry": {"type": "Point", "coordinates": [-96.1000259827, 30.7132442507]}, "type": "Feature", "properties": {"collection_times": [{"days": "Mon-Fri", "time": "4:00pm"}, {"days": "Sat", "time": "10:00am"}, {"days": "Sun", "time": "Closed"}], "id": "7786100001", "name": "USPS COLLECTION BOX - BLUE BOX", "address": {"city": "IOLA", "state": "TX", "street": "23329 FM 39", "postcode": "77861"}}},
{"geometry": {"type": "Point", "coordinates": [-96.1000259827, 30.7132442507]}, "type": "Feature", "properties": {"collection_times": [{"days": "Mon-Fri", "time": "4:00pm"}, {"days": "Sat", "time": "10:00am"}, {"days": "Sun", "time": "Closed"}], "id": "7786100002", "name": "USPS COLLECTION BOX - PO LOBBY", "address": {"city": "IOLA", "state": "TX", "street": "23329 FM 39", "postcode": "77861"}}},
{"geometry": {"type": "Point", "coordinates": [-96.1000259827, 30.7132442507]}, "type": "Feature", "properties": {"collection_times": [{"days": "Mon-Fri", "time": "4:00pm"}, {"days": "Sat", "time": "10:00am"}, {"days": "Sun", "time": "Closed"}], "id": "7786100003", "name": "USPS COLLECTION BOX - PO LOBBY", "address": {"city": "IOLA", "state": "TX", "street": "23329 FM 39", "postcode": "77861"}}},
{"geometry": {"type": "Point", "coordinates": [-96.2637979303, 30.7869033688]}, "type": "Feature", "properties": {"collection_times": [{"days": "Mon-Fri", "time": "12:45pm"}, {"days": "Sat", "time": "9:45am"}, {"days": "Sun", "time": "Closed"}], "id": "7786200001", "name": "USPS COLLECTION BOX - BLUE BOX", "address": {"city": "KURTEN", "state": "TX", "street": "12857 E SH HWY 21", "postcode": "77862"}}},
{"geometry": {"type": "Point", "coordinates": [-96.5632991591, 30.3863216919]}, "type": "Feature", "properties": {"collection_times": [{"days": "Mon-Fri", "time": "3:15pm"}, {"days": "Sat", "time": "10:00am"}, {"days": "Sun", "time": "Closed"}], "id": "7786300001", "name": "USPS COLLECTION BOX - BLUE BOX", "address": {"city": "LYONS", "state": "TX", "street": "14030 HWY 36 S", "postcode": "77863"}}},
{"geometry": {"type": "Point", "coordinates": [-96.5632991591, 30.3863216919]}, "type": "Feature", "properties": {"collection_times": [{"days": "Mon-Fri", "time": "3:15pm"}, {"days": "Sat", "time": "10:00am"}, {"days": "Sun", "time": "Closed"}], "id": "7786300002", "name": "USPS COLLECTION BOX - PO LOBBY", "address": {"city": "LYONS", "state": "TX", "street": "14030 HWY 36 S", "postcode": "77863"}}},
{"geometry": {"type": "Point", "coordinates": [-95.909049956, 30.9589021717]}, "type": "Feature", "properties": {"collection_times": [{"days": "Mon-Fri", "time": "4:00pm"}, {"days": "Sat", "time": "3:00pm"}, {"days": "Sun", "time": "Closed"}], "id": "7786400001", "name": "USPS COLLECTION BOX - BLUE BOX", "address": {"city": "MADISONVILLE", "state": "TX", "street": "310 N COMMERCE ST", "postcode": "77864"}}},
{"geometry": {"type": "Point", "coordinates": [-95.909049956, 30.9589021717]}, "type": "Feature", "properties": {"collection_times": [{"days": "Mon-Fri", "time": "4:00pm"}, {"days": "Sat", "time": "3:00pm"}, {"days": "Sun", "time": "Closed"}], "id": "7786400008", "name": "USPS COLLECTION BOX - PO LOBBY", "address": {"city": "MADISONVILLE", "state": "TX", "street": "310 N COMMERCE ST", "postcode": "77864"}}},
{"geometry": {"type": "Point", "coordinates": [-95.909049956, 30.9589021717]}, "type": "Feature", "properties": {"collection_times": [{"days": "Mon-Fri", "time": "4:00pm"}, {"days": "Sat", "time": "3:00pm"}, {"days": "Sun", "time": "Closed"}], "id": "7786400009", "name": "USPS COLLECTION BOX - PO LOBBY", "address": {"city": "MADISONVILLE", "state": "TX", "street": "310 N COMMERCE ST", "postcode": "77864"}}},
{"geometry": {"type": "Point", "coordinates": [-96.2154380188, 31.2345536656]}, "type": "Feature", "properties": {"collection_times": [{"days": "Mon-Fri", "time": "2:15pm"}, {"days": "Sat", "time": "11:30am"}, {"days": "Sun", "time": "Closed"}], "id": "7786500001", "name": "USPS COLLECTION BOX - BLUE BOX", "address": {"city": "MARQUEZ", "state": "TX", "street": "208 VW GOODWIN BLVD N", "postcode": "77865"}}},
{"geometry": {"type": "Point", "coordinates": [-96.2154380188, 31.2345536656]}, "type": "Feature", "properties": {"collection_times": [{"days": "Mon-Fri", "time": "2:15pm"}, {"days": "Sat", "time": "11:30am"}, {"days": "Sun", "time": "Closed"}], "id": "7786500002", "name": "USPS COLLECTION BOX - PO LOBBY", "address": {"city": "MARQUEZ", "state": "TX", "street": "208 VW GOODWIN BLVD N", "postcode": "77865"}}},
{"geometry": {"type": "Point", "coordinates": [-96.2154380188, 31.2345536656]}, "type": "Feature", "properties": {"collection_times": [{"days": "Mon-Fri", "time": "2:15pm"}, {"days": "Sat", "time": "11:30am"}, {"days": "Sun", "time": "Closed"}], "id": "7786500003", "name": "USPS COLLECTION BOX - PO LOBBY", "address": {"city": "MARQUEZ", "state": "TX", "street": "208 VW GOODWIN BLVD N", "postcode": "77865"}}},
{"geometry": {"type": "Point", "coordinates": [-96.2044277749, 30.4678339951]}, "type": "Feature", "properties": {"collection_times": [{"days": "Mon-Fri", "time": "2:45pm"}, {"days": "Sat", "time": "8:45am"}, {"days": "Sun", "time": "Closed"}], "id": "7786600001", "name": "USPS COLLECTION BOX - BLUE BOX", "address": {"city": "MILLICAN", "state": "TX", "street": "22200 FM 159", "postcode": "77866"}}},
{"geometry": {"type": "Point", "coordinates": [-96.2044277749, 30.4678339951]}, "type": "Feature", "properties": {"collection_times": [{"days": "Mon-Fri", "time": "10:45am"}, {"days": "Sat", "time": "8:45am"}, {"days": "Sun", "time": "Closed"}], "id": "7786600002", "name": "USPS COLLECTION BOX - PO LOBBY", "address": {"city": "MILLICAN", "state": "TX", "street": "22200 FM 159", "postcode": "77866"}}},
{"geometry": {"type": "Point", "coordinates": [-96.051248951, 30.3686028054]}, "type": "Feature", "properties": {"collection_times": [{"days": "Mon-Fri", "time": "4:30pm"}, {"days": "Sat", "time": "3:00pm"}, {"days": "Sun", "time": "Closed"}], "id": "7786800011", "name": "USPS COLLECTION BOX - BLUE BOX", "address": {"city": "NAVASOTA", "state": "TX", "street": "115 FARQUHAR ST", "postcode": "77868"}}},
{"geometry": {"type": "Point", "coordinates": [-96.051257641, 30.3686027594]}, "type": "Feature", "properties": {"collection_times": [{"days": "Mon-Fri", "time": "4:30pm"}, {"days": "Sat", "time": "3:00pm"}, {"days": "Sun", "time": "Closed"}], "id": "7786800014", "name": "USPS COLLECTION BOX - PO LOBBY", "address": {"city": "NAVASOTA", "state": "TX", "street": "115 FARQUHAR ST", "postcode": "77868"}}},
{"geometry": {"type": "Point", "coordinates": [-96.051257641, 30.3686027594]}, "type": "Feature", "properties": {"collection_times": [{"days": "Mon-Fri", "time": "4:30pm"}, {"days": "Sat", "time": "3:00pm"}, {"days": "Sun", "time": "Closed"}], "id": "7786800015", "name": "USPS COLLECTION BOX - PO LOBBY", "address": {"city": "NAVASOTA", "state": "TX", "street": "115 FARQUHAR ST", "postcode": "77868"}}},
{"geometry": {"type": "Point", "coordinates": [-96.4300161154, 31.0512118135]}, "type": "Feature", "properties": {"collection_times": [{"days": "Mon-Fri", "time": "12:30pm"}, {"days": "Sat", "time": "10:00am"}, {"days": "Sun", "time": "Closed"}], "id": "7787000001", "name": "USPS COLLECTION BOX - BLUE BOX", "address": {"city": "NEW BADEN", "state": "TX", "street": "199 FM 1940", "postcode": "77870"}}},
{"geometry": {"type": "Point", "coordinates": [-96.4300161154, 31.0512118135]}, "type": "Feature", "properties": {"collection_times": [{"days": "Mon-Fri", "time": "12:45pm"}, {"days": "Sat", "time": "10:00am"}, {"days": "Sun", "time": "Closed"}], "id": "7787000002", "name": "USPS COLLECTION BOX - PO LOBBY", "address": {"city": "NEW BADEN", "state": "TX", "street": "199 FM 1940", "postcode": "77870"}}},
{"geometry": {"type": "Point", "coordinates": [-96.1133390796, 31.0470232282]}, "type": "Feature", "properties": {"collection_times": [{"days": "Mon-Fri", "time": "4:15pm"}, {"days": "Sat", "time": "11:45am"}, {"days": "Sun", "time": "Closed"}], "id": "7787100002", "name": "USPS COLLECTION BOX - BLUE BOX", "address": {"city": "NORMANGEE", "state": "TX", "street": "201 HOLLIS ST", "postcode": "77871"}}},
{"geometry": {"type": "Point", "coordinates": [-96.1133390796, 31.0470232282]}, "type": "Feature", "properties": {"collection_times": [{"days": "Mon-Fri", "time": "4:15pm"}, {"days": "Sat", "time": "12:00pm"}, {"days": "Sun", "time": "Closed"}], "id": "7787100003", "name": "USPS COLLECTION BOX - PO LOBBY", "address": {"city": "NORMANGEE", "state": "TX", "street": "201 HOLLIS ST", "postcode": "77871"}}},
{"geometry": {"type": "Point", "coordinates": [-96.1133390796, 31.0470232282]}, "type": "Feature", "properties": {"collection_times": [{"days": "Mon-Fri", "time": "4:15pm"}, {"days": "Sat", "time": "12:00pm"}, {"days": "Sun", "time": "Closed"}], "id": "7787100004", "name": "USPS COLLECTION BOX - PO LOBBY", "address": {"city": "NORMANGEE", "state": "TX", "street": "201 HOLLIS ST", "postcode": "77871"}}},
{"geometry": {"type": "Point", "coordinates": [-96.212839945, 31.0746221315]}, "type": "Feature", "properties": {"collection_times": [{"days": "Mon-Fri", "time": "1:30pm"}, {"days": "Sat", "time": "11:45am"}, {"days": "Sun", "time": "Closed"}], "id": "7787100005", "name": "USPS COLLECTION BOX - BLUE BOX", "address": {"city": "NORMANGEE", "state": "TX", "street": "1 HOLSTER HWY", "postcode": "77871"}}},
{"geometry": {"type": "Point", "coordinates": [-96.0923092529, 30.888843303]}, "type": "Feature", "properties": {"collection_times": [{"days": "Mon-Fri", "time": "2:45pm"}, {"days": "Sat", "time": "10:00am"}, {"days": "Sun", "time": "Closed"}], "id": "7787200001", "name": "USPS COLLECTION BOX - BLUE BOX", "address": {"city": "NORTH ZULCH", "state": "TX", "street": "11337 5TH ST", "postcode": "77872"}}},
{"geometry": {"type": "Point", "coordinates": [-96.0923092529, 30.888843303]}, "type": "Feature", "properties": {"collection_times": [{"days": "Mon-Fri", "time": "2:45pm"}, {"days": "Sat", "time": "10:00am"}, {"days": "Sun", "time": "Closed"}], "id": "7787200002", "name": "USPS COLLECTION BOX - PO LOBBY", "address": {"city": "NORTH ZULCH", "state": "TX", "street": "11337 5TH ST", "postcode": "77872"}}},
{"geometry": {"type": "Point", "coordinates": [-95.8808378353, 30.5715101713]}, "type": "Feature", "properties": {"collection_times": [{"days": "Mon-Fri", "time": "2:15pm"}, {"days": "Sat", "time": "9:30am"}, {"days": "Sun", "time": "Closed"}], "id": "7787300001", "name": "USPS COLLECTION BOX - BLUE BOX", "address": {"city": "RICHARDS", "state": "TX", "street": "11002 FM 149", "postcode": "77873"}}},
{"geometry": {"type": "Point", "coordinates": [-95.8808378353, 30.5715101713]}, "type": "Feature", "properties": {"collection_times": [{"days": "Mon-Fri", "time": "2:15pm"}, {"days": "Sat", "time": "9:30am"}, {"days": "Sun", "time": "Closed"}], "id": "7787300002", "name": "USPS COLLECTION BOX - PO LOBBY", "address": {"city": "RICHARDS", "state": "TX", "street": "11002 FM 149", "postcode": "77873"}}},
{"geometry": {"type": "Point", "coordinates": [-95.8808378353, 30.5715101713]}, "type": "Feature", "properties": {"collection_times": [{"days": "Mon-Fri", "time": "2:15pm"}, {"days": "Sat", "time": "9:30am"}, {"days": "Sun", "time": "Closed"}], "id": "7787300003", "name": "USPS COLLECTION BOX - PO LOBBY", "address": {"city": "RICHARDS", "state": "TX", "street": "11002 FM 149", "postcode": "77873"}}},
{"geometry": {"type": "Point", "coordinates": [-95.8879984043, 30.6130006288]}, "type": "Feature", "properties": {"collection_times": [{"days": "Mon-Fri", "time": "1:45pm"}, {"days": "Sat", "time": "10:00am"}, {"days": "Sun", "time": "Closed"}], "id": "7787600001", "name": "USPS COLLECTION BOX - BLUE BOX", "address": {"city": "SHIRO", "state": "TX", "street": "19431 HIGHWAY 30", "postcode": "77876"}}},
{"geometry": {"type": "Point", "coordinates": [-95.8879984043, 30.6130006288]}, "type": "Feature", "properties": {"collection_times": [{"days": "Mon-Fri", "time": "1:45pm"}, {"days": "Sat", "time": "10:00am"}, {"days": "Sun", "time": "Closed"}], "id": "7787600002", "name": "USPS COLLECTION BOX - PO LOBBY", "address": {"city": "SHIRO", "state": "TX", "street": "19431 HIGHWAY 30", "postcode": "77876"}}},
{"geometry": {"type": "Point", "coordinates": [-96.4687257694, 30.4927612916]}, "type": "Feature", "properties": {"collection_times": [{"days": "Mon-Fri", "time": "4:30pm"}, {"days": "Sat", "time": "9:45am"}, {"days": "Sun", "time": "Closed"}], "id": "7787800001", "name": "USPS COLLECTION BOX - BLUE BOX", "address": {"city": "SNOOK", "state": "TX", "street": "9999 FM 2155", "postcode": "77878"}}},
{"geometry": {"type": "Point", "coordinates": [-96.4687257694, 30.4927612916]}, "type": "Feature", "properties": {"collection_times": [{"days": "Mon-Fri", "time": "4:30pm"}, {"days": "Sat", "time": "9:45am"}, {"days": "Sun", "time": "Closed"}], "id": "7787800002", "name": "USPS COLLECTION BOX - PO LOBBY", "address": {"city": "SNOOK", "state": "TX", "street": "9999 FM 2155", "postcode": "77878"}}},
{"geometry": {"type": "Point", "coordinates": [-96.5699687426, 30.3748030823]}, "type": "Feature", "properties": {"collection_times": [{"days": "Mon-Fri", "time": "4:30pm"}, {"days": "Sat", "time": "10:30am"}, {"days": "Sun", "time": "Closed"}], "id": "7787900001", "name": "USPS COLLECTION BOX - BLUE BOX", "address": {"city": "SOMERVILLE", "state": "TX", "street": "199 8TH ST", "postcode": "77879"}}},
{"geometry": {"type": "Point", "coordinates": [-96.5699687426, 30.3748030823]}, "type": "Feature", "properties": {"collection_times": [{"days": "Mon-Fri", "time": "4:30pm"}, {"days": "Sat", "time": "10:30am"}, {"days": "Sun", "time": "Closed"}], "id": "7787900003", "name": "USPS COLLECTION BOX - PO LOBBY", "address": {"city": "SOMERVILLE", "state": "TX", "street": "199 8TH ST", "postcode": "77879"}}},
{"geometry": {"type": "Point", "coordinates": [-96.1836673386, 30.2877422071]}, "type": "Feature", "properties": {"collection_times": [{"days": "Mon-Fri", "time": "1:30pm"}, {"days": "Sat", "time": "9:00am"}, {"days": "Sun", "time": "Closed"}], "id": "7788000001", "name": "USPS COLLECTION BOX - BLUE BOX", "address": {"city": "WASHINGTON", "state": "TX", "street": "23295 FM 1155 E", "postcode": "77880"}}},
{"geometry": {"type": "Point", "coordinates": [-96.1836673386, 30.2877422071]}, "type": "Feature", "properties": {"collection_times": [{"days": "Mon-Fri", "time": "1:30pm"}, {"days": "Sat", "time": "9:00am"}, {"days": "Sun", "time": "Closed"}], "id": "7788000002", "name": "USPS COLLECTION BOX - PO LOBBY", "address": {"city": "WASHINGTON", "state": "TX", "street": "23295 FM 1155 E", "postcode": "77880"}}},
{"geometry": {"type": "Point", "coordinates": [-96.3015902577, 30.5333383559]}, "type": "Feature", "properties": {"collection_times": [{"days": "Mon-Fri", "time": "2:30pm"}, {"days": "Sat", "time": "8:30am"}, {"days": "Sun", "time": "Closed"}], "id": "7788100001", "name": "USPS COLLECTION BOX - BLUE BOX", "address": {"city": "WELLBORN", "state": "TX", "street": "14881 FM 2154", "postcode": "77881"}}},
{"geometry": {"type": "Point", "coordinates": [-96.3015902577, 30.5333383559]}, "type": "Feature", "properties": {"collection_times": [{"days": "Mon-Fri", "time": "2:30pm"}, {"days": "Sat", "time": "8:30am"}, {"days": "Sun", "time": "Closed"}], "id": "7788100002", "name": "USPS COLLECTION BOX - PO LOBBY", "address": {"city": "WELLBORN", "state": "TX", "street": "14881 FM 2154", "postcode": "77881"}}},
{"geometry": {"type": "Point", "coordinates": [-96.3917192369, 30.899162691]}, "type": "Feature", "properties": {"collection_times": [{"days": "Mon-Fri", "time": "1:45pm"}, {"days": "Sat", "time": "9:30am"}, {"days": "Sun", "time": "Closed"}], "id": "7788200001", "name": "USPS COLLECTION BOX - BLUE BOX", "address": {"city": "WHEELOCK", "state": "TX", "street": "11546 S FM 46", "postcode": "77882"}}},
{"geometry": {"type": "Point", "coordinates": [-96.3917192369, 30.899162691]}, "type": "Feature", "properties": {"collection_times": [{"days": "Mon-Fri", "time": "12:45pm"}, {"days": "Sat", "time": "9:30am"}, {"days": "Sun", "time": "Closed"}], "id": "7788200002", "name": "USPS COLLECTION BOX - PO LOBBY", "address": {"city": "WHEELOCK", "state": "TX", "street": "11546 S FM 46", "postcode": "77882"}}}
]}
