{"type": "FeatureCollection", "features": [
{"geometry": {"type": "Point", "coordinates": [-96.9921300964, 28.8285008599]}, "type": "Feature", "properties": {"collection_times": [{"days": "Mon-Sat", "time": "2:00pm"}, {"days": "Sun", "time": "Closed"}], "id": "7790100004", "name": "USPS COLLECTION BOX - BLUE BOX", "address": {"city": "VICTORIA", "state": "TX", "street": "1302 E CRESTWOOD DR", "postcode": "77901"}}},
{"geometry": {"type": "Point", "coordinates": [-96.9883058721, 28.809553956]}, "type": "Feature", "properties": {"collection_times": [{"days": "Mon-Sat", "time": "4:00pm"}, {"days": "Sun", "time": "Closed"}], "id": "7790100008", "name": "USPS COLLECTION BOX - BLUE BOX", "address": {"city": "VICTORIA", "state": "TX", "street": "2210 N NAVARRO ST", "postcode": "77901"}}},
{"geometry": {"type": "Point", "coordinates": [-96.9823351961, 28.8141586654]}, "type": "Feature", "properties": {"collection_times": [{"days": "Mon-Fri", "time": "3:00pm"}, {"days": "Sat-Sun", "time": "Closed"}], "id": "7790100010", "name": "USPS COLLECTION BOX - BLUE BOX", "address": {"city": "VICTORIA", "state": "TX", "street": "2200 E RED RIVER ST", "postcode": "77901"}}},
{"geometry": {"type": "Point", "coordinates": [-96.9809842874, 28.8143257847]}, "type": "Feature", "properties": {"collection_times": [{"days": "Mon-Fri", "time": "3:00pm"}, {"days": "Sat-Sun", "time": "Closed"}], "id": "7790100011", "name": "USPS COLLECTION BOX - BLUE BOX", "address": {"city": "VICTORIA", "state": "TX", "street": "2302 E RED RIVER ST", "postcode": "77901"}}},
{"geometry": {"type": "Point", "coordinates": [-96.9984569535, 28.8076987075]}, "type": "Feature", "properties": {"collection_times": [{"days": "Mon-Fri", "time": "4:00pm"}, {"days": "Sat-Sun", "time": "Closed"}], "id": "7790100014", "name": "USPS COLLECTION BOX - BLUE BOX", "address": {"city": "VICTORIA", "state": "TX", "street": "600 E SAN ANTONIO ST", "postcode": "77901"}}},
{"geometry": {"type": "Point", "coordinates": [-96.9767965823, 28.8136689204]}, "type": "Feature", "properties": {"collection_times": [{"days": "Mon-Fri", "time": "3:00pm"}, {"days": "Sat-Sun", "time": "Closed"}], "id": "7790100016", "name": "USPS COLLECTION BOX - BLUE BOX", "address": {"city": "VICTORIA", "state": "TX", "street": "2710 HOSPITAL DR", "postcode": "77901"}}},
{"geometry": {"type": "Point", "coordinates": [-96.9823351961, 28.8141586654]}, "type": "Feature", "properties": {"collection_times": [{"days": "Mon-Fri", "time": "3:00pm"}, {"days": "Sat-Sun", "time": "Closed"}], "id": "7790100024", "name": "USPS COLLECTION BOX - BLUE BOX", "address": {"city": "VICTORIA", "state": "TX", "street": "2200 E RED RIVER ST", "postcode": "77901"}}},
{"geometry": {"type": "Point", "coordinates": [-96.9817962935, 28.7994740952]}, "type": "Feature", "properties": {"collection_times": [{"days": "Mon-Fri", "time": "4:00pm"}, {"days": "Sat-Sun", "time": "Closed"}], "id": "7790100025", "name": "USPS COLLECTION BOX - BLUE BOX", "address": {"city": "VICTORIA", "state": "TX", "street": "2103 LONE TREE RD", "postcode": "77901"}}},
{"geometry": {"type": "Point", "coordinates": [-96.9930752806, 28.8337224408]}, "type": "Feature", "properties": {"collection_times": [{"days": "Mon-Sat", "time": "2:00pm"}, {"days": "Sun", "time": "Closed"}], "id": "7790100030", "name": "USPS COLLECTION BOX - BLUE BOX", "address": {"city": "VICTORIA", "state": "TX", "street": "4402 N LAURENT ST", "postcode": "77901"}}},
{"geometry": {"type": "Point", "coordinates": [-97.0049000927, 28.8017996177]}, "type": "Feature", "properties": {"collection_times": [{"days": "Mon-Fri", "time": "4:30pm"}, {"days": "Sat-Sun", "time": "Closed"}], "id": "7790100032", "name": "USPS COLLECTION BOX - BLUE BOX", "address": {"city": "VICTORIA", "state": "TX", "street": "406 N MAIN ST", "postcode": "77901"}}},
{"geometry": {"type": "Point", "coordinates": [-97.0035665191, 28.805932172]}, "type": "Feature", "properties": {"collection_times": [{"days": "Mon-Fri", "time": "4:30pm"}, {"days": "Sat-Sun", "time": "Closed"}], "id": "7790100033", "name": "USPS COLLECTION BOX - BLUE BOX", "address": {"city": "VICTORIA", "state": "TX", "street": "2805 N NAVARRO ST", "postcode": "77901"}}},
{"geometry": {"type": "Point", "coordinates": [-96.9882038556, 28.8116756345]}, "type": "Feature", "properties": {"collection_times": [{"days": "Mon-Fri", "time": "4:00pm"}, {"days": "Sat-Sun", "time": "Closed"}], "id": "7790100039", "name": "USPS COLLECTION BOX - BLUE BOX", "address": {"city": "VICTORIA", "state": "TX", "street": "1910 COMMERCE ST", "postcode": "77901"}}},
{"geometry": {"type": "Point", "coordinates": [-96.9913730026, 28.8114000051]}, "type": "Feature", "properties": {"collection_times": [{"days": "Mon-Fri", "time": "4:00pm"}, {"days": "Sat-Sun", "time": "Closed"}], "id": "7790100040", "name": "USPS COLLECTION BOX - BLUE BOX", "address": {"city": "VICTORIA", "state": "TX", "street": "1908 N LAURENT ST", "postcode": "77901"}}},
{"geometry": {"type": "Point", "coordinates": [-96.9913730026, 28.8114000051]}, "type": "Feature", "properties": {"collection_times": [{"days": "Mon-Fri", "time": "4:00pm"}, {"days": "Sat-Sun", "time": "Closed"}], "id": "7790100041", "name": "USPS COLLECTION BOX - BLUE BOX", "address": {"city": "VICTORIA", "state": "TX", "street": "1908 N LAURENT ST", "postcode": "77901"}}},
{"geometry": {"type": "Point", "coordinates": [-96.9913730026, 28.8114000051]}, "type": "Feature", "properties": {"collection_times": [{"days": "Mon-Fri", "time": "4:00pm"}, {"days": "Sat-Sun", "time": "Closed"}], "id": "7790100043", "name": "USPS COLLECTION BOX - BLUE BOX", "address": {"city": "VICTORIA", "state": "TX", "street": "1908 N LAURENT ST", "postcode": "77901"}}},
{"geometry": {"type": "Point", "coordinates": [-96.9899896345, 28.8061998652]}, "type": "Feature", "properties": {"collection_times": [{"days": "Mon-Sat", "time": "4:00pm"}, {"days": "Sun", "time": "Closed"}], "id": "7790100044", "name": "USPS COLLECTION BOX - BLUE BOX", "address": {"city": "VICTORIA", "state": "TX", "street": "1401 E RIO GRANDE ST", "postcode": "77901"}}},
{"geometry": {"type": "Point", "coordinates": [-97.006114105, 28.7991557016]}, "type": "Feature", "properties": {"collection_times": [{"days": "Mon-Fri", "time": "4:30pm"}, {"days": "Sat-Sun", "time": "Closed"}], "id": "7790100052", "name": "USPS COLLECTION BOX - BLUE BOX", "address": {"city": "VICTORIA", "state": "TX", "street": "101 W CONSTITUTION", "postcode": "77901"}}},
{"geometry": {"type": "Point", "coordinates": [-96.9809842874, 28.8143257847]}, "type": "Feature", "properties": {"collection_times": [{"days": "Mon-Fri", "time": "3:00pm"}, {"days": "Sat-Sun", "time": "Closed"}], "id": "7790100054", "name": "USPS COLLECTION BOX - BLUE BOX", "address": {"city": "VICTORIA", "state": "TX", "street": "2302 E RED RIVER ST", "postcode": "77901"}}},
{"geometry": {"type": "Point", "coordinates": [-97.0070791488, 28.7968815497]}, "type": "Feature", "properties": {"collection_times": [{"days": "Mon-Sat", "time": "5:00pm"}, {"days": "Sun", "time": "Closed"}], "id": "7790100055", "name": "USPS COLLECTION BOX - BLUE BOX", "address": {"city": "VICTORIA", "state": "TX", "street": "312 S MAIN ST", "postcode": "77901"}}},
{"geometry": {"type": "Point", "coordinates": [-97.0070791488, 28.7968815497]}, "type": "Feature", "properties": {"collection_times": [{"days": "Mon-Sat", "time": "5:00pm"}, {"days": "Sun", "time": "Closed"}], "id": "7790100060", "name": "USPS COLLECTION BOX - PO LOBBY", "address": {"city": "VICTORIA", "state": "TX", "street": "312 S MAIN ST", "postcode": "77901"}}},
{"geometry": {"type": "Point", "coordinates": [-97.0035665191, 28.805932172]}, "type": "Feature", "properties": {"collection_times": [{"days": "Mon-Fri", "time": "4:30pm"}, {"days": "Sat-Sun", "time": "Closed"}], "id": "7790100062", "name": "USPS COLLECTION BOX - BLUE BOX", "address": {"city": "VICTORIA", "state": "TX", "street": "2805 N NAVARRO ST", "postcode": "77901"}}},
{"geometry": {"type": "Point", "coordinates": [-97.0070791488, 28.7968815497]}, "type": "Feature", "properties": {"collection_times": [{"days": "Mon-Sat", "time": "5:00pm"}, {"days": "Sun", "time": "Closed"}], "id": "7790100064", "name": "USPS COLLECTION BOX - PO LOBBY", "address": {"city": "VICTORIA", "state": "TX", "street": "312 S MAIN ST", "postcode": "77901"}}},
{"geometry": {"type": "Point", "coordinates": [-96.9793032723, 28.8505429343]}, "type": "Feature", "properties": {"collection_times": [{"days": "Mon-Fri", "time": "2:30pm"}, {"days": "Sat-Sun", "time": "Closed"}], "id": "7790400000", "name": "USPS COLLECTION BOX - BLUE BOX", "address": {"city": "VICTORIA", "state": "TX", "street": "3902 JOHN STOCKBAUER DR", "postcode": "77904"}}},
{"geometry": {"type": "Point", "coordinates": [-96.9497215194, 28.8217206197]}, "type": "Feature", "properties": {"collection_times": [{"days": "Mon-Fri", "time": "2:30pm"}, {"days": "Sat", "time": "3:00pm"}, {"days": "Sun", "time": "Closed"}], "id": "7790400001", "name": "USPS COLLECTION BOX - BLUE BOX", "address": {"city": "VICTORIA", "state": "TX", "street": "5002 JOHN STOCKBAUER DR", "postcode": "77904"}}},
{"geometry": {"type": "Point", "coordinates": [-96.9911080198, 28.8375351175]}, "type": "Feature", "properties": {"collection_times": [{"days": "Mon-Sat", "time": "5:00pm"}, {"days": "Sun", "time": "Closed"}], "id": "7790400007", "name": "USPS COLLECTION BOX - BLUE BOX", "address": {"city": "VICTORIA", "state": "TX", "street": "2804 SAM HOUSTON DR", "postcode": "77904"}}},
{"geometry": {"type": "Point", "coordinates": [-96.9911080198, 28.8375351175]}, "type": "Feature", "properties": {"collection_times": [{"days": "Mon-Sat", "time": "5:00pm"}, {"days": "Sun", "time": "Closed"}], "id": "7790400008", "name": "USPS COLLECTION BOX - BLUE BOX", "address": {"city": "VICTORIA", "state": "TX", "street": "2804 SAM HOUSTON DR", "postcode": "77904"}}},
{"geometry": {"type": "Point", "coordinates": [-96.9911080198, 28.8375351175]}, "type": "Feature", "properties": {"collection_times": [{"days": "Mon-Sat", "time": "5:00pm"}, {"days": "Sun", "time": "Closed"}], "id": "7790400009", "name": "USPS COLLECTION BOX - BLUE BOX", "address": {"city": "VICTORIA", "state": "TX", "street": "2804 SAM HOUSTON DR", "postcode": "77904"}}},
{"geometry": {"type": "Point", "coordinates": [-96.9911080198, 28.8375351175]}, "type": "Feature", "properties": {"collection_times": [{"days": "Mon-Sat", "time": "5:00pm"}, {"days": "Sun", "time": "Closed"}], "id": "7790400010", "name": "USPS COLLECTION BOX - BLUE BOX", "address": {"city": "VICTORIA", "state": "TX", "street": "2804 SAM HOUSTON DR", "postcode": "77904"}}},
{"geometry": {"type": "Point", "coordinates": [-96.9911080198, 28.8375351175]}, "type": "Feature", "properties": {"collection_times": [{"days": "Mon-Sat", "time": "5:00pm"}, {"days": "Sun", "time": "Closed"}], "id": "7790400012", "name": "USPS COLLECTION BOX - APC", "address": {"city": "VICTORIA", "state": "TX", "street": "2804 SAM HOUSTON DR", "postcode": "77904"}}},
{"geometry": {"type": "Point", "coordinates": [-96.9911080198, 28.8375351175]}, "type": "Feature", "properties": {"collection_times": [{"days": "Mon-Sat", "time": "5:00pm"}, {"days": "Sun", "time": "Closed"}], "id": "7790400013", "name": "USPS COLLECTION BOX - BLUE BOX", "address": {"city": "VICTORIA", "state": "TX", "street": "2804 SAM HOUSTON DR", "postcode": "77904"}}},
{"geometry": {"type": "Point", "coordinates": [-96.9911080198, 28.8375351175]}, "type": "Feature", "properties": {"collection_times": [{"days": "Mon-Sat", "time": "5:00pm"}, {"days": "Sun", "time": "Closed"}], "id": "7790400014", "name": "USPS COLLECTION BOX - BLUE BOX", "address": {"city": "VICTORIA", "state": "TX", "street": "2804 SAM HOUSTON DR", "postcode": "77904"}}},
{"geometry": {"type": "Point", "coordinates": [-97.0009194231, 28.8662302077]}, "type": "Feature", "properties": {"collection_times": [{"days": "Mon-Sat", "time": "5:00pm"}, {"days": "Sun", "time": "Closed"}], "id": "7790400015", "name": "USPS COLLECTION BOX - EXPRESS", "address": {"city": "VICTORIA", "state": "TX", "street": "2804 SAM HOUSTON DR", "postcode": "77904"}}},
{"geometry": {"type": "Point", "coordinates": [-96.9968891403, 28.8785565855]}, "type": "Feature", "properties": {"collection_times": [{"days": "Mon-Sat", "time": "2:30pm"}, {"days": "Sun", "time": "Closed"}], "id": "7790400018", "name": "USPS COLLECTION BOX - BLUE BOX", "address": {"city": "VICTORIA", "state": "TX", "street": "9002 N NAVARRO ST", "postcode": "77904"}}},
{"geometry": {"type": "Point", "coordinates": [-96.997040559, 28.8544608944]}, "type": "Feature", "properties": {"collection_times": [{"days": "Mon-Sat", "time": "2:15pm"}, {"days": "Sun", "time": "Closed"}], "id": "7790400023", "name": "USPS COLLECTION BOX - BLUE BOX", "address": {"city": "VICTORIA", "state": "TX", "street": "6324 N NAVARRO ST", "postcode": "77904"}}},
{"geometry": {"type": "Point", "coordinates": [-96.9903568409, 28.8361108349]}, "type": "Feature", "properties": {"collection_times": [{"days": "Mon-Fri", "time": "4:30pm"}, {"days": "Sat-Sun", "time": "Closed"}], "id": "7790400025", "name": "USPS COLLECTION BOX - BLUE BOX", "address": {"city": "VICTORIA", "state": "TX", "street": "1501 E MOCKINGBIRD LN", "postcode": "77904"}}},
{"geometry": {"type": "Point", "coordinates": [-96.9903568409, 28.8361108349]}, "type": "Feature", "properties": {"collection_times": [{"days": "Mon-Fri", "time": "4:30pm"}, {"days": "Sat-Sun", "time": "Closed"}], "id": "7790400026", "name": "USPS COLLECTION BOX - BLUE BOX", "address": {"city": "VICTORIA", "state": "TX", "street": "1501 E MOCKINGBIRD LN", "postcode": "77904"}}},
{"geometry": {"type": "Point", "coordinates": [-96.9984802201, 28.847813848]}, "type": "Feature", "properties": {"collection_times": [{"days": "Mon-Fri", "time": "4:30pm"}, {"days": "Sat-Sun", "time": "Closed"}], "id": "7790400027", "name": "USPS COLLECTION BOX - BLUE BOX", "address": {"city": "VICTORIA", "state": "TX", "street": "5606 N NAVARRO ST", "postcode": "77904"}}},
{"geometry": {"type": "Point", "coordinates": [-96.9911080198, 28.8375351175]}, "type": "Feature", "properties": {"collection_times": [{"days": "Mon-Sat", "time": "5:00pm"}, {"days": "Sun", "time": "Closed"}], "id": "7790400029", "name": "USPS COLLECTION BOX - PO LOBBY", "address": {"city": "VICTORIA", "state": "TX", "street": "2804 SAM HOUSTON DR", "postcode": "77904"}}},
{"geometry": {"type": "Point", "coordinates": [-96.9911080198, 28.8375351175]}, "type": "Feature", "properties": {"collection_times": [{"days": "Mon-Sat", "time": "5:00pm"}, {"days": "Sun", "time": "Closed"}], "id": "7790400030", "name": "USPS COLLECTION BOX - PO LOBBY", "address": {"city": "VICTORIA", "state": "TX", "street": "2804 SAM HOUSTON DR", "postcode": "77904"}}},
{"geometry": {"type": "Point", "coordinates": [-97.0000216156, 28.8437515669]}, "type": "Feature", "properties": {"collection_times": [{"days": "Mon-Sat", "time": "2:15pm"}, {"days": "Sun", "time": "Closed"}], "id": "7790400032", "name": "USPS COLLECTION BOX - BLUE BOX", "address": {"city": "VICTORIA", "state": "TX", "street": "5204 N NAVARRO ST", "postcode": "77904"}}},
{"geometry": {"type": "Point", "coordinates": [-96.9984802201, 28.847813848]}, "type": "Feature", "properties": {"collection_times": [{"days": "Mon-Fri", "time": "4:30pm"}, {"days": "Sat-Sun", "time": "Closed"}], "id": "7790400033", "name": "USPS COLLECTION BOX - BLUE BOX", "address": {"city": "VICTORIA", "state": "TX", "street": "5606 N NAVARRO ST", "postcode": "77904"}}},
{"geometry": {"type": "Point", "coordinates": [-97.0009194231, 28.8662302077]}, "type": "Feature", "properties": {"collection_times": [{"days": "Mon-Sat", "time": "5:00pm"}, {"days": "Sun", "time": "Closed"}], "id": "7790400036", "name": "USPS COLLECTION BOX - BLUE BOX", "address": {"city": "VICTORIA", "state": "TX", "street": "2804 SAM HOUSTON DR", "postcode": "77904"}}},
{"geometry": {"type": "Point", "coordinates": [-97.0009194231, 28.8662302077]}, "type": "Feature", "properties": {"collection_times": [{"days": "Mon-Sat", "time": "3:00pm"}, {"days": "Sun", "time": "Closed"}], "id": "7790400037", "name": "USPS COLLECTION BOX - BLUE BOX", "address": {"city": "VICTORIA", "state": "TX", "street": "8621 N NAVARRO ST", "postcode": "77904"}}},
{"geometry": {"type": "Point", "coordinates": [-97.1881270734, 28.7067190762]}, "type": "Feature", "properties": {"collection_times": [{"days": "Mon-Sat", "time": "9:30am"}, {"days": "Sun", "time": "Closed"}], "id": "7790500001", "name": "USPS COLLECTION BOX - BLUE BOX", "address": {"city": "VICTORIA", "state": "TX", "street": "100 LAKESHORE DR", "postcode": "77905"}}},
{"geometry": {"type": "Point", "coordinates": [-96.8449080655, 28.3895931161]}, "type": "Feature", "properties": {"collection_times": [{"days": "Mon-Sat", "time": "3:45pm"}, {"days": "Sun", "time": "Closed"}], "id": "7795000000", "name": "USPS COLLECTION BOX - BLUE BOX", "address": {"city": "AUSTWELL", "state": "TX", "street": "611 VANDENBERGE ST", "postcode": "77950"}}},
{"geometry": {"type": "Point", "coordinates": [-96.8449080655, 28.3895931161]}, "type": "Feature", "properties": {"collection_times": [{"days": "Mon-Fri", "time": "11:30am"}, {"days": "Sat", "time": "9:00am"}, {"days": "Sun", "time": "Closed"}], "id": "7795000001", "name": "USPS COLLECTION BOX - PO LOBBY", "address": {"city": "AUSTWELL", "state": "TX", "street": "611 VANDENBERGE ST", "postcode": "77950"}}},
{"geometry": {"type": "Point", "coordinates": [-96.7949052842, 28.6808208224]}, "type": "Feature", "properties": {"collection_times": [{"days": "Mon-Sat", "time": "4:30pm"}, {"days": "Sun", "time": "Closed"}], "id": "7795100000", "name": "USPS COLLECTION BOX - BLUE BOX", "address": {"city": "BLOOMINGTON", "state": "TX", "street": "41 E 2ND ST", "postcode": "77951"}}},
{"geometry": {"type": "Point", "coordinates": [-96.7949052842, 28.6808208224]}, "type": "Feature", "properties": {"collection_times": [{"days": "Mon-Fri", "time": "4:00pm"}, {"days": "Sat", "time": "8:00am"}, {"days": "Sun", "time": "Closed"}], "id": "7795100001", "name": "USPS COLLECTION BOX - PO LOBBY", "address": {"city": "BLOOMINGTON", "state": "TX", "street": "41 E 2ND ST", "postcode": "77951"}}},
{"geometry": {"type": "Point", "coordinates": [-97.2888349592, 29.0893527158]}, "type": "Feature", "properties": {"collection_times": [{"days": "Mon-Sat", "time": "4:15pm"}, {"days": "Sun", "time": "Closed"}], "id": "7795400002", "name": "USPS COLLECTION BOX - BLUE BOX", "address": {"city": "CUERO", "state": "TX", "street": "301 E MAIN ST", "postcode": "77954"}}},
{"geometry": {"type": "Point", "coordinates": [-97.2888349592, 29.0893527158]}, "type": "Feature", "properties": {"collection_times": [{"days": "Mon-Fri", "time": "4:15pm"}, {"days": "Sat", "time": "3:30pm"}, {"days": "Sun", "time": "Closed"}], "id": "7795400008", "name": "USPS COLLECTION BOX - PO LOBBY", "address": {"city": "CUERO", "state": "TX", "street": "301 E MAIN ST", "postcode": "77954"}}},
{"geometry": {"type": "Point", "coordinates": [-97.2824751487, 29.1101444016]}, "type": "Feature", "properties": {"collection_times": [{"days": "Mon-Sat", "time": "4:15pm"}, {"days": "Sun", "time": "Closed"}], "id": "7795400009", "name": "USPS COLLECTION BOX - BLUE BOX", "address": {"city": "CUERO", "state": "TX", "street": "301 E MAIN ST", "postcode": "77954"}}},
{"geometry": {"type": "Point", "coordinates": [-96.6537954882, 28.9663453622]}, "type": "Feature", "properties": {"collection_times": [{"days": "Mon-Sat", "time": "12:00pm"}, {"days": "Sun", "time": "Closed"}], "id": "7795700000", "name": "USPS COLLECTION BOX - BLUE BOX", "address": {"city": "EDNA", "state": "TX", "street": "602 BRODIE ST", "postcode": "77957"}}},
{"geometry": {"type": "Point", "coordinates": [-96.6857620003, 29.0112613175]}, "type": "Feature", "properties": {"collection_times": [{"days": "Mon-Sat", "time": "4:30pm"}, {"days": "Sun", "time": "Closed"}], "id": "7795700001", "name": "USPS COLLECTION BOX - BLUE BOX", "address": {"city": "EDNA", "state": "TX", "street": "603 ROSE ST", "postcode": "77957"}}},
{"geometry": {"type": "Point", "coordinates": [-96.6857620003, 29.0112613175]}, "type": "Feature", "properties": {"collection_times": [{"days": "Mon-Sat", "time": "4:30pm"}, {"days": "Sun", "time": "Closed"}], "id": "7795700002", "name": "USPS COLLECTION BOX - BLUE BOX", "address": {"city": "EDNA", "state": "TX", "street": "603 ROSE ST", "postcode": "77957"}}},
{"geometry": {"type": "Point", "coordinates": [-96.6502949067, 28.9853239297]}, "type": "Feature", "properties": {"collection_times": [{"days": "Mon-Sat", "time": "1:00pm"}, {"days": "Sun", "time": "Closed"}], "id": "7795700003", "name": "USPS COLLECTION BOX - BLUE BOX", "address": {"city": "EDNA", "state": "TX", "street": "1002 N WELLS ST", "postcode": "77957"}}},
{"geometry": {"type": "Point", "coordinates": [-96.6857620003, 29.0112613175]}, "type": "Feature", "properties": {"collection_times": [{"days": "Mon-Fri", "time": "4:00pm"}, {"days": "Sat", "time": "3:15pm"}, {"days": "Sun", "time": "Closed"}], "id": "7795700006", "name": "USPS COLLECTION BOX - PO LOBBY", "address": {"city": "EDNA", "state": "TX", "street": "603 ROSE ST", "postcode": "77957"}}},
{"geometry": {"type": "Point", "coordinates": [-96.6469178017, 28.9783857014]}, "type": "Feature", "properties": {"collection_times": [{"days": "Mon-Fri", "time": "3:00pm"}, {"days": "Sat", "time": "2:00pm"}, {"days": "Sun", "time": "Closed"}], "id": "7795700008", "name": "USPS COLLECTION BOX - BLUE BOX", "address": {"city": "EDNA", "state": "TX", "street": "130 W MAIN ST", "postcode": "77957"}}},
{"geometry": {"type": "Point", "coordinates": [-96.6514601284, 28.9907221711]}, "type": "Feature", "properties": {"collection_times": [{"days": "Mon-Sat", "time": "1:30pm"}, {"days": "Sun", "time": "Closed"}], "id": "7795700010", "name": "USPS COLLECTION BOX - BLUE BOX", "address": {"city": "EDNA", "state": "TX", "street": "1400 N WELLS ST", "postcode": "77957"}}},
{"geometry": {"type": "Point", "coordinates": [-96.6857620003, 29.0112613175]}, "type": "Feature", "properties": {"collection_times": [{"days": "Mon-Sat", "time": "8:45am"}, {"days": "Sun", "time": "Closed"}], "id": "7795700014", "name": "USPS COLLECTION BOX - BLUE BOX", "address": {"city": "EDNA", "state": "TX", "street": "1509 ROSE ST", "postcode": "77957"}}},
{"geometry": {"type": "Point", "coordinates": [-96.6857620003, 29.0112613175]}, "type": "Feature", "properties": {"collection_times": [{"days": "Mon-Fri", "time": "4:00pm"}, {"days": "Sat", "time": "3:15pm"}, {"days": "Sun", "time": "Closed"}], "id": "7795700015", "name": "USPS COLLECTION BOX - PO LOBBY", "address": {"city": "EDNA", "state": "TX", "street": "603 ROSE ST", "postcode": "77957"}}},
{"geometry": {"type": "Point", "coordinates": [-97.2366301862, 28.6968444358]}, "type": "Feature", "properties": {"collection_times": [{"days": "Mon-Sat", "time": "4:45pm"}, {"days": "Sun", "time": "Closed"}], "id": "7796000000", "name": "USPS COLLECTION BOX - BLUE BOX", "address": {"city": "FANNIN", "state": "TX", "street": "9931 US HIGHWAY 59 N", "postcode": "77960"}}},
{"geometry": {"type": "Point", "coordinates": [-97.2366301862, 28.6968444358]}, "type": "Feature", "properties": {"collection_times": [{"days": "Mon-Fri", "time": "8:45am"}, {"days": "Sat", "time": "7:30am"}, {"days": "Sun", "time": "Closed"}], "id": "7796000001", "name": "USPS COLLECTION BOX - PO LOBBY", "address": {"city": "FANNIN", "state": "TX", "street": "9931 US HIGHWAY 59 N", "postcode": "77960"}}},
{"geometry": {"type": "Point", "coordinates": [-96.3400251981, 28.8629211516]}, "type": "Feature", "properties": {"collection_times": [{"days": "Mon-Sat", "time": "3:30pm"}, {"days": "Sun", "time": "Closed"}], "id": "7796100003", "name": "USPS COLLECTION BOX - PO LOBBY", "address": {"city": "FRANCITAS", "state": "TX", "street": "66 BRYAN ST", "postcode": "77961"}}},
{"geometry": {"type": "Point", "coordinates": [-96.5104682348, 29.0400770453]}, "type": "Feature", "properties": {"collection_times": [{"days": "Mon-Fri", "time": "4:00pm"}, {"days": "Sat", "time": "11:00am"}, {"days": "Sun", "time": "Closed"}], "id": "7796200001", "name": "USPS COLLECTION BOX - PO LOBBY", "address": {"city": "GANADO", "state": "TX", "street": "101 W ROGERS ST", "postcode": "77962"}}},
{"geometry": {"type": "Point", "coordinates": [-96.5104682348, 29.0400770453]}, "type": "Feature", "properties": {"collection_times": [{"days": "Mon-Sat", "time": "4:00pm"}, {"days": "Sun", "time": "Closed"}], "id": "7796200003", "name": "USPS COLLECTION BOX - BLUE BOX", "address": {"city": "GANADO", "state": "TX", "street": "101 W ROGERS ST", "postcode": "77962"}}},
{"geometry": {"type": "Point", "coordinates": [-97.3932683292, 28.6658779327]}, "type": "Feature", "properties": {"collection_times": [{"days": "Mon-Sat", "time": "4:15pm"}, {"days": "Sun", "time": "Closed"}], "id": "7796300000", "name": "USPS COLLECTION BOX - BLUE BOX", "address": {"city": "GOLIAD", "state": "TX", "street": "151 W END ST", "postcode": "77963"}}},
{"geometry": {"type": "Point", "coordinates": [-97.3932683292, 28.6658779327]}, "type": "Feature", "properties": {"collection_times": [{"days": "Mon-Fri", "time": "4:00pm"}, {"days": "Sat", "time": "11:00am"}, {"days": "Sun", "time": "Closed"}], "id": "7796300002", "name": "USPS COLLECTION BOX - PO LOBBY", "address": {"city": "GOLIAD", "state": "TX", "street": "151 W END ST", "postcode": "77963"}}},
{"geometry": {"type": "Point", "coordinates": [-96.9420123047, 29.4433149279]}, "type": "Feature", "properties": {"collection_times": [{"days": "Mon-Sat", "time": "4:15pm"}, {"days": "Sun", "time": "Closed"}], "id": "7796400001", "name": "USPS COLLECTION BOX - BLUE BOX", "address": {"city": "HALLETTSVILLE", "state": "TX", "street": "206 S LA GRANGE ST", "postcode": "77964"}}},
{"geometry": {"type": "Point", "coordinates": [-96.9420123047, 29.4433149279]}, "type": "Feature", "properties": {"collection_times": [{"days": "Mon-Fri", "time": "4:00pm"}, {"days": "Sat", "time": "3:30pm"}, {"days": "Sun", "time": "Closed"}], "id": "7796400006", "name": "USPS COLLECTION BOX - PO LOBBY", "address": {"city": "HALLETTSVILLE", "state": "TX", "street": "206 S LA GRANGE ST", "postcode": "77964"}}},
{"geometry": {"type": "Point", "coordinates": [-96.9420123047, 29.4433149279]}, "type": "Feature", "properties": {"collection_times": [{"days": "Mon-Sat", "time": "4:15pm"}, {"days": "Sun", "time": "Closed"}], "id": "7796400009", "name": "USPS COLLECTION BOX - BLUE BOX", "address": {"city": "HALLETTSVILLE", "state": "TX", "street": "206 S LA GRANGE ST", "postcode": "77964"}}},
{"geometry": {"type": "Point", "coordinates": [-96.8049956994, 28.87997652]}, "type": "Feature", "properties": {"collection_times": [{"days": "Mon-Fri", "time": "4:45pm"}, {"days": "Sat", "time": "4:15pm"}, {"days": "Sun", "time": "Closed"}], "id": "7796800000", "name": "USPS COLLECTION BOX - BLUE BOX", "address": {"city": "INEZ", "state": "TX", "street": "126 CHURCH ST", "postcode": "77968"}}},
{"geometry": {"type": "Point", "coordinates": [-96.8049956994, 28.87997652]}, "type": "Feature", "properties": {"collection_times": [{"days": "Mon-Fri", "time": "2:30pm"}, {"days": "Sat", "time": "8:30am"}, {"days": "Sun", "time": "Closed"}], "id": "7796800001", "name": "USPS COLLECTION BOX - PO LOBBY", "address": {"city": "INEZ", "state": "TX", "street": "126 CHURCH ST", "postcode": "77968"}}},
{"geometry": {"type": "Point", "coordinates": [-96.6724208291, 28.7902255307]}, "type": "Feature", "properties": {"collection_times": [{"days": "Mon-Fri", "time": "4:15pm"}, {"days": "Sat", "time": "3:00pm"}, {"days": "Sun", "time": "Closed"}], "id": "7796900000", "name": "USPS COLLECTION BOX - BLUE BOX", "address": {"city": "LA SALLE", "state": "TX", "street": "1999 FM ROAD 616", "postcode": "77969"}}},
{"geometry": {"type": "Point", "coordinates": [-96.6724208291, 28.7902255307]}, "type": "Feature", "properties": {"collection_times": [{"days": "Mon-Sat", "time": "8:45am"}, {"days": "Sun", "time": "Closed"}], "id": "7796900001", "name": "USPS COLLECTION BOX - PO LOBBY", "address": {"city": "LA SALLE", "state": "TX", "street": "1999 FM ROAD 616", "postcode": "77969"}}},
{"geometry": {"type": "Point", "coordinates": [-96.4641195384, 28.8441130647]}, "type": "Feature", "properties": {"collection_times": [{"days": "Mon-Sat", "time": "3:45pm"}, {"days": "Sun", "time": "Closed"}], "id": "7797000000", "name": "USPS COLLECTION BOX - BLUE BOX", "address": {"city": "LA WARD", "state": "TX", "street": "13059 STATE HIGHWAY 172", "postcode": "77970"}}},
{"geometry": {"type": "Point", "coordinates": [-96.4641195384, 28.8441130647]}, "type": "Feature", "properties": {"collection_times": [{"days": "Mon-Fri", "time": "12:00pm"}, {"days": "Sat-Sun", "time": "Closed"}], "id": "7797000001", "name": "USPS COLLECTION BOX - PO LOBBY", "address": {"city": "LA WARD", "state": "TX", "street": "13059 STATE HIGHWAY 172", "postcode": "77970"}}},
{"geometry": {"type": "Point", "coordinates": [-96.5424375747, 28.8398198952]}, "type": "Feature", "properties": {"collection_times": [{"days": "Mon-Sat", "time": "4:00pm"}, {"days": "Sun", "time": "Closed"}], "id": "7797100000", "name": "USPS COLLECTION BOX - BLUE BOX", "address": {"city": "LOLITA", "state": "TX", "street": "8966 FM 1593", "postcode": "77971"}}},
{"geometry": {"type": "Point", "coordinates": [-96.5424375747, 28.8398198952]}, "type": "Feature", "properties": {"collection_times": [{"days": "Mon-Fri", "time": "1:15pm"}, {"days": "Sat-Sun", "time": "Closed"}], "id": "7797100001", "name": "USPS COLLECTION BOX - PO LOBBY", "address": {"city": "LOLITA", "state": "TX", "street": "8966 FM 1593", "postcode": "77971"}}},
{"geometry": {"type": "Point", "coordinates": [-97.0141153622, 28.5540541212]}, "type": "Feature", "properties": {"collection_times": [{"days": "Mon-Sat", "time": "4:30pm"}, {"days": "Sun", "time": "Closed"}], "id": "7797300000", "name": "USPS COLLECTION BOX - BLUE BOX", "address": {"city": "MCFADDIN", "state": "TX", "street": "2207 FM 445", "postcode": "77973"}}},
{"geometry": {"type": "Point", "coordinates": [-97.0141153622, 28.5540541212]}, "type": "Feature", "properties": {"collection_times": [{"days": "Mon-Fri", "time": "3:30pm"}, {"days": "Sat-Sun", "time": "Closed"}], "id": "7797300001", "name": "USPS COLLECTION BOX - PO LOBBY", "address": {"city": "MCFADDIN", "state": "TX", "street": "2207 FM 445", "postcode": "77973"}}},
{"geometry": {"type": "Point", "coordinates": [-97.3134983668, 28.9287878364]}, "type": "Feature", "properties": {"collection_times": [{"days": "Mon-Sat", "time": "11:00am"}, {"days": "Sun", "time": "Closed"}], "id": "7797400000", "name": "USPS COLLECTION BOX - PO LOBBY", "address": {"city": "MEYERSVILLE", "state": "TX", "street": "2233 MEYERSVILLE RD", "postcode": "77974"}}},
{"geometry": {"type": "Point", "coordinates": [-97.3134983668, 28.9287878364]}, "type": "Feature", "properties": {"collection_times": [{"days": "Mon-Sat", "time": "10:30am"}, {"days": "Sun", "time": "Closed"}], "id": "7797400001", "name": "USPS COLLECTION BOX - BLUE BOX", "address": {"city": "MEYERSVILLE", "state": "TX", "street": "2233 MEYERSVILLE RD", "postcode": "77974"}}},
{"geometry": {"type": "Point", "coordinates": [-97.145815114, 29.5759886045]}, "type": "Feature", "properties": {"collection_times": [{"days": "Mon-Sat", "time": "3:45pm"}, {"days": "Sun", "time": "Closed"}], "id": "7797500000", "name": "USPS COLLECTION BOX - BLUE BOX", "address": {"city": "MOULTON", "state": "TX", "street": "206 S MAIN ST", "postcode": "77975"}}},
{"geometry": {"type": "Point", "coordinates": [-97.0964569576, 28.9221170034]}, "type": "Feature", "properties": {"collection_times": [{"days": "Mon-Fri", "time": "11:30am"}, {"days": "Sat", "time": "9:30am"}, {"days": "Sun", "time": "Closed"}], "id": "7797600001", "name": "USPS COLLECTION BOX - PO LOBBY", "address": {"city": "NURSERY", "state": "TX", "street": "12685 NURSERY DR", "postcode": "77976"}}},
{"geometry": {"type": "Point", "coordinates": [-97.0964569576, 28.9221170034]}, "type": "Feature", "properties": {"collection_times": [{"days": "Mon-Sat", "time": "4:15pm"}, {"days": "Sun", "time": "Closed"}], "id": "7797600004", "name": "USPS COLLECTION BOX - BLUE BOX", "address": {"city": "NURSERY", "state": "TX", "street": "12685 NURSERY DR", "postcode": "77976"}}},
{"geometry": {"type": "Point", "coordinates": [-96.8272821331, 28.6917281889]}, "type": "Feature", "properties": {"collection_times": [{"days": "Mon-Fri", "time": "4:30pm"}, {"days": "Sat", "time": "4:00pm"}, {"days": "Sun", "time": "Closed"}], "id": "7797700000", "name": "USPS COLLECTION BOX - BLUE BOX", "address": {"city": "PLACEDO", "state": "TX", "street": "5037 FM 616", "postcode": "77977"}}},
{"geometry": {"type": "Point", "coordinates": [-96.8272821331, 28.6917281889]}, "type": "Feature", "properties": {"collection_times": [{"days": "Mon-Fri", "time": "11:30am"}, {"days": "Sat-Sun", "time": "Closed"}], "id": "7797700002", "name": "USPS COLLECTION BOX - PO LOBBY", "address": {"city": "PLACEDO", "state": "TX", "street": "5037 FM 616", "postcode": "77977"}}},
{"geometry": {"type": "Point", "coordinates": [-96.5583190055, 28.678563195]}, "type": "Feature", "properties": {"collection_times": [{"days": "Mon-Sat", "time": "4:00pm"}, {"days": "Sun", "time": "Closed"}], "id": "7797800001", "name": "USPS COLLECTION BOX - BLUE BOX", "address": {"city": "POINT COMFORT", "state": "TX", "street": "3 LAMAR ST", "postcode": "77978"}}},
{"geometry": {"type": "Point", "coordinates": [-96.5583190055, 28.678563195]}, "type": "Feature", "properties": {"collection_times": [{"days": "Mon-Fri", "time": "3:45pm"}, {"days": "Sat-Sun", "time": "Closed"}], "id": "7797800003", "name": "USPS COLLECTION BOX - PO LOBBY", "address": {"city": "POINT COMFORT", "state": "TX", "street": "3 LAMAR ST", "postcode": "77978"}}},
{"geometry": {"type": "Point", "coordinates": [-96.6305984957, 28.6197632958]}, "type": "Feature", "properties": {"collection_times": [{"days": "Mon-Fri", "time": "3:00pm"}, {"days": "Sat", "time": "11:00am"}, {"days": "Sun", "time": "Closed"}], "id": "7797900004", "name": "USPS COLLECTION BOX - BLUE BOX", "address": {"city": "PORT LAVACA", "state": "TX", "street": "717 N VIRGINIA ST", "postcode": "77979"}}},
{"geometry": {"type": "Point", "coordinates": [-96.6260962269, 28.6133597742]}, "type": "Feature", "properties": {"collection_times": [{"days": "Mon-Fri", "time": "3:00pm"}, {"days": "Sat", "time": "11:00am"}, {"days": "Sun", "time": "Closed"}], "id": "7797900010", "name": "USPS COLLECTION BOX - BLUE BOX", "address": {"city": "PORT LAVACA", "state": "TX", "street": "211 S ANN ST", "postcode": "77979"}}},
{"geometry": {"type": "Point", "coordinates": [-96.6347981597, 28.6245325373]}, "type": "Feature", "properties": {"collection_times": [{"days": "Mon-Fri", "time": "3:00pm"}, {"days": "Sat", "time": "11:00am"}, {"days": "Sun", "time": "Closed"}], "id": "7797900012", "name": "USPS COLLECTION BOX - BLUE BOX", "address": {"city": "PORT LAVACA", "state": "TX", "street": "1401 N VIRGINIA ST", "postcode": "77979"}}},
{"geometry": {"type": "Point", "coordinates": [-96.6418446937, 28.6173976488]}, "type": "Feature", "properties": {"collection_times": [{"days": "Mon-Fri", "time": "4:30pm"}, {"days": "Sat", "time": "3:30pm"}, {"days": "Sun", "time": "Closed"}], "id": "7797900019", "name": "USPS COLLECTION BOX - PO LOBBY", "address": {"city": "PORT LAVACA", "state": "TX", "street": "1201 HALF LEAGUE RD", "postcode": "77979"}}},
{"geometry": {"type": "Point", "coordinates": [-96.6418446937, 28.6173976488]}, "type": "Feature", "properties": {"collection_times": [{"days": "Mon-Sat", "time": "4:30pm"}, {"days": "Sun", "time": "Closed"}], "id": "7797900020", "name": "USPS COLLECTION BOX - BLUE BOX", "address": {"city": "PORT LAVACA", "state": "TX", "street": "1201 HALF LEAGUE RD", "postcode": "77979"}}},
{"geometry": {"type": "Point", "coordinates": [-96.6248095957, 28.6119541405]}, "type": "Feature", "properties": {"collection_times": [{"days": "Mon-Fri", "time": "3:00pm"}, {"days": "Sat", "time": "11:00am"}, {"days": "Sun", "time": "Closed"}], "id": "7797900022", "name": "USPS COLLECTION BOX - BLUE BOX", "address": {"city": "PORT LAVACA", "state": "TX", "street": "201 W AUSTIN ST", "postcode": "77979"}}},
{"geometry": {"type": "Point", "coordinates": [-96.8211358171, 28.1668774183]}, "type": "Feature", "properties": {"collection_times": [{"days": "Mon-Sat", "time": "3:00pm"}, {"days": "Sun", "time": "Closed"}], "id": "7798200000", "name": "USPS COLLECTION BOX - BLUE BOX", "address": {"city": "PORT O CONNOR", "state": "TX", "street": "611 W ADAMS ST", "postcode": "77982"}}},
{"geometry": {"type": "Point", "coordinates": [-96.8211358171, 28.1668774183]}, "type": "Feature", "properties": {"collection_times": [{"days": "Mon-Fri", "time": "3:00pm"}, {"days": "Sat", "time": "11:00am"}, {"days": "Sun", "time": "Closed"}], "id": "7798200001", "name": "USPS COLLECTION BOX - PO LOBBY", "address": {"city": "PORT O CONNOR", "state": "TX", "street": "611 W ADAMS ST", "postcode": "77982"}}},
{"geometry": {"type": "Point", "coordinates": [-96.8211358171, 28.1668774183]}, "type": "Feature", "properties": {"collection_times": [{"days": "Mon-Fri", "time": "3:00pm"}, {"days": "Sat", "time": "11:00am"}, {"days": "Sun", "time": "Closed"}], "id": "7798200002", "name": "USPS COLLECTION BOX - PO LOBBY", "address": {"city": "PORT O CONNOR", "state": "TX", "street": "611 W ADAMS ST", "postcode": "77982"}}},
{"geometry": {"type": "Point", "coordinates": [-96.7107929102, 28.411438915]}, "type": "Feature", "properties": {"collection_times": [{"days": "Mon-Sat", "time": "3:15pm"}, {"days": "Sun", "time": "Closed"}], "id": "7798300000", "name": "USPS COLLECTION BOX - BLUE BOX", "address": {"city": "SEADRIFT", "state": "TX", "street": "518 S MAIN ST", "postcode": "77983"}}},
{"geometry": {"type": "Point", "coordinates": [-96.7107929102, 28.411438915]}, "type": "Feature", "properties": {"collection_times": [{"days": "Mon-Fri", "time": "3:15pm"}, {"days": "Sat-Sun", "time": "Closed"}], "id": "7798300002", "name": "USPS COLLECTION BOX - PO LOBBY", "address": {"city": "SEADRIFT", "state": "TX", "street": "518 S MAIN ST", "postcode": "77983"}}},
{"geometry": {"type": "Point", "coordinates": [-97.2428461206, 29.3896419404]}, "type": "Feature", "properties": {"collection_times": [{"days": "Mon-Fri", "time": "4:00pm"}, {"days": "Sat", "time": "3:00pm"}, {"days": "Sun", "time": "Closed"}], "id": "7798400001", "name": "USPS COLLECTION BOX - BLUE BOX", "address": {"city": "SHINER", "state": "TX", "street": "217 W 7TH ST", "postcode": "77984"}}},
{"geometry": {"type": "Point", "coordinates": [-97.2428461206, 29.3896419404]}, "type": "Feature", "properties": {"collection_times": [{"days": "Mon-Fri", "time": "3:45pm"}, {"days": "Sat", "time": "11:45am"}, {"days": "Sun", "time": "Closed"}], "id": "7798400003", "name": "USPS COLLECTION BOX - PO LOBBY", "address": {"city": "SHINER", "state": "TX", "street": "217 W 7TH ST", "postcode": "77984"}}},
{"geometry": {"type": "Point", "coordinates": [-97.2428461206, 29.3896419404]}, "type": "Feature", "properties": {"collection_times": [{"days": "Mon-Fri", "time": "4:00pm"}, {"days": "Sat", "time": "3:00pm"}, {"days": "Sun", "time": "Closed"}], "id": "7798400004", "name": "USPS COLLECTION BOX - BLUE BOX", "address": {"city": "SHINER", "state": "TX", "street": "217 W 7TH ST", "postcode": "77984"}}},
{"geometry": {"type": "Point", "coordinates": [-97.072974575, 29.344860392]}, "type": "Feature", "properties": {"collection_times": [{"days": "Mon-Sat", "time": "4:00pm"}, {"days": "Sun", "time": "Closed"}], "id": "7798700000", "name": "USPS COLLECTION BOX - BLUE BOX", "address": {"city": "SWEET HOME", "state": "TX", "street": "22 COUNTY ROAD 391E", "postcode": "77987"}}},
{"geometry": {"type": "Point", "coordinates": [-97.072974575, 29.344860392]}, "type": "Feature", "properties": {"collection_times": [{"days": "Mon-Fri", "time": "11:30am"}, {"days": "Sat", "time": "8:30am"}, {"days": "Sun", "time": "Closed"}], "id": "7798700001", "name": "USPS COLLECTION BOX - PO LOBBY", "address": {"city": "SWEET HOME", "state": "TX", "street": "22 COUNTY ROAD 391E", "postcode": "77987"}}},
{"geometry": {"type": "Point", "coordinates": [-96.8898094607, 28.8476834974]}, "type": "Feature", "properties": {"collection_times": [{"days": "Mon-Fri", "time": "5:00pm"}, {"days": "Sat", "time": "4:30pm"}, {"days": "Sun", "time": "Closed"}], "id": "7798800000", "name": "USPS COLLECTION BOX - BLUE BOX", "address": {"city": "TELFERNER", "state": "TX", "street": "319 FM 1686", "postcode": "77988"}}},
{"geometry": {"type": "Point", "coordinates": [-96.8898094607, 28.8476834974]}, "type": "Feature", "properties": {"collection_times": [{"days": "Mon-Fri", "time": "1:30pm"}, {"days": "Sat", "time": "7:00am"}, {"days": "Sun", "time": "Closed"}], "id": "7798800002", "name": "USPS COLLECTION BOX - PO LOBBY", "address": {"city": "TELFERNER", "state": "TX", "street": "319 FM 1686", "postcode": "77988"}}},
{"geometry": {"type": "Point", "coordinates": [-97.1552703532, 28.9971713925]}, "type": "Feature", "properties": {"collection_times": [{"days": "Mon-Sat", "time": "10:00am"}, {"days": "Sun", "time": "Closed"}], "id": "7798900000", "name": "USPS COLLECTION BOX - PO LOBBY", "address": {"city": "THOMASTON", "state": "TX", "street": "264 FORDTRAN RD", "postcode": "77989"}}},
{"geometry": {"type": "Point", "coordinates": [-97.1552703532, 28.9971713925]}, "type": "Feature", "properties": {"collection_times": [{"days": "Mon-Sat", "time": "4:45pm"}, {"days": "Sun", "time": "Closed"}], "id": "7798900001", "name": "USPS COLLECTION BOX - BLUE BOX", "address": {"city": "THOMASTON", "state": "TX", "street": "264 FORDTRAN RD", "postcode": "77989"}}},
{"geometry": {"type": "Point", "coordinates": [-96.887941645, 28.455882941]}, "type": "Feature", "properties": {"collection_times": [{"days": "Mon-Sat", "time": "4:00pm"}, {"days": "Sun", "time": "Closed"}], "id": "7799000001", "name": "USPS COLLECTION BOX - BLUE BOX", "address": {"city": "TIVOLI", "state": "TX", "street": "211 W SCOTT ST", "postcode": "77990"}}},
{"geometry": {"type": "Point", "coordinates": [-96.887941645, 28.455882941]}, "type": "Feature", "properties": {"collection_times": [{"days": "Mon-Fri", "time": "11:30am"}, {"days": "Sat-Sun", "time": "Closed"}], "id": "7799000002", "name": "USPS COLLECTION BOX - PO LOBBY", "address": {"city": "TIVOLI", "state": "TX", "street": "211 W SCOTT ST", "postcode": "77990"}}},
{"geometry": {"type": "Point", "coordinates": [-96.6182590836, 28.8224489348]}, "type": "Feature", "properties": {"collection_times": [{"days": "Mon-Sat", "time": "4:00pm"}, {"days": "Sun", "time": "Closed"}], "id": "7799100000", "name": "USPS COLLECTION BOX - BLUE BOX", "address": {"city": "VANDERBILT", "state": "TX", "street": "5825 FM 616", "postcode": "77991"}}},
{"geometry": {"type": "Point", "coordinates": [-96.6182590836, 28.8224489348]}, "type": "Feature", "properties": {"collection_times": [{"days": "Mon-Fri", "time": "12:00pm"}, {"days": "Sat-Sun", "time": "Closed"}], "id": "7799100001", "name": "USPS COLLECTION BOX - PO LOBBY", "address": {"city": "VANDERBILT", "state": "TX", "street": "5825 FM 616", "postcode": "77991"}}},
{"geometry": {"type": "Point", "coordinates": [-97.4457953141, 28.8471720148]}, "type": "Feature", "properties": {"collection_times": [{"days": "Mon-Sat", "time": "4:00pm"}, {"days": "Sun", "time": "Closed"}], "id": "7799300000", "name": "USPS COLLECTION BOX - BLUE BOX", "address": {"city": "WEESATCHE", "state": "TX", "street": "195 W FM 884", "postcode": "77993"}}},
{"geometry": {"type": "Point", "coordinates": [-97.4457953141, 28.8471720148]}, "type": "Feature", "properties": {"collection_times": [{"days": "Mon-Fri", "time": "10:00am"}, {"days": "Sat", "time": "7:45am"}, {"days": "Sun", "time": "Closed"}], "id": "7799300001", "name": "USPS COLLECTION BOX - PO LOBBY", "address": {"city": "WEESATCHE", "state": "TX", "street": "195 W FM 884", "postcode": "77993"}}},
{"geometry": {"type": "Point", "coordinates": [-97.503979302, 29.2075896529]}, "type": "Feature", "properties": {"collection_times": [{"days": "Mon-Fri", "time": "4:00pm"}, {"days": "Sat", "time": "2:45pm"}, {"days": "Sun", "time": "Closed"}], "id": "7799400000", "name": "USPS COLLECTION BOX - BLUE BOX", "address": {"city": "WESTHOFF", "state": "TX", "street": "16 HOUSTON AVE", "postcode": "77994"}}},
{"geometry": {"type": "Point", "coordinates": [-97.503979302, 29.2075896529]}, "type": "Feature", "properties": {"collection_times": [{"days": "Mon-Fri", "time": "11:30am"}, {"days": "Sat", "time": "10:00am"}, {"days": "Sun", "time": "Closed"}], "id": "7799400001", "name": "USPS COLLECTION BOX - PO LOBBY", "address": {"city": "WESTHOFF", "state": "TX", "street": "16 HOUSTON AVE", "postcode": "77994"}}},
{"geometry": {"type": "Point", "coordinates": [-97.503979302, 29.2075896529]}, "type": "Feature", "properties": {"collection_times": [{"days": "Mon-Fri", "time": "11:30am"}, {"days": "Sat", "time": "10:00am"}, {"days": "Sun", "time": "Closed"}], "id": "7799400002", "name": "USPS COLLECTION BOX - PO LOBBY", "address": {"city": "WESTHOFF", "state": "TX", "street": "16 HOUSTON AVE", "postcode": "77994"}}},
{"geometry": {"type": "Point", "coordinates": [-97.1490420859, 29.2912088113]}, "type": "Feature", "properties": {"collection_times": [{"days": "Mon-Sat", "time": "4:30pm"}, {"days": "Sun", "time": "Closed"}], "id": "7799500002", "name": "USPS COLLECTION BOX - BLUE BOX", "address": {"city": "YOAKUM", "state": "TX", "street": "112 NELSON ST", "postcode": "77995"}}},
{"geometry": {"type": "Point", "coordinates": [-97.1490420859, 29.2912088113]}, "type": "Feature", "properties": {"collection_times": [{"days": "Mon-Fri", "time": "4:30pm"}, {"days": "Sat", "time": "3:00pm"}, {"days": "Sun", "time": "Closed"}], "id": "7799500003", "name": "USPS COLLECTION BOX - PO LOBBY", "address": {"city": "YOAKUM", "state": "TX", "street": "112 NELSON ST", "postcode": "77995"}}},
{"geometry": {"type": "Point", "coordinates": [-97.1490420859, 29.2912088113]}, "type": "Feature", "properties": {"collection_times": [{"days": "Mon-Sat", "time": "4:30pm"}, {"days": "Sun", "time": "Closed"}], "id": "7799500004", "name": "USPS COLLECTION BOX - BLUE BOX", "address": {"city": "YOAKUM", "state": "TX", "street": "112 NELSON ST", "postcode": "77995"}}},
{"geometry": {"type": "Point", "coordinates": [-97.1518184438, 29.2897653451]}, "type": "Feature", "properties": {"collection_times": [{"days": "Mon-Sat", "time": "3:00pm"}, {"days": "Sun", "time": "Closed"}], "id": "7799500009", "name": "USPS COLLECTION BOX - BLUE BOX", "address": {"city": "YOAKUM", "state": "TX", "street": "301 W GRAND AVE", "postcode": "77995"}}},
{"geometry": {"type": "Point", "coordinates": [-97.1528465202, 29.2901599336]}, "type": "Feature", "properties": {"collection_times": [{"days": "Mon-Sat", "time": "3:00pm"}, {"days": "Sun", "time": "Closed"}], "id": "7799500010", "name": "USPS COLLECTION BOX - BLUE BOX", "address": {"city": "YOAKUM", "state": "TX", "street": "400 W GRAND AVE", "postcode": "77995"}}},
{"geometry": {"type": "Point", "coordinates": [-97.1490420859, 29.2912088113]}, "type": "Feature", "properties": {"collection_times": [{"days": "Mon-Fri", "time": "4:30pm"}, {"days": "Sat", "time": "3:00pm"}, {"days": "Sun", "time": "Closed"}], "id": "7799500015", "name": "USPS COLLECTION BOX - PO LOBBY", "address": {"city": "YOAKUM", "state": "TX", "street": "112 NELSON ST", "postcode": "77995"}}},
{"geometry": {"type": "Point", "coordinates": [-97.1490420859, 29.2912088113]}, "type": "Feature", "properties": {"collection_times": [{"days": "Mon-Fri", "time": "4:30pm"}, {"days": "Sat", "time": "3:00pm"}, {"days": "Sun", "time": "Closed"}], "id": "7799500016", "name": "USPS COLLECTION BOX - PO LOBBY", "address": {"city": "YOAKUM", "state": "TX", "street": "112 NELSON ST", "postcode": "77995"}}}
]}
