{"type": "FeatureCollection", "features": [
{"geometry": {"type": "Point", "coordinates": [-98.7061855865, 29.2888753662]}, "type": "Feature", "properties": {"collection_times": [{"days": "Mon-Fri", "time": "4:30pm"}, {"days": "Sat", "time": "10:00am"}, {"days": "Sun", "time": "Closed"}], "id": "7800200001", "name": "USPS COLLECTION BOX - BLUE BOX", "address": {"city": "ATASCOSA", "state": "TX", "street": "10850 PEARSALL RD", "postcode": "78002"}}},
{"geometry": {"type": "Point", "coordinates": [-98.7061855865, 29.2888753662]}, "type": "Feature", "properties": {"collection_times": [{"days": "Mon-Fri", "time": "4:30pm"}, {"days": "Sat", "time": "10:00am"}, {"days": "Sun", "time": "Closed"}], "id": "7800200003", "name": "USPS COLLECTION BOX - PO LOBBY", "address": {"city": "ATASCOSA", "state": "TX", "street": "10850 PEARSALL RD", "postcode": "78002"}}},
{"geometry": {"type": "Point", "coordinates": [-99.0694410261, 29.7233411652]}, "type": "Feature", "properties": {"collection_times": [{"days": "Mon-Fri", "time": "5:00pm"}, {"days": "Sat", "time": "9:30am"}, {"days": "Sun", "time": "Closed"}], "id": "7800300005", "name": "USPS COLLECTION BOX - PO LOBBY", "address": {"city": "BANDERA", "state": "TX", "street": "130 HIGHWAY 173", "postcode": "78003"}}},
{"geometry": {"type": "Point", "coordinates": [-99.0694410261, 29.7233411652]}, "type": "Feature", "properties": {"collection_times": [{"days": "Mon-Fri", "time": "5:00pm"}, {"days": "Sat", "time": "9:30am"}, {"days": "Sun", "time": "Closed"}], "id": "7800300006", "name": "USPS COLLECTION BOX - PO LOBBY", "address": {"city": "BANDERA", "state": "TX", "street": "130 HIGHWAY 173", "postcode": "78003"}}},
{"geometry": {"type": "Point", "coordinates": [-99.0694410261, 29.7233411652]}, "type": "Feature", "properties": {"collection_times": [{"days": "Mon-Fri", "time": "4:30pm"}, {"days": "Sat", "time": "9:30am"}, {"days": "Sun", "time": "Closed"}], "id": "7800300007", "name": "USPS COLLECTION BOX - BLUE BOX", "address": {"city": "BANDERA", "state": "TX", "street": "130 HIGHWAY 173", "postcode": "78003"}}},
{"geometry": {"type": "Point", "coordinates": [-99.0694410261, 29.7233411652]}, "type": "Feature", "properties": {"collection_times": [{"days": "Mon-Fri", "time": "4:30pm"}, {"days": "Sat", "time": "9:30am"}, {"days": "Sun", "time": "Closed"}], "id": "7800300008", "name": "USPS COLLECTION BOX - BLUE BOX", "address": {"city": "BANDERA", "state": "TX", "street": "130 HIGHWAY 173", "postcode": "78003"}}},
{"geometry": {"type": "Point", "coordinates": [-98.8664937758, 29.048230564]}, "type": "Feature", "properties": {"collection_times": [{"days": "Mon-Fri", "time": "12:45pm"}, {"days": "Sat", "time": "10:00am"}, {"days": "Sun", "time": "Closed"}], "id": "7800500001", "name": "USPS COLLECTION BOX - BLUE BOX", "address": {"city": "BIGFOOT", "state": "TX", "street": "13855 FM 472", "postcode": "78005"}}},
{"geometry": {"type": "Point", "coordinates": [-98.7279859896, 29.7961059412]}, "type": "Feature", "properties": {"collection_times": [{"days": "Mon-Fri", "time": "4:00pm"}, {"days": "Sat", "time": "12:00pm"}, {"days": "Sun", "time": "Closed"}], "id": "7800600001", "name": "USPS COLLECTION BOX - BLUE BOX", "address": {"city": "BOERNE", "state": "TX", "street": "607 E BLANCO RD", "postcode": "78006"}}},
{"geometry": {"type": "Point", "coordinates": [-98.7352917853, 29.7806135525]}, "type": "Feature", "properties": {"collection_times": [{"days": "Mon-Sat", "time": "3:30pm"}, {"days": "Sun", "time": "Closed"}], "id": "7800600002", "name": "USPS COLLECTION BOX - BLUE BOX", "address": {"city": "BOERNE", "state": "TX", "street": "420 W BANDERA RD", "postcode": "78006"}}},
{"geometry": {"type": "Point", "coordinates": [-98.7263873514, 29.7770300271]}, "type": "Feature", "properties": {"collection_times": [{"days": "Mon-Fri", "time": "10:15am"}, {"days": "Sat", "time": "11:30am"}, {"days": "Sun", "time": "Closed"}], "id": "7800600004", "name": "USPS COLLECTION BOX - BLUE BOX", "address": {"city": "BOERNE", "state": "TX", "street": "1300 S MAIN ST", "postcode": "78006"}}},
{"geometry": {"type": "Point", "coordinates": [-98.7320613323, 29.7938622256]}, "type": "Feature", "properties": {"collection_times": [{"days": "Mon-Fri", "time": "1:00pm"}, {"days": "Sat", "time": "1:30pm"}, {"days": "Sun", "time": "Closed"}], "id": "7800600005", "name": "USPS COLLECTION BOX - BLUE BOX", "address": {"city": "BOERNE", "state": "TX", "street": "115 W SAN ANTONIO AVE", "postcode": "78006"}}},
{"geometry": {"type": "Point", "coordinates": [-98.7383786317, 29.8049554102]}, "type": "Feature", "properties": {"collection_times": [{"days": "Mon-Sat", "time": "11:00am"}, {"days": "Sun", "time": "Closed"}], "id": "7800600006", "name": "USPS COLLECTION BOX - BLUE BOX", "address": {"city": "BOERNE", "state": "TX", "street": "1000 N MAIN ST", "postcode": "78006"}}},
{"geometry": {"type": "Point", "coordinates": [-98.7259516478, 29.7768104505]}, "type": "Feature", "properties": {"collection_times": [{"days": "Mon-Fri", "time": "12:15pm"}, {"days": "Sat", "time": "12:30pm"}, {"days": "Sun", "time": "Closed"}], "id": "7800600009", "name": "USPS COLLECTION BOX - BLUE BOX", "address": {"city": "BOERNE", "state": "TX", "street": "1381 S MAIN ST", "postcode": "78006"}}},
{"geometry": {"type": "Point", "coordinates": [-98.7279859896, 29.7961059412]}, "type": "Feature", "properties": {"collection_times": [{"days": "Mon-Fri", "time": "4:00pm"}, {"days": "Sat", "time": "12:00pm"}, {"days": "Sun", "time": "Closed"}], "id": "7800600011", "name": "USPS COLLECTION BOX - BLUE BOX", "address": {"city": "BOERNE", "state": "TX", "street": "607 E BLANCO RD", "postcode": "78006"}}},
{"geometry": {"type": "Point", "coordinates": [-98.7279859896, 29.7961059412]}, "type": "Feature", "properties": {"collection_times": [{"days": "Mon-Fri", "time": "4:00pm"}, {"days": "Sat", "time": "12:00pm"}, {"days": "Sun", "time": "Closed"}], "id": "7800600012", "name": "USPS COLLECTION BOX - BLUE BOX", "address": {"city": "BOERNE", "state": "TX", "street": "607 E BLANCO RD", "postcode": "78006"}}},
{"geometry": {"type": "Point", "coordinates": [-98.7279859896, 29.7961059412]}, "type": "Feature", "properties": {"collection_times": [{"days": "Mon-Fri", "time": "4:00pm"}, {"days": "Sat", "time": "12:00pm"}, {"days": "Sun", "time": "Closed"}], "id": "7800600013", "name": "USPS COLLECTION BOX - BLUE BOX", "address": {"city": "BOERNE", "state": "TX", "street": "607 E BLANCO RD", "postcode": "78006"}}},
{"geometry": {"type": "Point", "coordinates": [-98.7279859896, 29.7961059412]}, "type": "Feature", "properties": {"collection_times": [{"days": "Mon-Fri", "time": "4:00pm"}, {"days": "Sat", "time": "12:00pm"}, {"days": "Sun", "time": "Closed"}], "id": "7800600015", "name": "USPS COLLECTION BOX - PO LOBBY", "address": {"city": "BOERNE", "state": "TX", "street": "607 E BLANCO RD", "postcode": "78006"}}},
{"geometry": {"type": "Point", "coordinates": [-98.7279859896, 29.7961059412]}, "type": "Feature", "properties": {"collection_times": [{"days": "Mon-Fri", "time": "4:00pm"}, {"days": "Sat", "time": "12:00pm"}, {"days": "Sun", "time": "Closed"}], "id": "7800600016", "name": "USPS COLLECTION BOX - PO LOBBY", "address": {"city": "BOERNE", "state": "TX", "street": "607 E BLANCO RD", "postcode": "78006"}}},
{"geometry": {"type": "Point", "coordinates": [-98.766837777, 29.8036620566]}, "type": "Feature", "properties": {"collection_times": [{"days": "Mon-Fri", "time": "4:00pm"}, {"days": "Sat", "time": "12:00pm"}, {"days": "Sun", "time": "Closed"}], "id": "7800600018", "name": "USPS COLLECTION BOX - BLUE BOX", "address": {"city": "BOERNE", "state": "TX", "street": "607 E BLANCO RD", "postcode": "78006"}}},
{"geometry": {"type": "Point", "coordinates": [-98.7541310358, 29.8097447449]}, "type": "Feature", "properties": {"collection_times": [{"days": "Mon-Sat", "time": "2:00pm"}, {"days": "Sun", "time": "Closed"}], "id": "7800600019", "name": "USPS COLLECTION BOX - BLUE BOX", "address": {"city": "BOERNE", "state": "TX", "street": "1 DOESKIN DR", "postcode": "78006"}}},
{"geometry": {"type": "Point", "coordinates": [-98.7515735029, 29.7903200959]}, "type": "Feature", "properties": {"collection_times": [{"days": "Mon-Fri", "time": "4:00pm"}, {"days": "Sat", "time": "12:00pm"}, {"days": "Sun", "time": "Closed"}], "id": "7800600020", "name": "USPS COLLECTION BOX - BLUE BOX", "address": {"city": "BOERNE", "state": "TX", "street": "607 E BLANCO RD", "postcode": "78006"}}},
{"geometry": {"type": "Point", "coordinates": [-98.582724579, 29.821495672]}, "type": "Feature", "properties": {"collection_times": [{"days": "Mon-Sat", "time": "11:00am"}, {"days": "Sun", "time": "Closed"}], "id": "7800600021", "name": "USPS COLLECTION BOX - BLUE BOX", "address": {"city": "BOERNE", "state": "TX", "street": "808 STATE HIGHWAY 46 E", "postcode": "78006"}}},
{"geometry": {"type": "Point", "coordinates": [-98.7279859896, 29.7961059412]}, "type": "Feature", "properties": {"collection_times": [{"days": "Mon-Fri", "time": "4:00pm"}, {"days": "Sat", "time": "12:00pm"}, {"days": "Sun", "time": "Closed"}], "id": "7800600022", "name": "USPS COLLECTION BOX - APC", "address": {"city": "BOERNE", "state": "TX", "street": "607 E BLANCO RD", "postcode": "78006"}}},
{"geometry": {"type": "Point", "coordinates": [-98.357630929, 28.4534952055]}, "type": "Feature", "properties": {"collection_times": [{"days": "Mon-Fri", "time": "1:30pm"}, {"days": "Sat", "time": "10:30am"}, {"days": "Sun", "time": "Closed"}], "id": "7800700001", "name": "USPS COLLECTION BOX - BLUE BOX", "address": {"city": "CALLIHAM", "state": "TX", "street": "193 RECREATION ROAD 8", "postcode": "78007"}}},
{"geometry": {"type": "Point", "coordinates": [-98.357630929, 28.4534952055]}, "type": "Feature", "properties": {"collection_times": [{"days": "Mon-Sat", "time": "10:30am"}, {"days": "Sun", "time": "Closed"}], "id": "7800700002", "name": "USPS COLLECTION BOX - PO LOBBY", "address": {"city": "CALLIHAM", "state": "TX", "street": "193 RECREATION ROAD 8", "postcode": "78007"}}},
{"geometry": {"type": "Point", "coordinates": [-98.3019143799, 28.7434787743]}, "type": "Feature", "properties": {"collection_times": [{"days": "Mon-Sat", "time": "4:00pm"}, {"days": "Sun", "time": "Closed"}], "id": "7800800001", "name": "USPS COLLECTION BOX - BLUE BOX", "address": {"city": "CAMPBELLTON", "state": "TX", "street": "2905 COMMERCE ST", "postcode": "78008"}}},
{"geometry": {"type": "Point", "coordinates": [-98.3019143799, 28.7434787743]}, "type": "Feature", "properties": {"collection_times": [{"days": "Mon-Fri", "time": "11:30am"}, {"days": "Sat", "time": "9:15am"}, {"days": "Sun", "time": "Closed"}], "id": "7800800004", "name": "USPS COLLECTION BOX - PO LOBBY", "address": {"city": "CAMPBELLTON", "state": "TX", "street": "2905 COMMERCE ST", "postcode": "78008"}}},
{"geometry": {"type": "Point", "coordinates": [-98.8860014306, 29.3514287803]}, "type": "Feature", "properties": {"collection_times": [{"days": "Mon-Fri", "time": "4:30pm"}, {"days": "Sat", "time": "11:00am"}, {"days": "Sun", "time": "Closed"}], "id": "7800900000", "name": "USPS COLLECTION BOX - BLUE BOX", "address": {"city": "CASTROVILLE", "state": "TX", "street": "1305 HIGHWAY 90 W", "postcode": "78009"}}},
{"geometry": {"type": "Point", "coordinates": [-98.8860014306, 29.3514287803]}, "type": "Feature", "properties": {"collection_times": [{"days": "Mon-Fri", "time": "4:30pm"}, {"days": "Sat", "time": "11:00am"}, {"days": "Sun", "time": "Closed"}], "id": "7800900001", "name": "USPS COLLECTION BOX - BLUE BOX", "address": {"city": "CASTROVILLE", "state": "TX", "street": "1305 HIGHWAY 90 W", "postcode": "78009"}}},
{"geometry": {"type": "Point", "coordinates": [-98.8860014306, 29.3514287803]}, "type": "Feature", "properties": {"collection_times": [{"days": "Mon-Fri", "time": "4:30pm"}, {"days": "Sat-Sun", "time": "Closed"}], "id": "7800900005", "name": "USPS COLLECTION BOX - PO LOBBY", "address": {"city": "CASTROVILLE", "state": "TX", "street": "1305 HIGHWAY 90 W", "postcode": "78009"}}},
{"geometry": {"type": "Point", "coordinates": [-99.0372792393, 29.9448320271]}, "type": "Feature", "properties": {"collection_times": [{"days": "Mon-Fri", "time": "4:30pm"}, {"days": "Sat", "time": "9:30am"}, {"days": "Sun", "time": "Closed"}], "id": "7801000002", "name": "USPS COLLECTION BOX - BLUE BOX", "address": {"city": "CENTER POINT", "state": "TX", "street": "218 FM 480", "postcode": "78010"}}},
{"geometry": {"type": "Point", "coordinates": [-99.0372792393, 29.9448320271]}, "type": "Feature", "properties": {"collection_times": [{"days": "Mon-Fri", "time": "4:30pm"}, {"days": "Sat", "time": "9:30am"}, {"days": "Sun", "time": "Closed"}], "id": "7801000003", "name": "USPS COLLECTION BOX - BLUE BOX", "address": {"city": "CENTER POINT", "state": "TX", "street": "218 FM 480", "postcode": "78010"}}},
{"geometry": {"type": "Point", "coordinates": [-99.0372792393, 29.9448320271]}, "type": "Feature", "properties": {"collection_times": [{"days": "Mon-Fri", "time": "4:30pm"}, {"days": "Sat-Sun", "time": "Closed"}], "id": "7801000005", "name": "USPS COLLECTION BOX - PO LOBBY", "address": {"city": "CENTER POINT", "state": "TX", "street": "218 FM 480", "postcode": "78010"}}},
{"geometry": {"type": "Point", "coordinates": [-99.0372792393, 29.9448320271]}, "type": "Feature", "properties": {"collection_times": [{"days": "Mon-Fri", "time": "4:30pm"}, {"days": "Sat-Sun", "time": "Closed"}], "id": "7801000007", "name": "USPS COLLECTION BOX - PO LOBBY", "address": {"city": "CENTER POINT", "state": "TX", "street": "218 FM 480", "postcode": "78010"}}},
{"geometry": {"type": "Point", "coordinates": [-99.104654305, 29.893903357]}, "type": "Feature", "properties": {"collection_times": [{"days": "Mon-Sat", "time": "9:00am"}, {"days": "Sun", "time": "Closed"}], "id": "7801000008", "name": "USPS COLLECTION BOX - BLUE BOX", "address": {"city": "CENTER POINT", "state": "TX", "street": "285 E CAMP VERDE", "postcode": "78010"}}},
{"geometry": {"type": "Point", "coordinates": [-98.7050667945, 28.8617401561]}, "type": "Feature", "properties": {"collection_times": [{"days": "Mon-Fri", "time": "3:30pm"}, {"days": "Sat", "time": "9:00am"}, {"days": "Sun", "time": "Closed"}], "id": "7801100001", "name": "USPS COLLECTION BOX - BLUE BOX", "address": {"city": "CHARLOTTE", "state": "TX", "street": "142 S YULE AVE", "postcode": "78011"}}},
{"geometry": {"type": "Point", "coordinates": [-98.7050667945, 28.8617401561]}, "type": "Feature", "properties": {"collection_times": [{"days": "Mon-Fri", "time": "3:45pm"}, {"days": "Sat", "time": "9:00am"}, {"days": "Sun", "time": "Closed"}], "id": "7801100002", "name": "USPS COLLECTION BOX - PO LOBBY", "address": {"city": "CHARLOTTE", "state": "TX", "street": "142 S YULE AVE", "postcode": "78011"}}},
{"geometry": {"type": "Point", "coordinates": [-98.4988783238, 28.7927801022]}, "type": "Feature", "properties": {"collection_times": [{"days": "Mon-Fri", "time": "3:30pm"}, {"days": "Sat", "time": "10:00am"}, {"days": "Sun", "time": "Closed"}], "id": "7801200001", "name": "USPS COLLECTION BOX - BLUE BOX", "address": {"city": "CHRISTINE", "state": "TX", "street": "709 W AVENUE E", "postcode": "78012"}}},
{"geometry": {"type": "Point", "coordinates": [-98.4988783238, 28.7927801022]}, "type": "Feature", "properties": {"collection_times": [{"days": "Mon-Fri", "time": "11:30am"}, {"days": "Sat", "time": "10:30am"}, {"days": "Sun", "time": "Closed"}], "id": "7801200002", "name": "USPS COLLECTION BOX - PO LOBBY", "address": {"city": "CHRISTINE", "state": "TX", "street": "709 W AVENUE E", "postcode": "78012"}}},
{"geometry": {"type": "Point", "coordinates": [-98.9068990498, 29.968183216]}, "type": "Feature", "properties": {"collection_times": [{"days": "Mon-Fri", "time": "4:30pm"}, {"days": "Sat", "time": "10:30am"}, {"days": "Sun", "time": "Closed"}], "id": "7801300003", "name": "USPS COLLECTION BOX - PO LOBBY", "address": {"city": "COMFORT", "state": "TX", "street": "726 FRONT ST", "postcode": "78013"}}},
{"geometry": {"type": "Point", "coordinates": [-98.9068990498, 29.968183216]}, "type": "Feature", "properties": {"collection_times": [{"days": "Mon-Fri", "time": "4:30pm"}, {"days": "Sat", "time": "10:30am"}, {"days": "Sun", "time": "Closed"}], "id": "7801300005", "name": "USPS COLLECTION BOX - PO LOBBY", "address": {"city": "COMFORT", "state": "TX", "street": "726 FRONT ST", "postcode": "78013"}}},
{"geometry": {"type": "Point", "coordinates": [-98.9068990498, 29.968183216]}, "type": "Feature", "properties": {"collection_times": [{"days": "Mon-Fri", "time": "4:30pm"}, {"days": "Sat", "time": "10:30am"}, {"days": "Sun", "time": "Closed"}], "id": "7801300006", "name": "USPS COLLECTION BOX - BLUE BOX", "address": {"city": "COMFORT", "state": "TX", "street": "726 FRONT ST", "postcode": "78013"}}},
{"geometry": {"type": "Point", "coordinates": [-99.2343365276, 28.4377329839]}, "type": "Feature", "properties": {"collection_times": [{"days": "Mon-Fri", "time": "4:15pm"}, {"days": "Sat", "time": "10:45am"}, {"days": "Sun", "time": "Closed"}], "id": "7801400001", "name": "USPS COLLECTION BOX - BLUE BOX", "address": {"city": "COTULLA", "state": "TX", "street": "209 N FRONT", "postcode": "78014"}}},
{"geometry": {"type": "Point", "coordinates": [-99.2343365276, 28.4377329839]}, "type": "Feature", "properties": {"collection_times": [{"days": "Mon-Fri", "time": "4:15pm"}, {"days": "Sat", "time": "10:45am"}, {"days": "Sun", "time": "Closed"}], "id": "7801400004", "name": "USPS COLLECTION BOX - PO LOBBY", "address": {"city": "COTULLA", "state": "TX", "street": "209 N FRONT", "postcode": "78014"}}},
{"geometry": {"type": "Point", "coordinates": [-98.6647394362, 29.7199929314]}, "type": "Feature", "properties": {"collection_times": [{"days": "Mon-Sat", "time": "3:15pm"}, {"days": "Sun", "time": "Closed"}], "id": "7801500000", "name": "USPS COLLECTION BOX - BLUE BOX", "address": {"city": "BOERNE", "state": "TX", "street": "9090 FAIR OAKS PKWY", "postcode": "78015"}}},
{"geometry": {"type": "Point", "coordinates": [-98.9065397737, 29.1392840434]}, "type": "Feature", "properties": {"collection_times": [{"days": "Mon-Fri", "time": "3:00pm"}, {"days": "Sat", "time": "11:15am"}, {"days": "Sun", "time": "Closed"}], "id": "7801600008", "name": "USPS COLLECTION BOX - BLUE BOX", "address": {"city": "DEVINE", "state": "TX", "street": "111 W COLLEGE AVE", "postcode": "78016"}}},
{"geometry": {"type": "Point", "coordinates": [-98.9065397737, 29.1392840434]}, "type": "Feature", "properties": {"collection_times": [{"days": "Mon-Fri", "time": "3:00pm"}, {"days": "Sat", "time": "11:15am"}, {"days": "Sun", "time": "Closed"}], "id": "7801600015", "name": "USPS COLLECTION BOX - BLUE BOX", "address": {"city": "DEVINE", "state": "TX", "street": "111 W COLLEGE AVE", "postcode": "78016"}}},
{"geometry": {"type": "Point", "coordinates": [-98.9065397737, 29.1392840434]}, "type": "Feature", "properties": {"collection_times": [{"days": "Mon-Fri", "time": "4:00pm"}, {"days": "Sat", "time": "10:00am"}, {"days": "Sun", "time": "Closed"}], "id": "7801600018", "name": "USPS COLLECTION BOX - PO LOBBY", "address": {"city": "DEVINE", "state": "TX", "street": "111 W COLLEGE AVE", "postcode": "78016"}}},
{"geometry": {"type": "Point", "coordinates": [-98.9065397737, 29.1392840434]}, "type": "Feature", "properties": {"collection_times": [{"days": "Mon-Fri", "time": "4:00pm"}, {"days": "Sat", "time": "10:00am"}, {"days": "Sun", "time": "Closed"}], "id": "7801600019", "name": "USPS COLLECTION BOX - PO LOBBY", "address": {"city": "DEVINE", "state": "TX", "street": "111 W COLLEGE AVE", "postcode": "78016"}}},
{"geometry": {"type": "Point", "coordinates": [-99.1702142035, 28.6692895852]}, "type": "Feature", "properties": {"collection_times": [{"days": "Mon-Fri", "time": "4:00pm"}, {"days": "Sat", "time": "8:00am"}, {"days": "Sun", "time": "Closed"}], "id": "7801700002", "name": "USPS COLLECTION BOX - BLUE BOX", "address": {"city": "DILLEY", "state": "TX", "street": "102 E MILLER ST", "postcode": "78017"}}},
{"geometry": {"type": "Point", "coordinates": [-99.1702142035, 28.6692895852]}, "type": "Feature", "properties": {"collection_times": [{"days": "Mon-Fri", "time": "4:00pm"}, {"days": "Sat-Sun", "time": "Closed"}], "id": "7801700004", "name": "USPS COLLECTION BOX - PO LOBBY", "address": {"city": "DILLEY", "state": "TX", "street": "102 E MILLER ST", "postcode": "78017"}}},
{"geometry": {"type": "Point", "coordinates": [-99.3544703158, 28.042408712]}, "type": "Feature", "properties": {"collection_times": [{"days": "Mon-Fri", "time": "3:45pm"}, {"days": "Sat", "time": "12:00pm"}, {"days": "Sun", "time": "Closed"}], "id": "7801900001", "name": "USPS COLLECTION BOX - BLUE BOX", "address": {"city": "ENCINAL", "state": "TX", "street": "400 MAIN ST", "postcode": "78019"}}},
{"geometry": {"type": "Point", "coordinates": [-98.1160763191, 28.3324793046]}, "type": "Feature", "properties": {"collection_times": [{"days": "Mon-Fri", "time": "4:30pm"}, {"days": "Sat", "time": "10:30am"}, {"days": "Sun", "time": "Closed"}], "id": "7802200001", "name": "USPS COLLECTION BOX - BLUE BOX", "address": {"city": "GEORGE WEST", "state": "TX", "street": "606 FRIO ST", "postcode": "78022"}}},
{"geometry": {"type": "Point", "coordinates": [-98.1160763191, 28.3324793046]}, "type": "Feature", "properties": {"collection_times": [{"days": "Mon-Fri", "time": "4:30pm"}, {"days": "Sat", "time": "10:30am"}, {"days": "Sun", "time": "Closed"}], "id": "7802200002", "name": "USPS COLLECTION BOX - PO LOBBY", "address": {"city": "GEORGE WEST", "state": "TX", "street": "606 FRIO ST", "postcode": "78022"}}},
{"geometry": {"type": "Point", "coordinates": [-98.1160763191, 28.3324793046]}, "type": "Feature", "properties": {"collection_times": [{"days": "Mon-Fri", "time": "4:30pm"}, {"days": "Sat", "time": "10:30am"}, {"days": "Sun", "time": "Closed"}], "id": "7802200003", "name": "USPS COLLECTION BOX - PO LOBBY", "address": {"city": "GEORGE WEST", "state": "TX", "street": "606 FRIO ST", "postcode": "78022"}}},
{"geometry": {"type": "Point", "coordinates": [-98.6916437878, 29.56509479]}, "type": "Feature", "properties": {"collection_times": [{"days": "Mon-Fri", "time": "5:15pm"}, {"days": "Sat", "time": "12:00pm"}, {"days": "Sun", "time": "Closed"}], "id": "7802300004", "name": "USPS COLLECTION BOX - BLUE BOX", "address": {"city": "HELOTES", "state": "TX", "street": "12790 FM 1560 N", "postcode": "78023"}}},
{"geometry": {"type": "Point", "coordinates": [-98.6793548942, 29.5628380159]}, "type": "Feature", "properties": {"collection_times": [{"days": "Mon-Fri", "time": "5:15pm"}, {"days": "Sat", "time": "12:00pm"}, {"days": "Sun", "time": "Closed"}], "id": "7802300008", "name": "USPS COLLECTION BOX - PO LOBBY", "address": {"city": "HELOTES", "state": "TX", "street": "12790 FM 1560 N", "postcode": "78023"}}},
{"geometry": {"type": "Point", "coordinates": [-98.6916437878, 29.56509479]}, "type": "Feature", "properties": {"collection_times": [{"days": "Mon-Fri", "time": "5:15pm"}, {"days": "Sat", "time": "12:00pm"}, {"days": "Sun", "time": "Closed"}], "id": "7802300010", "name": "USPS COLLECTION BOX - BLUE BOX", "address": {"city": "HELOTES", "state": "TX", "street": "12790 FM 1560 N", "postcode": "78023"}}},
{"geometry": {"type": "Point", "coordinates": [-98.6793548942, 29.5628380159]}, "type": "Feature", "properties": {"collection_times": [{"days": "Mon-Fri", "time": "5:15pm"}, {"days": "Sat", "time": "12:00pm"}, {"days": "Sun", "time": "Closed"}], "id": "7802300015", "name": "USPS COLLECTION BOX - BLUE BOX", "address": {"city": "HELOTES", "state": "TX", "street": "12790 FM 1560 N", "postcode": "78023"}}},
{"geometry": {"type": "Point", "coordinates": [-98.6916437878, 29.56509479]}, "type": "Feature", "properties": {"collection_times": [{"days": "Mon-Fri", "time": "5:15pm"}, {"days": "Sat", "time": "12:00pm"}, {"days": "Sun", "time": "Closed"}], "id": "7802300016", "name": "USPS COLLECTION BOX - BLUE BOX", "address": {"city": "HELOTES", "state": "TX", "street": "12790 FM 1560 N", "postcode": "78023"}}},
{"geometry": {"type": "Point", "coordinates": [-98.6793548942, 29.5628380159]}, "type": "Feature", "properties": {"collection_times": [{"days": "Mon-Fri", "time": "5:15pm"}, {"days": "Sat", "time": "12:00pm"}, {"days": "Sun", "time": "Closed"}], "id": "7802300017", "name": "USPS COLLECTION BOX - APC", "address": {"city": "HELOTES", "state": "TX", "street": "12790 FM 1560 N", "postcode": "78023"}}},
{"geometry": {"type": "Point", "coordinates": [-98.6846686964, 29.5629114807]}, "type": "Feature", "properties": {"collection_times": [{"days": "Mon-Sat", "time": "12:00pm"}, {"days": "Sun", "time": "Closed"}], "id": "7802300018", "name": "USPS COLLECTION BOX - BLUE BOX", "address": {"city": "HELOTES", "state": "TX", "street": "12920 BANDERA RD", "postcode": "78023"}}},
{"geometry": {"type": "Point", "coordinates": [-99.4176679672, 30.0451822751]}, "type": "Feature", "properties": {"collection_times": [{"days": "Mon-Fri", "time": "4:00pm"}, {"days": "Sat", "time": "10:00am"}, {"days": "Sun", "time": "Closed"}], "id": "7802400001", "name": "USPS COLLECTION BOX - BLUE BOX", "address": {"city": "HUNT", "state": "TX", "street": "1644 HIGHWAY 39", "postcode": "78024"}}},
{"geometry": {"type": "Point", "coordinates": [-99.4176679672, 30.0451822751]}, "type": "Feature", "properties": {"collection_times": [{"days": "Mon-Fri", "time": "3:30pm"}, {"days": "Sat", "time": "10:00am"}, {"days": "Sun", "time": "Closed"}], "id": "7802400004", "name": "USPS COLLECTION BOX - PO LOBBY", "address": {"city": "HUNT", "state": "TX", "street": "1644 HIGHWAY 39", "postcode": "78024"}}},
{"geometry": {"type": "Point", "coordinates": [-99.2276173368, 30.0733037366]}, "type": "Feature", "properties": {"collection_times": [{"days": "Mon-Fri", "time": "4:00pm"}, {"days": "Sat", "time": "10:00am"}, {"days": "Sun", "time": "Closed"}], "id": "7802500002", "name": "USPS COLLECTION BOX - BLUE BOX", "address": {"city": "INGRAM", "state": "TX", "street": "3190 JUNCTION HWY", "postcode": "78025"}}},
{"geometry": {"type": "Point", "coordinates": [-99.2276173368, 30.0733037366]}, "type": "Feature", "properties": {"collection_times": [{"days": "Mon-Fri", "time": "4:00pm"}, {"days": "Sat", "time": "10:00am"}, {"days": "Sun", "time": "Closed"}], "id": "7802500009", "name": "USPS COLLECTION BOX - PO LOBBY", "address": {"city": "INGRAM", "state": "TX", "street": "3190 JUNCTION HWY", "postcode": "78025"}}},
{"geometry": {"type": "Point", "coordinates": [-99.2276173368, 30.0733037366]}, "type": "Feature", "properties": {"collection_times": [{"days": "Mon-Fri", "time": "4:00pm"}, {"days": "Sat", "time": "10:00am"}, {"days": "Sun", "time": "Closed"}], "id": "7802500010", "name": "USPS COLLECTION BOX - PO LOBBY", "address": {"city": "INGRAM", "state": "TX", "street": "3190 JUNCTION HWY", "postcode": "78025"}}},
{"geometry": {"type": "Point", "coordinates": [-98.5447405695, 28.9192554564]}, "type": "Feature", "properties": {"collection_times": [{"days": "Mon-Fri", "time": "4:30pm"}, {"days": "Sat", "time": "11:00am"}, {"days": "Sun", "time": "Closed"}], "id": "7802600002", "name": "USPS COLLECTION BOX - BLUE BOX", "address": {"city": "JOURDANTON", "state": "TX", "street": "1002 OAK ST", "postcode": "78026"}}},
{"geometry": {"type": "Point", "coordinates": [-98.5447405695, 28.9192554564]}, "type": "Feature", "properties": {"collection_times": [{"days": "Mon-Fri", "time": "4:30pm"}, {"days": "Sat", "time": "11:00am"}, {"days": "Sun", "time": "Closed"}], "id": "7802600003", "name": "USPS COLLECTION BOX - BLUE BOX", "address": {"city": "JOURDANTON", "state": "TX", "street": "1002 OAK ST", "postcode": "78026"}}},
{"geometry": {"type": "Point", "coordinates": [-98.5447405695, 28.9192554564]}, "type": "Feature", "properties": {"collection_times": [{"days": "Mon-Fri", "time": "4:30pm"}, {"days": "Sat", "time": "11:00am"}, {"days": "Sun", "time": "Closed"}], "id": "7802600007", "name": "USPS COLLECTION BOX - PO LOBBY", "address": {"city": "JOURDANTON", "state": "TX", "street": "1002 OAK ST", "postcode": "78026"}}},
{"geometry": {"type": "Point", "coordinates": [-98.5298212433, 29.9731756803]}, "type": "Feature", "properties": {"collection_times": [{"days": "Mon-Sat", "time": "12:00pm"}, {"days": "Sun", "time": "Closed"}], "id": "7802700001", "name": "USPS COLLECTION BOX - PO LOBBY", "address": {"city": "KENDALIA", "state": "TX", "street": "2545 HIGHWAY 473", "postcode": "78027"}}},
{"geometry": {"type": "Point", "coordinates": [-99.1636168909, 30.0586090204]}, "type": "Feature", "properties": {"collection_times": [{"days": "Mon-Fri", "time": "3:30pm"}, {"days": "Sat", "time": "3:00pm"}, {"days": "Sun", "time": "Closed"}], "id": "7802800007", "name": "USPS COLLECTION BOX - BLUE BOX", "address": {"city": "KERRVILLE", "state": "TX", "street": "1001 JUNCTION HWY", "postcode": "78028"}}},
{"geometry": {"type": "Point", "coordinates": [-99.1607898553, 30.057185981]}, "type": "Feature", "properties": {"collection_times": [{"days": "Mon-Fri", "time": "4:00pm"}, {"days": "Sat", "time": "3:15pm"}, {"days": "Sun", "time": "Closed"}], "id": "7802800008", "name": "USPS COLLECTION BOX - BLUE BOX", "address": {"city": "KERRVILLE", "state": "TX", "street": "869 JUNCTION HWY", "postcode": "78028"}}},
{"geometry": {"type": "Point", "coordinates": [-99.1545021921, 30.0595376432]}, "type": "Feature", "properties": {"collection_times": [{"days": "Mon-Fri", "time": "3:00pm"}, {"days": "Sat-Sun", "time": "Closed"}], "id": "7802800012", "name": "USPS COLLECTION BOX - BLUE BOX", "address": {"city": "KERRVILLE", "state": "TX", "street": "700 MAIN ST", "postcode": "78028"}}},
{"geometry": {"type": "Point", "coordinates": [-99.1444967251, 30.0508984938]}, "type": "Feature", "properties": {"collection_times": [{"days": "Mon-Sat", "time": "3:00pm"}, {"days": "Sun", "time": "Closed"}], "id": "7802800013", "name": "USPS COLLECTION BOX - BLUE BOX", "address": {"city": "KERRVILLE", "state": "TX", "street": "300 MAIN ST", "postcode": "78028"}}},
{"geometry": {"type": "Point", "coordinates": [-99.1164953562, 30.0136868222]}, "type": "Feature", "properties": {"collection_times": [{"days": "Mon-Fri", "time": "2:45pm"}, {"days": "Sat-Sun", "time": "Closed"}], "id": "7802800014", "name": "USPS COLLECTION BOX - BLUE BOX", "address": {"city": "KERRVILLE", "state": "TX", "street": "3600 MEMORIAL BLVD", "postcode": "78028"}}},
{"geometry": {"type": "Point", "coordinates": [-99.1242527484, 30.0617119217]}, "type": "Feature", "properties": {"collection_times": [{"days": "Mon-Sat", "time": "2:45pm"}, {"days": "Sun", "time": "Closed"}], "id": "7802800017", "name": "USPS COLLECTION BOX - BLUE BOX", "address": {"city": "KERRVILLE", "state": "TX", "street": "1700 SIDNEY BAKER ST", "postcode": "78028"}}},
{"geometry": {"type": "Point", "coordinates": [-99.1545021921, 30.0595376432]}, "type": "Feature", "properties": {"collection_times": [{"days": "Mon-Fri", "time": "3:00pm"}, {"days": "Sat-Sun", "time": "Closed"}], "id": "7802800019", "name": "USPS COLLECTION BOX - BLUE BOX", "address": {"city": "KERRVILLE", "state": "TX", "street": "700 MAIN ST", "postcode": "78028"}}},
{"geometry": {"type": "Point", "coordinates": [-99.1392905227, 30.0444998688]}, "type": "Feature", "properties": {"collection_times": [{"days": "Mon-Sat", "time": "3:00pm"}, {"days": "Sun", "time": "Closed"}], "id": "7802800022", "name": "USPS COLLECTION BOX - BLUE BOX", "address": {"city": "KERRVILLE", "state": "TX", "street": "819 WATER ST", "postcode": "78028"}}},
{"geometry": {"type": "Point", "coordinates": [-99.1295449229, 30.0575719844]}, "type": "Feature", "properties": {"collection_times": [{"days": "Mon-Fri", "time": "3:00pm"}, {"days": "Sat", "time": "2:45pm"}, {"days": "Sun", "time": "Closed"}], "id": "7802800024", "name": "USPS COLLECTION BOX - BLUE BOX", "address": {"city": "KERRVILLE", "state": "TX", "street": "400 YORKTOWN BLVD", "postcode": "78028"}}},
{"geometry": {"type": "Point", "coordinates": [-99.1397021925, 30.0463026983]}, "type": "Feature", "properties": {"collection_times": [{"days": "Mon-Fri", "time": "3:15pm"}, {"days": "Sat", "time": "3:00pm"}, {"days": "Sun", "time": "Closed"}], "id": "7802800027", "name": "USPS COLLECTION BOX - BLUE BOX", "address": {"city": "KERRVILLE", "state": "TX", "street": "228 EARL GARRETT ST", "postcode": "78028"}}},
{"geometry": {"type": "Point", "coordinates": [-99.1607898553, 30.057185981]}, "type": "Feature", "properties": {"collection_times": [{"days": "Mon-Fri", "time": "4:00pm"}, {"days": "Sat", "time": "3:15pm"}, {"days": "Sun", "time": "Closed"}], "id": "7802800029", "name": "USPS COLLECTION BOX - BLUE BOX", "address": {"city": "KERRVILLE", "state": "TX", "street": "869 JUNCTION HWY", "postcode": "78028"}}},
{"geometry": {"type": "Point", "coordinates": [-99.1177855117, 30.0661811407]}, "type": "Feature", "properties": {"collection_times": [{"days": "Mon-Sat", "time": "2:45pm"}, {"days": "Sun", "time": "Closed"}], "id": "7802800033", "name": "USPS COLLECTION BOX - BLUE BOX", "address": {"city": "KERRVILLE", "state": "TX", "street": "2026 SIDNEY BAKER ST", "postcode": "78028"}}},
{"geometry": {"type": "Point", "coordinates": [-99.1242527484, 30.0617119217]}, "type": "Feature", "properties": {"collection_times": [{"days": "Mon-Sat", "time": "2:45pm"}, {"days": "Sun", "time": "Closed"}], "id": "7802800034", "name": "USPS COLLECTION BOX - BLUE BOX", "address": {"city": "KERRVILLE", "state": "TX", "street": "1700 SIDNEY BAKER ST", "postcode": "78028"}}},
{"geometry": {"type": "Point", "coordinates": [-99.1392905227, 30.0444998688]}, "type": "Feature", "properties": {"collection_times": [{"days": "Mon-Sat", "time": "3:00pm"}, {"days": "Sun", "time": "Closed"}], "id": "7802800038", "name": "USPS COLLECTION BOX - BLUE BOX", "address": {"city": "KERRVILLE", "state": "TX", "street": "819 WATER ST", "postcode": "78028"}}},
{"geometry": {"type": "Point", "coordinates": [-99.1480822738, 30.0441284197]}, "type": "Feature", "properties": {"collection_times": [{"days": "Mon-Sat", "time": "5:00pm"}, {"days": "Sun", "time": "Closed"}], "id": "7802800039", "name": "USPS COLLECTION BOX - PO LOBBY", "address": {"city": "KERRVILLE", "state": "TX", "street": "244 CULLY DR", "postcode": "78028"}}},
{"geometry": {"type": "Point", "coordinates": [-99.1480822738, 30.0441284197]}, "type": "Feature", "properties": {"collection_times": [{"days": "Mon-Sat", "time": "5:00pm"}, {"days": "Sun", "time": "Closed"}], "id": "7802800040", "name": "USPS COLLECTION BOX - PO LOBBY", "address": {"city": "KERRVILLE", "state": "TX", "street": "244 CULLY DR", "postcode": "78028"}}},
{"geometry": {"type": "Point", "coordinates": [-99.1480822738, 30.0441284197]}, "type": "Feature", "properties": {"collection_times": [{"days": "Mon-Sat", "time": "5:00pm"}, {"days": "Sun", "time": "Closed"}], "id": "7802800052", "name": "USPS COLLECTION BOX - PO LOBBY", "address": {"city": "KERRVILLE", "state": "TX", "street": "244 CULLY DR", "postcode": "78028"}}},
{"geometry": {"type": "Point", "coordinates": [-99.1480822738, 30.0441284197]}, "type": "Feature", "properties": {"collection_times": [{"days": "Mon-Sat", "time": "4:30pm"}, {"days": "Sun", "time": "Closed"}], "id": "7802800053", "name": "USPS COLLECTION BOX - BLUE BOX", "address": {"city": "KERRVILLE", "state": "TX", "street": "244 CULLY DR", "postcode": "78028"}}},
{"geometry": {"type": "Point", "coordinates": [-99.1480822738, 30.0441284197]}, "type": "Feature", "properties": {"collection_times": [{"days": "Mon-Sat", "time": "4:30pm"}, {"days": "Sun", "time": "Closed"}], "id": "7802800054", "name": "USPS COLLECTION BOX - BLUE BOX", "address": {"city": "KERRVILLE", "state": "TX", "street": "244 CULLY DR", "postcode": "78028"}}},
{"geometry": {"type": "Point", "coordinates": [-99.1381028535, 30.0454378638]}, "type": "Feature", "properties": {"collection_times": [{"days": "Mon-Fri", "time": "3:15pm"}, {"days": "Sat", "time": "3:00pm"}, {"days": "Sun", "time": "Closed"}], "id": "7802800055", "name": "USPS COLLECTION BOX - BLUE BOX", "address": {"city": "KERRVILLE", "state": "TX", "street": "910 MAIN ST", "postcode": "78028"}}},
{"geometry": {"type": "Point", "coordinates": [-99.1381028535, 30.0454378638]}, "type": "Feature", "properties": {"collection_times": [{"days": "Mon-Fri", "time": "3:15pm"}, {"days": "Sat", "time": "3:00pm"}, {"days": "Sun", "time": "Closed"}], "id": "7802800056", "name": "USPS COLLECTION BOX - BLUE BOX", "address": {"city": "KERRVILLE", "state": "TX", "street": "910 MAIN ST", "postcode": "78028"}}},
{"geometry": {"type": "Point", "coordinates": [-99.1480822738, 30.0441284197]}, "type": "Feature", "properties": {"collection_times": [{"days": "Mon-Sat", "time": "5:00pm"}, {"days": "Sun", "time": "Closed"}], "id": "7802800057", "name": "USPS COLLECTION BOX - APC", "address": {"city": "KERRVILLE", "state": "TX", "street": "244 CULLY DR", "postcode": "78028"}}},
{"geometry": {"type": "Point", "coordinates": [-98.811160107, 29.311584884]}, "type": "Feature", "properties": {"collection_times": [{"days": "Mon-Fri", "time": "12:00pm"}, {"days": "Sat-Sun", "time": "Closed"}], "id": "7803900001", "name": "USPS COLLECTION BOX - BLUE BOX", "address": {"city": "LACOSTE", "state": "TX", "street": "15843 N FRONT", "postcode": "78039"}}},
{"geometry": {"type": "Point", "coordinates": [-99.4834357179, 27.5065352738]}, "type": "Feature", "properties": {"collection_times": [{"days": "Mon-Sat", "time": "8:30am"}, {"days": "Sun", "time": "Closed"}], "id": "7804000013", "name": "USPS COLLECTION BOX - BLUE BOX", "address": {"city": "LAREDO", "state": "TX", "street": "1301 GUADALUPE ST", "postcode": "78040"}}},
{"geometry": {"type": "Point", "coordinates": [-99.4579746347, 27.6140667564]}, "type": "Feature", "properties": {"collection_times": [{"days": "Mon-Sat", "time": "8:30am"}, {"days": "Sun", "time": "Closed"}], "id": "7804000026", "name": "USPS COLLECTION BOX - BLUE BOX", "address": {"city": "LAREDO", "state": "TX", "street": "100 WASHINGTONIA DR", "postcode": "78040"}}},
{"geometry": {"type": "Point", "coordinates": [-99.5084586525, 27.5064443771]}, "type": "Feature", "properties": {"collection_times": [{"days": "Mon-Sat", "time": "11:00am"}, {"days": "Sun", "time": "Closed"}], "id": "7804000036", "name": "USPS COLLECTION BOX - BLUE BOX", "address": {"city": "LAREDO", "state": "TX", "street": "1300 MATAMOROS ST", "postcode": "78040"}}},
{"geometry": {"type": "Point", "coordinates": [-99.5046433711, 27.5097086228]}, "type": "Feature", "properties": {"collection_times": [{"days": "Mon-Sat", "time": "8:30am"}, {"days": "Sun", "time": "Closed"}], "id": "7804000046", "name": "USPS COLLECTION BOX - BLUE BOX", "address": {"city": "LAREDO", "state": "TX", "street": "1200 SAN BERNARDO AVE", "postcode": "78040"}}},
{"geometry": {"type": "Point", "coordinates": [-99.5084586525, 27.5064443771]}, "type": "Feature", "properties": {"collection_times": [{"days": "Mon-Sat", "time": "11:00am"}, {"days": "Sun", "time": "Closed"}], "id": "7804000065", "name": "USPS COLLECTION BOX - BLUE BOX", "address": {"city": "LAREDO", "state": "TX", "street": "1300 MATAMOROS ST", "postcode": "78040"}}},
{"geometry": {"type": "Point", "coordinates": [-99.5084586525, 27.5064443771]}, "type": "Feature", "properties": {"collection_times": [{"days": "Mon-Sat", "time": "11:00am"}, {"days": "Sun", "time": "Closed"}], "id": "7804000073", "name": "USPS COLLECTION BOX - PO LOBBY", "address": {"city": "LAREDO", "state": "TX", "street": "1300 MATAMOROS ST", "postcode": "78040"}}},
{"geometry": {"type": "Point", "coordinates": [-99.5084586525, 27.5064443771]}, "type": "Feature", "properties": {"collection_times": [{"days": "Mon-Sat", "time": "11:00am"}, {"days": "Sun", "time": "Closed"}], "id": "7804000074", "name": "USPS COLLECTION BOX - PO LOBBY", "address": {"city": "LAREDO", "state": "TX", "street": "1300 MATAMOROS ST", "postcode": "78040"}}},
{"geometry": {"type": "Point", "coordinates": [-99.5084586525, 27.5064443771]}, "type": "Feature", "properties": {"collection_times": [{"days": "Mon-Sat", "time": "11:00am"}, {"days": "Sun", "time": "Closed"}], "id": "7804000075", "name": "USPS COLLECTION BOX - PO LOBBY", "address": {"city": "LAREDO", "state": "TX", "street": "1300 MATAMOROS ST", "postcode": "78040"}}},
{"geometry": {"type": "Point", "coordinates": [-99.5084586525, 27.5064443771]}, "type": "Feature", "properties": {"collection_times": [{"days": "Mon-Sat", "time": "11:00am"}, {"days": "Sun", "time": "Closed"}], "id": "7804000076", "name": "USPS COLLECTION BOX - PO LOBBY", "address": {"city": "LAREDO", "state": "TX", "street": "1300 MATAMOROS ST", "postcode": "78040"}}},
{"geometry": {"type": "Point", "coordinates": [-99.5084586525, 27.5064443771]}, "type": "Feature", "properties": {"collection_times": [{"days": "Mon-Sat", "time": "11:00am"}, {"days": "Sun", "time": "Closed"}], "id": "7804000077", "name": "USPS COLLECTION BOX - PO LOBBY", "address": {"city": "LAREDO", "state": "TX", "street": "1300 MATAMOROS ST", "postcode": "78040"}}},
{"geometry": {"type": "Point", "coordinates": [-99.5084586525, 27.5064443771]}, "type": "Feature", "properties": {"collection_times": [{"days": "Mon-Sat", "time": "11:00am"}, {"days": "Sun", "time": "Closed"}], "id": "7804000078", "name": "USPS COLLECTION BOX - PO LOBBY", "address": {"city": "LAREDO", "state": "TX", "street": "1300 MATAMOROS ST", "postcode": "78040"}}},
{"geometry": {"type": "Point", "coordinates": [-99.5084586525, 27.5064443771]}, "type": "Feature", "properties": {"collection_times": [{"days": "Mon-Sat", "time": "11:00am"}, {"days": "Sun", "time": "Closed"}], "id": "7804000079", "name": "USPS COLLECTION BOX - PO LOBBY", "address": {"city": "LAREDO", "state": "TX", "street": "1300 MATAMOROS ST", "postcode": "78040"}}},
{"geometry": {"type": "Point", "coordinates": [-99.4896695728, 27.5421767112]}, "type": "Feature", "properties": {"collection_times": [{"days": "Mon-Sat", "time": "8:45am"}, {"days": "Sun", "time": "Closed"}], "id": "7804100003", "name": "USPS COLLECTION BOX - BLUE BOX", "address": {"city": "LAREDO", "state": "TX", "street": "602 E CALTON RD", "postcode": "78041"}}},
{"geometry": {"type": "Point", "coordinates": [-99.4732310284, 27.5742114906]}, "type": "Feature", "properties": {"collection_times": [{"days": "Mon-Sat", "time": "9:00am"}, {"days": "Sun", "time": "Closed"}], "id": "7804100007", "name": "USPS COLLECTION BOX - BLUE BOX", "address": {"city": "LAREDO", "state": "TX", "street": "1202 E DEL MAR BLVD", "postcode": "78041"}}},
{"geometry": {"type": "Point", "coordinates": [-99.4951610734, 27.5465652841]}, "type": "Feature", "properties": {"collection_times": [{"days": "Mon-Sat", "time": "9:15am"}, {"days": "Sun", "time": "Closed"}], "id": "7804100016", "name": "USPS COLLECTION BOX - BLUE BOX", "address": {"city": "LAREDO", "state": "TX", "street": "201 E HILLSIDE RD", "postcode": "78041"}}},
{"geometry": {"type": "Point", "coordinates": [-99.4823051986, 27.5469913421]}, "type": "Feature", "properties": {"collection_times": [{"days": "Mon-Sat", "time": "9:15am"}, {"days": "Sun", "time": "Closed"}], "id": "7804100019", "name": "USPS COLLECTION BOX - BLUE BOX", "address": {"city": "LAREDO", "state": "TX", "street": "5400 MCPHERSON RD", "postcode": "78041"}}},
{"geometry": {"type": "Point", "coordinates": [-99.4796567023, 27.5546621102]}, "type": "Feature", "properties": {"collection_times": [{"days": "Mon-Sat", "time": "9:15am"}, {"days": "Sun", "time": "Closed"}], "id": "7804100020", "name": "USPS COLLECTION BOX - BLUE BOX", "address": {"city": "LAREDO", "state": "TX", "street": "5920 MCPHERSON RD", "postcode": "78041"}}},
{"geometry": {"type": "Point", "coordinates": [-99.4828738529, 27.5433093115]}, "type": "Feature", "properties": {"collection_times": [{"days": "Mon-Sat", "time": "8:45am"}, {"days": "Sun", "time": "Closed"}], "id": "7804100021", "name": "USPS COLLECTION BOX - BLUE BOX", "address": {"city": "LAREDO", "state": "TX", "street": "5219 MCPHERSON RD", "postcode": "78041"}}},
{"geometry": {"type": "Point", "coordinates": [-99.5033399294, 27.5709267519]}, "type": "Feature", "properties": {"collection_times": [{"days": "Mon-Sat", "time": "9:45am"}, {"days": "Sun", "time": "Closed"}], "id": "7804100029", "name": "USPS COLLECTION BOX - BLUE BOX", "address": {"city": "LAREDO", "state": "TX", "street": "7100 SAN BERNARDO AVE", "postcode": "78041"}}},
{"geometry": {"type": "Point", "coordinates": [-99.5021374306, 27.5417851556]}, "type": "Feature", "properties": {"collection_times": [{"days": "Mon-Sat", "time": "8:45am"}, {"days": "Sun", "time": "Closed"}], "id": "7804100031", "name": "USPS COLLECTION BOX - BLUE BOX", "address": {"city": "LAREDO", "state": "TX", "street": "4801 SAN DARIO AVE", "postcode": "78041"}}},
{"geometry": {"type": "Point", "coordinates": [-99.4716167988, 27.5305823896]}, "type": "Feature", "properties": {"collection_times": [{"days": "Mon-Sat", "time": "1:15pm"}, {"days": "Sun", "time": "Closed"}], "id": "7804100033", "name": "USPS COLLECTION BOX - BLUE BOX", "address": {"city": "LAREDO", "state": "TX", "street": "2700 E SAUNDERS ST", "postcode": "78041"}}},
{"geometry": {"type": "Point", "coordinates": [-99.4968055228, 27.5678912728]}, "type": "Feature", "properties": {"collection_times": [{"days": "Mon-Sat", "time": "9:30am"}, {"days": "Sun", "time": "Closed"}], "id": "7804100040", "name": "USPS COLLECTION BOX - BLUE BOX", "address": {"city": "LAREDO", "state": "TX", "street": "210 W DEL MAR BLVD", "postcode": "78041"}}},
{"geometry": {"type": "Point", "coordinates": [-99.4716167988, 27.5305823896]}, "type": "Feature", "properties": {"collection_times": [{"days": "Mon-Sat", "time": "1:15pm"}, {"days": "Sun", "time": "Closed"}], "id": "7804100041", "name": "USPS COLLECTION BOX - BLUE BOX", "address": {"city": "LAREDO", "state": "TX", "street": "2700 E SAUNDERS ST", "postcode": "78041"}}},
{"geometry": {"type": "Point", "coordinates": [-99.5042138847, 27.5577562843]}, "type": "Feature", "properties": {"collection_times": [{"days": "Mon-Sat", "time": "9:45am"}, {"days": "Sun", "time": "Closed"}], "id": "7804100048", "name": "USPS COLLECTION BOX - BLUE BOX", "address": {"city": "LAREDO", "state": "TX", "street": "5912 SAN BERNARDO AVE", "postcode": "78041"}}},
{"geometry": {"type": "Point", "coordinates": [-99.488548042, 27.5462609869]}, "type": "Feature", "properties": {"collection_times": [{"days": "Mon-Sat", "time": "1:15pm"}, {"days": "Sun", "time": "Closed"}], "id": "7804100049", "name": "USPS COLLECTION BOX - EXPRESS", "address": {"city": "LAREDO", "state": "TX", "street": "2700 E SAUNDERS ST", "postcode": "78041"}}},
{"geometry": {"type": "Point", "coordinates": [-99.4716167988, 27.5305823896]}, "type": "Feature", "properties": {"collection_times": [{"days": "Mon-Sat", "time": "1:15pm"}, {"days": "Sun", "time": "Closed"}], "id": "7804100051", "name": "USPS COLLECTION BOX - PO LOBBY", "address": {"city": "LAREDO", "state": "TX", "street": "2700 E SAUNDERS ST", "postcode": "78041"}}},
{"geometry": {"type": "Point", "coordinates": [-99.4716167988, 27.5305823896]}, "type": "Feature", "properties": {"collection_times": [{"days": "Mon-Sat", "time": "1:15pm"}, {"days": "Sun", "time": "Closed"}], "id": "7804100052", "name": "USPS COLLECTION BOX - PO LOBBY", "address": {"city": "LAREDO", "state": "TX", "street": "2700 E SAUNDERS ST", "postcode": "78041"}}},
{"geometry": {"type": "Point", "coordinates": [-99.4716167988, 27.5305823896]}, "type": "Feature", "properties": {"collection_times": [{"days": "Mon-Sat", "time": "1:15pm"}, {"days": "Sun", "time": "Closed"}], "id": "7804100053", "name": "USPS COLLECTION BOX - PO LOBBY", "address": {"city": "LAREDO", "state": "TX", "street": "2700 E SAUNDERS ST", "postcode": "78041"}}},
{"geometry": {"type": "Point", "coordinates": [-99.4716167988, 27.5305823896]}, "type": "Feature", "properties": {"collection_times": [{"days": "Mon-Sat", "time": "1:15pm"}, {"days": "Sun", "time": "Closed"}], "id": "7804100054", "name": "USPS COLLECTION BOX - PO LOBBY", "address": {"city": "LAREDO", "state": "TX", "street": "2700 E SAUNDERS ST", "postcode": "78041"}}},
{"geometry": {"type": "Point", "coordinates": [-99.5032550564, 27.5533302436]}, "type": "Feature", "properties": {"collection_times": [{"days": "Mon-Sat", "time": "9:30am"}, {"days": "Sun", "time": "Closed"}], "id": "7804100055", "name": "USPS COLLECTION BOX - BLUE BOX", "address": {"city": "LAREDO", "state": "TX", "street": "5300 SAN DARIO AVE", "postcode": "78041"}}},
{"geometry": {"type": "Point", "coordinates": [-99.4716167988, 27.5305823896]}, "type": "Feature", "properties": {"collection_times": [{"days": "Mon-Sat", "time": "1:15pm"}, {"days": "Sun", "time": "Closed"}], "id": "7804100056", "name": "USPS COLLECTION BOX - APC", "address": {"city": "LAREDO", "state": "TX", "street": "2700 E SAUNDERS ST", "postcode": "78041"}}},
{"geometry": {"type": "Point", "coordinates": [-99.4791549561, 27.5057288614]}, "type": "Feature", "properties": {"collection_times": [{"days": "Mon-Sat", "time": "8:15am"}, {"days": "Sun", "time": "Closed"}], "id": "7804300030", "name": "USPS COLLECTION BOX - BLUE BOX", "address": {"city": "LAREDO", "state": "TX", "street": "1716 CHIHUAHUA ST", "postcode": "78043"}}},
{"geometry": {"type": "Point", "coordinates": [-99.4791549561, 27.5057288614]}, "type": "Feature", "properties": {"collection_times": [{"days": "Mon-Sat", "time": "8:15am"}, {"days": "Sun", "time": "Closed"}], "id": "7804300037", "name": "USPS COLLECTION BOX - BLUE BOX", "address": {"city": "LAREDO", "state": "TX", "street": "1716 CHIHUAHUA ST", "postcode": "78043"}}},
{"geometry": {"type": "Point", "coordinates": [-99.4624159313, 27.6850647078]}, "type": "Feature", "properties": {"collection_times": [{"days": "Mon-Sat", "time": "11:30am"}, {"days": "Sun", "time": "Closed"}], "id": "7804500004", "name": "USPS COLLECTION BOX - BLUE BOX", "address": {"city": "LAREDO", "state": "TX", "street": "1101 UNIROYAL DR", "postcode": "78045"}}},
{"geometry": {"type": "Point", "coordinates": [-99.4975465485, 27.6019205533]}, "type": "Feature", "properties": {"collection_times": [{"days": "Mon-Sat", "time": "9:00am"}, {"days": "Sun", "time": "Closed"}], "id": "7804500005", "name": "USPS COLLECTION BOX - BLUE BOX", "address": {"city": "LAREDO", "state": "TX", "street": "3001 RED OAK CIR", "postcode": "78045"}}},
{"geometry": {"type": "Point", "coordinates": [-99.4537274328, 27.5811559142]}, "type": "Feature", "properties": {"collection_times": [{"days": "Mon-Sat", "time": "12:00pm"}, {"days": "Sun", "time": "Closed"}], "id": "7804500008", "name": "USPS COLLECTION BOX - BLUE BOX", "address": {"city": "LAREDO", "state": "TX", "street": "2395 E DEL MAR BLVD", "postcode": "78045"}}},
{"geometry": {"type": "Point", "coordinates": [-99.4537274328, 27.5811559142]}, "type": "Feature", "properties": {"collection_times": [{"days": "Mon-Sat", "time": "12:00pm"}, {"days": "Sun", "time": "Closed"}], "id": "7804500009", "name": "USPS COLLECTION BOX - BLUE BOX", "address": {"city": "LAREDO", "state": "TX", "street": "2395 E DEL MAR BLVD", "postcode": "78045"}}},
{"geometry": {"type": "Point", "coordinates": [-99.4537274328, 27.5811559142]}, "type": "Feature", "properties": {"collection_times": [{"days": "Mon-Sat", "time": "12:00pm"}, {"days": "Sun", "time": "Closed"}], "id": "7804500010", "name": "USPS COLLECTION BOX - PO LOBBY", "address": {"city": "LAREDO", "state": "TX", "street": "2395 E DEL MAR BLVD", "postcode": "78045"}}},
{"geometry": {"type": "Point", "coordinates": [-99.4537274328, 27.5811559142]}, "type": "Feature", "properties": {"collection_times": [{"days": "Mon-Sat", "time": "12:00pm"}, {"days": "Sun", "time": "Closed"}], "id": "7804500011", "name": "USPS COLLECTION BOX - PO LOBBY", "address": {"city": "LAREDO", "state": "TX", "street": "2395 E DEL MAR BLVD", "postcode": "78045"}}},
{"geometry": {"type": "Point", "coordinates": [-99.4537274328, 27.5811559142]}, "type": "Feature", "properties": {"collection_times": [{"days": "Mon-Sat", "time": "12:00pm"}, {"days": "Sun", "time": "Closed"}], "id": "7804500012", "name": "USPS COLLECTION BOX - PO LOBBY", "address": {"city": "LAREDO", "state": "TX", "street": "2395 E DEL MAR BLVD", "postcode": "78045"}}},
{"geometry": {"type": "Point", "coordinates": [-99.5116749827, 27.5899004312]}, "type": "Feature", "properties": {"collection_times": [{"days": "Mon-Sat", "time": "11:30am"}, {"days": "Sun", "time": "Closed"}], "id": "7804500013", "name": "USPS COLLECTION BOX - BLUE BOX", "address": {"city": "LAREDO", "state": "TX", "street": "9505 MINES RD", "postcode": "78045"}}},
{"geometry": {"type": "Point", "coordinates": [-99.4755434676, 27.4737782998]}, "type": "Feature", "properties": {"collection_times": [{"days": "Mon-Sat", "time": "11:00am"}, {"days": "Sun", "time": "Closed"}], "id": "7804600000", "name": "USPS COLLECTION BOX - BLUE BOX", "address": {"city": "LAREDO", "state": "TX", "street": "2615 S ZAPATA HWY", "postcode": "78046"}}},
{"geometry": {"type": "Point", "coordinates": [-99.4747270359, 27.4765642863]}, "type": "Feature", "properties": {"collection_times": [{"days": "Mon-Sat", "time": "11:00am"}, {"days": "Sun", "time": "Closed"}], "id": "7804600005", "name": "USPS COLLECTION BOX - BLUE BOX", "address": {"city": "LAREDO", "state": "TX", "street": "2314 S ZAPATA HWY", "postcode": "78046"}}},
{"geometry": {"type": "Point", "coordinates": [-98.4843351684, 29.070610349]}, "type": "Feature", "properties": {"collection_times": [{"days": "Mon-Fri", "time": "4:00pm"}, {"days": "Sat", "time": "7:30am"}, {"days": "Sun", "time": "Closed"}], "id": "7805000001", "name": "USPS COLLECTION BOX - BLUE BOX", "address": {"city": "LEMING", "state": "TX", "street": "7781 US HIGHWAY 281 N", "postcode": "78050"}}},
{"geometry": {"type": "Point", "coordinates": [-98.4843351684, 29.070610349]}, "type": "Feature", "properties": {"collection_times": [{"days": "Mon-Fri", "time": "3:00pm"}, {"days": "Sat", "time": "7:30am"}, {"days": "Sun", "time": "Closed"}], "id": "7805000002", "name": "USPS COLLECTION BOX - PO LOBBY", "address": {"city": "LEMING", "state": "TX", "street": "7781 US HIGHWAY 281 N", "postcode": "78050"}}},
{"geometry": {"type": "Point", "coordinates": [-98.7802773124, 29.2399075669]}, "type": "Feature", "properties": {"collection_times": [{"days": "Mon-Fri", "time": "4:00pm"}, {"days": "Sat", "time": "11:00am"}, {"days": "Sun", "time": "Closed"}], "id": "7805200005", "name": "USPS COLLECTION BOX - PO LOBBY", "address": {"city": "LYTLE", "state": "TX", "street": "14841 MAIN ST", "postcode": "78052"}}},
{"geometry": {"type": "Point", "coordinates": [-98.7803060893, 29.2399204731]}, "type": "Feature", "properties": {"collection_times": [{"days": "Mon-Fri", "time": "3:30pm"}, {"days": "Sat", "time": "11:00am"}, {"days": "Sun", "time": "Closed"}], "id": "7805200007", "name": "USPS COLLECTION BOX - BLUE BOX", "address": {"city": "LYTLE", "state": "TX", "street": "14841 MAIN ST", "postcode": "78052"}}},
{"geometry": {"type": "Point", "coordinates": [-98.7803060893, 29.2399204731]}, "type": "Feature", "properties": {"collection_times": [{"days": "Mon-Fri", "time": "3:30pm"}, {"days": "Sat", "time": "11:00am"}, {"days": "Sun", "time": "Closed"}], "id": "7805200008", "name": "USPS COLLECTION BOX - BLUE BOX", "address": {"city": "LYTLE", "state": "TX", "street": "14841 MAIN ST", "postcode": "78052"}}},
{"geometry": {"type": "Point", "coordinates": [-98.7802773124, 29.2399075669]}, "type": "Feature", "properties": {"collection_times": [{"days": "Mon-Fri", "time": "4:00pm"}, {"days": "Sat", "time": "11:00am"}, {"days": "Sun", "time": "Closed"}], "id": "7805200010", "name": "USPS COLLECTION BOX - PO LOBBY", "address": {"city": "LYTLE", "state": "TX", "street": "14841 MAIN ST", "postcode": "78052"}}},
{"geometry": {"type": "Point", "coordinates": [-98.6924801728, 29.3257151396]}, "type": "Feature", "properties": {"collection_times": [{"days": "Mon-Fri", "time": "4:00pm"}, {"days": "Sat", "time": "9:30am"}, {"days": "Sun", "time": "Closed"}], "id": "7805400002", "name": "USPS COLLECTION BOX - BLUE BOX", "address": {"city": "MACDONA", "state": "TX", "street": "9880 ALIANN", "postcode": "78054"}}},
{"geometry": {"type": "Point", "coordinates": [-98.6924801728, 29.3257151396]}, "type": "Feature", "properties": {"collection_times": [{"days": "Mon-Fri", "time": "11:30am"}, {"days": "Sat", "time": "9:30am"}, {"days": "Sun", "time": "Closed"}], "id": "7805400003", "name": "USPS COLLECTION BOX - PO LOBBY", "address": {"city": "MACDONA", "state": "TX", "street": "9880 ALIANN", "postcode": "78054"}}},
{"geometry": {"type": "Point", "coordinates": [-98.6924801728, 29.3257151396]}, "type": "Feature", "properties": {"collection_times": [{"days": "Mon-Fri", "time": "11:30am"}, {"days": "Sat", "time": "9:30am"}, {"days": "Sun", "time": "Closed"}], "id": "7805400004", "name": "USPS COLLECTION BOX - PO LOBBY", "address": {"city": "MACDONA", "state": "TX", "street": "9880 ALIANN", "postcode": "78054"}}},
{"geometry": {"type": "Point", "coordinates": [-99.2364859328, 29.7976767264]}, "type": "Feature", "properties": {"collection_times": [{"days": "Mon-Fri", "time": "4:15pm"}, {"days": "Sat", "time": "8:00am"}, {"days": "Sun", "time": "Closed"}], "id": "7805500001", "name": "USPS COLLECTION BOX - BLUE BOX", "address": {"city": "MEDINA", "state": "TX", "street": "13876 STATE HIGHWAY 16 N", "postcode": "78055"}}},
{"geometry": {"type": "Point", "coordinates": [-99.2364859328, 29.7976767264]}, "type": "Feature", "properties": {"collection_times": [{"days": "Mon-Fri", "time": "4:15pm"}, {"days": "Sat-Sun", "time": "Closed"}], "id": "7805500003", "name": "USPS COLLECTION BOX - PO LOBBY", "address": {"city": "MEDINA", "state": "TX", "street": "13876 STATE HIGHWAY 16 N", "postcode": "78055"}}},
{"geometry": {"type": "Point", "coordinates": [-99.004548147, 29.0611930914]}, "type": "Feature", "properties": {"collection_times": [{"days": "Mon-Fri", "time": "3:30pm"}, {"days": "Sat", "time": "9:00am"}, {"days": "Sun", "time": "Closed"}], "id": "7805700001", "name": "USPS COLLECTION BOX - BLUE BOX", "address": {"city": "MOORE", "state": "TX", "street": "198 W FM 462", "postcode": "78057"}}},
{"geometry": {"type": "Point", "coordinates": [-99.004548147, 29.0611930914]}, "type": "Feature", "properties": {"collection_times": [{"days": "Mon-Fri", "time": "1:00pm"}, {"days": "Sat-Sun", "time": "Closed"}], "id": "7805700003", "name": "USPS COLLECTION BOX - PO LOBBY", "address": {"city": "MOORE", "state": "TX", "street": "198 W FM 462", "postcode": "78057"}}},
{"geometry": {"type": "Point", "coordinates": [-99.3558375912, 30.2422067197]}, "type": "Feature", "properties": {"collection_times": [{"days": "Mon-Fri", "time": "3:30pm"}, {"days": "Sat", "time": "10:30am"}, {"days": "Sun", "time": "Closed"}], "id": "7805800001", "name": "USPS COLLECTION BOX - BLUE BOX", "address": {"city": "MOUNTAIN HOME", "state": "TX", "street": "5586 JUNCTION HWY", "postcode": "78058"}}},
{"geometry": {"type": "Point", "coordinates": [-99.3558375912, 30.2422067197]}, "type": "Feature", "properties": {"collection_times": [{"days": "Mon-Fri", "time": "3:30pm"}, {"days": "Sat", "time": "10:30am"}, {"days": "Sun", "time": "Closed"}], "id": "7805800002", "name": "USPS COLLECTION BOX - PO LOBBY", "address": {"city": "MOUNTAIN HOME", "state": "TX", "street": "5586 JUNCTION HWY", "postcode": "78058"}}},
{"geometry": {"type": "Point", "coordinates": [-98.861580465, 29.1906584588]}, "type": "Feature", "properties": {"collection_times": [{"days": "Mon-Fri", "time": "11:30am"}, {"days": "Sat", "time": "8:00am"}, {"days": "Sun", "time": "Closed"}], "id": "7805900001", "name": "USPS COLLECTION BOX - BLUE BOX", "address": {"city": "NATALIA", "state": "TX", "street": "2200 STATE HIGHWAY 132 N", "postcode": "78059"}}},
{"geometry": {"type": "Point", "coordinates": [-98.861580465, 29.1906584588]}, "type": "Feature", "properties": {"collection_times": [{"days": "Mon-Fri", "time": "11:45am"}, {"days": "Sat-Sun", "time": "Closed"}], "id": "7805900004", "name": "USPS COLLECTION BOX - PO LOBBY", "address": {"city": "NATALIA", "state": "TX", "street": "2200 STATE HIGHWAY 132 N", "postcode": "78059"}}},
{"geometry": {"type": "Point", "coordinates": [-99.0924978743, 28.8914159304]}, "type": "Feature", "properties": {"collection_times": [{"days": "Mon-Fri", "time": "4:45pm"}, {"days": "Sat", "time": "12:00pm"}, {"days": "Sun", "time": "Closed"}], "id": "7806100002", "name": "USPS COLLECTION BOX - BLUE BOX", "address": {"city": "PEARSALL", "state": "TX", "street": "411 E COLORADO ST", "postcode": "78061"}}},
{"geometry": {"type": "Point", "coordinates": [-99.0924978743, 28.8914159304]}, "type": "Feature", "properties": {"collection_times": [{"days": "Mon-Fri", "time": "4:45pm"}, {"days": "Sat", "time": "12:00pm"}, {"days": "Sun", "time": "Closed"}], "id": "7806100003", "name": "USPS COLLECTION BOX - BLUE BOX", "address": {"city": "PEARSALL", "state": "TX", "street": "411 E COLORADO ST", "postcode": "78061"}}},
{"geometry": {"type": "Point", "coordinates": [-99.0924978743, 28.8914159304]}, "type": "Feature", "properties": {"collection_times": [{"days": "Mon-Fri", "time": "5:00pm"}, {"days": "Sat", "time": "10:45am"}, {"days": "Sun", "time": "Closed"}], "id": "7806100006", "name": "USPS COLLECTION BOX - PO LOBBY", "address": {"city": "PEARSALL", "state": "TX", "street": "411 E COLORADO ST", "postcode": "78061"}}},
{"geometry": {"type": "Point", "coordinates": [-98.9439477705, 29.7267462847]}, "type": "Feature", "properties": {"collection_times": [{"days": "Mon-Fri", "time": "4:30pm"}, {"days": "Sat", "time": "9:30am"}, {"days": "Sun", "time": "Closed"}], "id": "7806300001", "name": "USPS COLLECTION BOX - BLUE BOX", "address": {"city": "PIPE CREEK", "state": "TX", "street": "10005 STATE HIGHWAY 16 S", "postcode": "78063"}}},
{"geometry": {"type": "Point", "coordinates": [-98.9299805262, 29.6026776873]}, "type": "Feature", "properties": {"collection_times": [{"days": "Mon-Fri", "time": "2:00pm"}, {"days": "Sat-Sun", "time": "Closed"}], "id": "7806300006", "name": "USPS COLLECTION BOX - BLUE BOX", "address": {"city": "PIPE CREEK", "state": "TX", "street": "9155 FM 1283", "postcode": "78063"}}},
{"geometry": {"type": "Point", "coordinates": [-98.9439477705, 29.7267462847]}, "type": "Feature", "properties": {"collection_times": [{"days": "Mon-Fri", "time": "4:30pm"}, {"days": "Sat", "time": "9:30am"}, {"days": "Sun", "time": "Closed"}], "id": "7806300007", "name": "USPS COLLECTION BOX - PO LOBBY", "address": {"city": "PIPE CREEK", "state": "TX", "street": "10005 STATE HIGHWAY 16 S", "postcode": "78063"}}},
{"geometry": {"type": "Point", "coordinates": [-98.4844136932, 28.9591447299]}, "type": "Feature", "properties": {"collection_times": [{"days": "Mon-Sat", "time": "3:30pm"}, {"days": "Sun", "time": "Closed"}], "id": "7806400004", "name": "USPS COLLECTION BOX - BLUE BOX", "address": {"city": "PLEASANTON", "state": "TX", "street": "122 W GOODWIN ST", "postcode": "78064"}}},
{"geometry": {"type": "Point", "coordinates": [-98.4789156203, 28.9729995136]}, "type": "Feature", "properties": {"collection_times": [{"days": "Mon-Sat", "time": "2:30pm"}, {"days": "Sun", "time": "Closed"}], "id": "7806400005", "name": "USPS COLLECTION BOX - BLUE BOX", "address": {"city": "PLEASANTON", "state": "TX", "street": "1501 2ND ST", "postcode": "78064"}}},
{"geometry": {"type": "Point", "coordinates": [-98.4844136932, 28.9591447299]}, "type": "Feature", "properties": {"collection_times": [{"days": "Mon-Sat", "time": "3:30pm"}, {"days": "Sun", "time": "Closed"}], "id": "7806400006", "name": "USPS COLLECTION BOX - BLUE BOX", "address": {"city": "PLEASANTON", "state": "TX", "street": "122 W GOODWIN ST", "postcode": "78064"}}},
{"geometry": {"type": "Point", "coordinates": [-98.469396587, 28.9782140805]}, "type": "Feature", "properties": {"collection_times": [{"days": "Mon-Sat", "time": "3:30pm"}, {"days": "Sun", "time": "Closed"}], "id": "7806400008", "name": "USPS COLLECTION BOX - BLUE BOX", "address": {"city": "PLEASANTON", "state": "TX", "street": "122 W GOODWIN ST", "postcode": "78064"}}},
{"geometry": {"type": "Point", "coordinates": [-98.4844136932, 28.9591447299]}, "type": "Feature", "properties": {"collection_times": [{"days": "Mon-Fri", "time": "4:00pm"}, {"days": "Sat", "time": "11:30am"}, {"days": "Sun", "time": "Closed"}], "id": "7806400009", "name": "USPS COLLECTION BOX - PO LOBBY", "address": {"city": "PLEASANTON", "state": "TX", "street": "122 W GOODWIN ST", "postcode": "78064"}}},
{"geometry": {"type": "Point", "coordinates": [-98.4844136932, 28.9591447299]}, "type": "Feature", "properties": {"collection_times": [{"days": "Mon-Fri", "time": "4:00pm"}, {"days": "Sat", "time": "11:30am"}, {"days": "Sun", "time": "Closed"}], "id": "7806400010", "name": "USPS COLLECTION BOX - PO LOBBY", "address": {"city": "PLEASANTON", "state": "TX", "street": "122 W GOODWIN ST", "postcode": "78064"}}},
{"geometry": {"type": "Point", "coordinates": [-98.6176568644, 29.0887814354]}, "type": "Feature", "properties": {"collection_times": [{"days": "Mon-Fri", "time": "4:00pm"}, {"days": "Sat", "time": "10:30am"}, {"days": "Sun", "time": "Closed"}], "id": "7806500001", "name": "USPS COLLECTION BOX - BLUE BOX", "address": {"city": "POTEET", "state": "TX", "street": "420 AVENUE I", "postcode": "78065"}}},
{"geometry": {"type": "Point", "coordinates": [-98.5756070668, 29.0362886038]}, "type": "Feature", "properties": {"collection_times": [{"days": "Mon-Fri", "time": "4:00pm"}, {"days": "Sat", "time": "10:00am"}, {"days": "Sun", "time": "Closed"}], "id": "7806500003", "name": "USPS COLLECTION BOX - PO LOBBY", "address": {"city": "POTEET", "state": "TX", "street": "420 AVE I @ 4TH ST", "postcode": "78065"}}},
{"geometry": {"type": "Point", "coordinates": [-99.3297448744, 27.1692348605]}, "type": "Feature", "properties": {"collection_times": [{"days": "Mon-Fri", "time": "11:45am"}, {"days": "Sat", "time": "10:30am"}, {"days": "Sun", "time": "Closed"}], "id": "7806700002", "name": "USPS COLLECTION BOX - PO LOBBY", "address": {"city": "SAN YGNACIO", "state": "TX", "street": "4327 N US HIGHWAY 83", "postcode": "78067"}}},
{"geometry": {"type": "Point", "coordinates": [-99.3297448744, 27.1692348605]}, "type": "Feature", "properties": {"collection_times": [{"days": "Mon-Fri", "time": "11:45am"}, {"days": "Sat", "time": "10:30am"}, {"days": "Sun", "time": "Closed"}], "id": "7806700003", "name": "USPS COLLECTION BOX - PO LOBBY", "address": {"city": "SAN YGNACIO", "state": "TX", "street": "4327 N US HIGHWAY 83", "postcode": "78067"}}},
{"geometry": {"type": "Point", "coordinates": [-99.3297448744, 27.1692348605]}, "type": "Feature", "properties": {"collection_times": [{"days": "Mon-Fri", "time": "11:45am"}, {"days": "Sat", "time": "10:30am"}, {"days": "Sun", "time": "Closed"}], "id": "7806700004", "name": "USPS COLLECTION BOX - BLUE BOX", "address": {"city": "SAN YGNACIO", "state": "TX", "street": "4327 N US HIGHWAY 83", "postcode": "78067"}}},
{"geometry": {"type": "Point", "coordinates": [-98.6561489595, 29.2288962715]}, "type": "Feature", "properties": {"collection_times": [{"days": "Mon-Fri", "time": "3:30pm"}, {"days": "Sat", "time": "8:30am"}, {"days": "Sun", "time": "Closed"}], "id": "7806900003", "name": "USPS COLLECTION BOX - BLUE BOX", "address": {"city": "SOMERSET", "state": "TX", "street": "19608 SOMERSET RD", "postcode": "78069"}}},
{"geometry": {"type": "Point", "coordinates": [-98.6561168727, 29.2289152641]}, "type": "Feature", "properties": {"collection_times": [{"days": "Mon-Fri", "time": "4:00pm"}, {"days": "Sat-Sun", "time": "Closed"}], "id": "7806900005", "name": "USPS COLLECTION BOX - PO LOBBY", "address": {"city": "SOMERSET", "state": "TX", "street": "19608 SOMERSET RD", "postcode": "78069"}}},
{"geometry": {"type": "Point", "coordinates": [-98.4089244498, 29.8892965678]}, "type": "Feature", "properties": {"collection_times": [{"days": "Mon-Fri", "time": "4:30pm"}, {"days": "Sat", "time": "3:30pm"}, {"days": "Sun", "time": "Closed"}], "id": "7807000001", "name": "USPS COLLECTION BOX - BLUE BOX", "address": {"city": "SPRING BRANCH", "state": "TX", "street": "10650 US HIGHWAY 281 N", "postcode": "78070"}}},
{"geometry": {"type": "Point", "coordinates": [-98.4008497801, 29.8864939842]}, "type": "Feature", "properties": {"collection_times": [{"days": "Mon-Fri", "time": "2:00pm"}, {"days": "Sat-Sun", "time": "Closed"}], "id": "7807000003", "name": "USPS COLLECTION BOX - BLUE BOX", "address": {"city": "SPRING BRANCH", "state": "TX", "street": "174 STARGRASS", "postcode": "78070"}}},
{"geometry": {"type": "Point", "coordinates": [-98.4431553596, 29.7978073702]}, "type": "Feature", "properties": {"collection_times": [{"days": "Mon-Fri", "time": "10:15am"}, {"days": "Sat-Sun", "time": "Closed"}], "id": "7807000004", "name": "USPS COLLECTION BOX - BLUE BOX", "address": {"city": "SPRING BRANCH", "state": "TX", "street": "20475 STATE HIGHWAY 46 W", "postcode": "78070"}}},
{"geometry": {"type": "Point", "coordinates": [-98.4089244498, 29.8892965678]}, "type": "Feature", "properties": {"collection_times": [{"days": "Mon-Fri", "time": "4:30pm"}, {"days": "Sat", "time": "11:00am"}, {"days": "Sun", "time": "Closed"}], "id": "7807000005", "name": "USPS COLLECTION BOX - PO LOBBY", "address": {"city": "SPRING BRANCH", "state": "TX", "street": "10650 US HIGHWAY 281 N", "postcode": "78070"}}},
{"geometry": {"type": "Point", "coordinates": [-98.4089244498, 29.8892965678]}, "type": "Feature", "properties": {"collection_times": [{"days": "Mon-Fri", "time": "4:30pm"}, {"days": "Sat", "time": "11:00am"}, {"days": "Sun", "time": "Closed"}], "id": "7807000006", "name": "USPS COLLECTION BOX - PO LOBBY", "address": {"city": "SPRING BRANCH", "state": "TX", "street": "10650 US HIGHWAY 281 N", "postcode": "78070"}}},
{"geometry": {"type": "Point", "coordinates": [-98.4008497801, 29.8864939842]}, "type": "Feature", "properties": {"collection_times": [{"days": "Mon-Fri", "time": "1:15pm"}, {"days": "Sat-Sun", "time": "Closed"}], "id": "7807000007", "name": "USPS COLLECTION BOX - BLUE BOX", "address": {"city": "SPRING BRANCH", "state": "TX", "street": "17130 STATE HIGHWAY 46 W", "postcode": "78070"}}},
{"geometry": {"type": "Point", "coordinates": [-98.4089244498, 29.8892965678]}, "type": "Feature", "properties": {"collection_times": [{"days": "Mon-Fri", "time": "4:30pm"}, {"days": "Sat", "time": "3:30pm"}, {"days": "Sun", "time": "Closed"}], "id": "7807000008", "name": "USPS COLLECTION BOX - BLUE BOX", "address": {"city": "SPRING BRANCH", "state": "TX", "street": "10650 US HIGHWAY 281 N", "postcode": "78070"}}},
{"geometry": {"type": "Point", "coordinates": [-98.1819661448, 28.4616206615]}, "type": "Feature", "properties": {"collection_times": [{"days": "Mon-Fri", "time": "4:30pm"}, {"days": "Sat", "time": "11:00am"}, {"days": "Sun", "time": "Closed"}], "id": "7807100001", "name": "USPS COLLECTION BOX - BLUE BOX", "address": {"city": "THREE RIVERS", "state": "TX", "street": "110 E ALEXANDER", "postcode": "78071"}}},
{"geometry": {"type": "Point", "coordinates": [-98.1819661448, 28.4616206615]}, "type": "Feature", "properties": {"collection_times": [{"days": "Mon-Fri", "time": "4:30pm"}, {"days": "Sat", "time": "11:00am"}, {"days": "Sun", "time": "Closed"}], "id": "7807100004", "name": "USPS COLLECTION BOX - PO LOBBY", "address": {"city": "THREE RIVERS", "state": "TX", "street": "110 E ALEXANDER", "postcode": "78071"}}},
{"geometry": {"type": "Point", "coordinates": [-98.1819661448, 28.4616206615]}, "type": "Feature", "properties": {"collection_times": [{"days": "Mon-Fri", "time": "4:30pm"}, {"days": "Sat", "time": "11:00am"}, {"days": "Sun", "time": "Closed"}], "id": "7807100005", "name": "USPS COLLECTION BOX - PO LOBBY", "address": {"city": "THREE RIVERS", "state": "TX", "street": "110 E ALEXANDER", "postcode": "78071"}}},
{"geometry": {"type": "Point", "coordinates": [-98.6543491446, 28.3475515444]}, "type": "Feature", "properties": {"collection_times": [{"days": "Mon-Fri", "time": "4:00pm"}, {"days": "Sat", "time": "10:30am"}, {"days": "Sun", "time": "Closed"}], "id": "7807200002", "name": "USPS COLLECTION BOX - BLUE BOX", "address": {"city": "TILDEN", "state": "TX", "street": "306 RIVER ST", "postcode": "78072"}}},
{"geometry": {"type": "Point", "coordinates": [-98.6543491446, 28.3475515444]}, "type": "Feature", "properties": {"collection_times": [{"days": "Mon-Fri", "time": "3:30pm"}, {"days": "Sat", "time": "9:30am"}, {"days": "Sun", "time": "Closed"}], "id": "7807200003", "name": "USPS COLLECTION BOX - PO LOBBY", "address": {"city": "TILDEN", "state": "TX", "street": "306 RIVER ST", "postcode": "78072"}}},
{"geometry": {"type": "Point", "coordinates": [-98.6438956992, 29.2883749746]}, "type": "Feature", "properties": {"collection_times": [{"days": "Mon-Fri", "time": "4:30pm"}, {"days": "Sat-Sun", "time": "Closed"}], "id": "7807300009", "name": "USPS COLLECTION BOX - PO LOBBY", "address": {"city": "VON ORMY", "state": "TX", "street": "13636 IH 35 S", "postcode": "78073"}}},
{"geometry": {"type": "Point", "coordinates": [-98.7914989427, 29.9755267937]}, "type": "Feature", "properties": {"collection_times": [{"days": "Mon-Fri", "time": "12:30pm"}, {"days": "Sat", "time": "11:30am"}, {"days": "Sun", "time": "Closed"}], "id": "7807400001", "name": "USPS COLLECTION BOX - BLUE BOX", "address": {"city": "WARING", "state": "TX", "street": "538 WARING WELFARE RD", "postcode": "78074"}}},
{"geometry": {"type": "Point", "coordinates": [-98.7914989427, 29.9755267937]}, "type": "Feature", "properties": {"collection_times": [{"days": "Mon-Fri", "time": "12:30pm"}, {"days": "Sat", "time": "11:30am"}, {"days": "Sun", "time": "Closed"}], "id": "7807400002", "name": "USPS COLLECTION BOX - PO LOBBY", "address": {"city": "WARING", "state": "TX", "street": "538 WARING WELFARE RD", "postcode": "78074"}}},
{"geometry": {"type": "Point", "coordinates": [-99.2662587909, 26.9025140847]}, "type": "Feature", "properties": {"collection_times": [{"days": "Mon-Sat", "time": "11:30am"}, {"days": "Sun", "time": "Closed"}], "id": "7807600001", "name": "USPS COLLECTION BOX - BLUE BOX", "address": {"city": "ZAPATA", "state": "TX", "street": "200 E 7TH ST", "postcode": "78076"}}},
{"geometry": {"type": "Point", "coordinates": [-99.2680607659, 26.9029839001]}, "type": "Feature", "properties": {"collection_times": [{"days": "Mon-Sat", "time": "11:45am"}, {"days": "Sun", "time": "Closed"}], "id": "7807600008", "name": "USPS COLLECTION BOX - BLUE BOX", "address": {"city": "ZAPATA", "state": "TX", "street": "810 N US HIGHWAY 83", "postcode": "78076"}}},
{"geometry": {"type": "Point", "coordinates": [-99.2680607659, 26.9029839001]}, "type": "Feature", "properties": {"collection_times": [{"days": "Mon-Sat", "time": "11:45am"}, {"days": "Sun", "time": "Closed"}], "id": "7807600010", "name": "USPS COLLECTION BOX - PO LOBBY", "address": {"city": "ZAPATA", "state": "TX", "street": "810 N US HIGHWAY 83", "postcode": "78076"}}},
{"geometry": {"type": "Point", "coordinates": [-99.2680607659, 26.9029839001]}, "type": "Feature", "properties": {"collection_times": [{"days": "Mon-Sat", "time": "11:45am"}, {"days": "Sun", "time": "Closed"}], "id": "7807600011", "name": "USPS COLLECTION BOX - PO LOBBY", "address": {"city": "ZAPATA", "state": "TX", "street": "810 N US HIGHWAY 83", "postcode": "78076"}}}
]}
