{"type": "FeatureCollection", "features": [
{"geometry": {"type": "Point", "coordinates": [-98.2865884006, 29.3714446888]}, "type": "Feature", "properties": {"collection_times": [{"days": "Mon-Fri", "time": "5:00pm"}, {"days": "Sat", "time": "10:30am"}, {"days": "Sun", "time": "Closed"}], "id": "7810100003", "name": "USPS COLLECTION BOX - PO LOBBY", "address": {"city": "ADKINS", "state": "TX", "street": "10190 HWY 87 EAST", "postcode": "78101"}}},
{"geometry": {"type": "Point", "coordinates": [-98.2865884006, 29.3714446888]}, "type": "Feature", "properties": {"collection_times": [{"days": "Mon-Fri", "time": "5:00pm"}, {"days": "Sat", "time": "10:30am"}, {"days": "Sun", "time": "Closed"}], "id": "7810100004", "name": "USPS COLLECTION BOX - PO LOBBY", "address": {"city": "ADKINS", "state": "TX", "street": "10190 HWY 87 EAST", "postcode": "78101"}}},
{"geometry": {"type": "Point", "coordinates": [-98.2865884008, 29.3714446884]}, "type": "Feature", "properties": {"collection_times": [{"days": "Mon-Fri", "time": "5:00pm"}, {"days": "Sat", "time": "10:30am"}, {"days": "Sun", "time": "Closed"}], "id": "7810100005", "name": "USPS COLLECTION BOX - BLUE BOX", "address": {"city": "ADKINS", "state": "TX", "street": "10190 HWY 87 EAST", "postcode": "78101"}}},
{"geometry": {"type": "Point", "coordinates": [-98.2863227735, 29.3714899504]}, "type": "Feature", "properties": {"collection_times": [{"days": "Mon-Fri", "time": "5:00pm"}, {"days": "Sat", "time": "10:30am"}, {"days": "Sun", "time": "Closed"}], "id": "7810100006", "name": "USPS COLLECTION BOX - BLUE BOX", "address": {"city": "ADKINS", "state": "TX", "street": "10190 HWY 87 EAST", "postcode": "78101"}}},
{"geometry": {"type": "Point", "coordinates": [-97.7481823361, 28.4020840796]}, "type": "Feature", "properties": {"collection_times": [{"days": "Mon-Fri", "time": "4:30pm"}, {"days": "Sat", "time": "4:00pm"}, {"days": "Sun", "time": "Closed"}], "id": "7810200006", "name": "USPS COLLECTION BOX - BLUE BOX", "address": {"city": "BEEVILLE", "state": "TX", "street": "100 W CORPUS CHRISTI ST", "postcode": "78102"}}},
{"geometry": {"type": "Point", "coordinates": [-97.7560942813, 28.4192698013]}, "type": "Feature", "properties": {"collection_times": [{"days": "Mon-Sat", "time": "11:45am"}, {"days": "Sun", "time": "Closed"}], "id": "7810200015", "name": "USPS COLLECTION BOX - BLUE BOX", "address": {"city": "BEEVILLE", "state": "TX", "street": "2004 N SAINT MARYS ST", "postcode": "78102"}}},
{"geometry": {"type": "Point", "coordinates": [-97.7481823361, 28.4020840796]}, "type": "Feature", "properties": {"collection_times": [{"days": "Mon-Fri", "time": "4:30pm"}, {"days": "Sat", "time": "4:00pm"}, {"days": "Sun", "time": "Closed"}], "id": "7810200018", "name": "USPS COLLECTION BOX - BLUE BOX", "address": {"city": "BEEVILLE", "state": "TX", "street": "100 W CORPUS CHRISTI ST", "postcode": "78102"}}},
{"geometry": {"type": "Point", "coordinates": [-97.7481823361, 28.4020840796]}, "type": "Feature", "properties": {"collection_times": [{"days": "Mon-Fri", "time": "4:30pm"}, {"days": "Sat", "time": "4:00pm"}, {"days": "Sun", "time": "Closed"}], "id": "7810200019", "name": "USPS COLLECTION BOX - BLUE BOX", "address": {"city": "BEEVILLE", "state": "TX", "street": "100 W CORPUS CHRISTI ST", "postcode": "78102"}}},
{"geometry": {"type": "Point", "coordinates": [-97.7335409221, 28.4075566821]}, "type": "Feature", "properties": {"collection_times": [{"days": "Mon-Fri", "time": "11:45am"}, {"days": "Sat-Sun", "time": "Closed"}], "id": "7810200020", "name": "USPS COLLECTION BOX - BLUE BOX", "address": {"city": "BEEVILLE", "state": "TX", "street": "1400 E HOUSTON ST", "postcode": "78102"}}},
{"geometry": {"type": "Point", "coordinates": [-97.7482415861, 28.4021373959]}, "type": "Feature", "properties": {"collection_times": [{"days": "Mon-Fri", "time": "4:30pm"}, {"days": "Sat", "time": "4:00pm"}, {"days": "Sun", "time": "Closed"}], "id": "7810200024", "name": "USPS COLLECTION BOX - PO LOBBY", "address": {"city": "BEEVILLE", "state": "TX", "street": "111 N SAINT MARYS ST", "postcode": "78102"}}},
{"geometry": {"type": "Point", "coordinates": [-97.7482415861, 28.4021373959]}, "type": "Feature", "properties": {"collection_times": [{"days": "Mon-Fri", "time": "4:30pm"}, {"days": "Sat", "time": "4:00pm"}, {"days": "Sun", "time": "Closed"}], "id": "7810200025", "name": "USPS COLLECTION BOX - PO LOBBY", "address": {"city": "BEEVILLE", "state": "TX", "street": "111 N SAINT MARYS ST", "postcode": "78102"}}},
{"geometry": {"type": "Point", "coordinates": [-97.7482415861, 28.4021373959]}, "type": "Feature", "properties": {"collection_times": [{"days": "Mon-Fri", "time": "4:30pm"}, {"days": "Sat", "time": "4:00pm"}, {"days": "Sun", "time": "Closed"}], "id": "7810200028", "name": "USPS COLLECTION BOX - PO LOBBY", "address": {"city": "BEEVILLE", "state": "TX", "street": "111 N SAINT MARYS ST", "postcode": "78102"}}},
{"geometry": {"type": "Point", "coordinates": [-97.5921205418, 28.5302232942]}, "type": "Feature", "properties": {"collection_times": [{"days": "Mon-Fri", "time": "3:45pm"}, {"days": "Sat", "time": "11:45am"}, {"days": "Sun", "time": "Closed"}], "id": "7810700001", "name": "USPS COLLECTION BOX - BLUE BOX", "address": {"city": "BERCLAIR", "state": "TX", "street": "15864 US HIGHWAY 59 S", "postcode": "78107"}}},
{"geometry": {"type": "Point", "coordinates": [-97.5921205418, 28.5302232942]}, "type": "Feature", "properties": {"collection_times": [{"days": "Mon-Fri", "time": "3:15pm"}, {"days": "Sat", "time": "11:15am"}, {"days": "Sun", "time": "Closed"}], "id": "7810700002", "name": "USPS COLLECTION BOX - PO LOBBY", "address": {"city": "BERCLAIR", "state": "TX", "street": "15864 US HIGHWAY 59 S", "postcode": "78107"}}},
{"geometry": {"type": "Point", "coordinates": [-98.2326169479, 29.5710724775]}, "type": "Feature", "properties": {"collection_times": [{"days": "Mon-Fri", "time": "3:00pm"}, {"days": "Sat", "time": "11:00am"}, {"days": "Sun", "time": "Closed"}], "id": "7810800004", "name": "USPS COLLECTION BOX - BLUE BOX", "address": {"city": "CIBOLO", "state": "TX", "street": "725 FM 1103", "postcode": "78108"}}},
{"geometry": {"type": "Point", "coordinates": [-98.2326169479, 29.5710724775]}, "type": "Feature", "properties": {"collection_times": [{"days": "Mon-Fri", "time": "3:00pm"}, {"days": "Sat", "time": "11:00am"}, {"days": "Sun", "time": "Closed"}], "id": "7810800006", "name": "USPS COLLECTION BOX - BLUE BOX", "address": {"city": "CIBOLO", "state": "TX", "street": "725 FM 1103", "postcode": "78108"}}},
{"geometry": {"type": "Point", "coordinates": [-98.2326169479, 29.5710724775]}, "type": "Feature", "properties": {"collection_times": [{"days": "Mon-Fri", "time": "4:00pm"}, {"days": "Sat", "time": "11:00am"}, {"days": "Sun", "time": "Closed"}], "id": "7810800009", "name": "USPS COLLECTION BOX - PO LOBBY", "address": {"city": "CIBOLO", "state": "TX", "street": "725 FM 1103", "postcode": "78108"}}},
{"geometry": {"type": "Point", "coordinates": [-98.307708225, 29.5065457306]}, "type": "Feature", "properties": {"collection_times": [{"days": "Mon-Sat", "time": "3:30pm"}, {"days": "Sun", "time": "Closed"}], "id": "7810900014", "name": "USPS COLLECTION BOX - BLUE BOX", "address": {"city": "CONVERSE", "state": "TX", "street": "9155 SCHAEFER RD", "postcode": "78109"}}},
{"geometry": {"type": "Point", "coordinates": [-98.3304577089, 29.5350928963]}, "type": "Feature", "properties": {"collection_times": [{"days": "Mon-Sat", "time": "1:00pm"}, {"days": "Sun", "time": "Closed"}], "id": "7810900015", "name": "USPS COLLECTION BOX - BLUE BOX", "address": {"city": "CONVERSE", "state": "TX", "street": "10650 TOEPPERWEIN RD", "postcode": "78109"}}},
{"geometry": {"type": "Point", "coordinates": [-98.3139366351, 29.5015438769]}, "type": "Feature", "properties": {"collection_times": [{"days": "Mon-Fri", "time": "3:30pm"}, {"days": "Sat-Sun", "time": "Closed"}], "id": "7810900016", "name": "USPS COLLECTION BOX - EXPRESS", "address": {"city": "CONVERSE", "state": "TX", "street": "9155 SCHAEFER RD", "postcode": "78109"}}},
{"geometry": {"type": "Point", "coordinates": [-98.307708225, 29.5065457306]}, "type": "Feature", "properties": {"collection_times": [{"days": "Mon-Sat", "time": "3:30pm"}, {"days": "Sun", "time": "Closed"}], "id": "7810900018", "name": "USPS COLLECTION BOX - BLUE BOX", "address": {"city": "CONVERSE", "state": "TX", "street": "9155 SCHAEFER RD", "postcode": "78109"}}},
{"geometry": {"type": "Point", "coordinates": [-98.307708225, 29.5065457306]}, "type": "Feature", "properties": {"collection_times": [{"days": "Mon-Fri", "time": "5:00pm"}, {"days": "Sat", "time": "12:00pm"}, {"days": "Sun", "time": "Closed"}], "id": "7810900020", "name": "USPS COLLECTION BOX - PO LOBBY", "address": {"city": "CONVERSE", "state": "TX", "street": "9155 SCHAEFER RD", "postcode": "78109"}}},
{"geometry": {"type": "Point", "coordinates": [-98.307708225, 29.5065457306]}, "type": "Feature", "properties": {"collection_times": [{"days": "Mon-Fri", "time": "5:00pm"}, {"days": "Sat", "time": "12:00pm"}, {"days": "Sun", "time": "Closed"}], "id": "7810900021", "name": "USPS COLLECTION BOX - PO LOBBY", "address": {"city": "CONVERSE", "state": "TX", "street": "9155 SCHAEFER RD", "postcode": "78109"}}},
{"geometry": {"type": "Point", "coordinates": [-98.3283877835, 29.2584226513]}, "type": "Feature", "properties": {"collection_times": [{"days": "Mon-Fri", "time": "4:30pm"}, {"days": "Sat", "time": "11:00am"}, {"days": "Sun", "time": "Closed"}], "id": "7811200007", "name": "USPS COLLECTION BOX - PO LOBBY", "address": {"city": "ELMENDORF", "state": "TX", "street": "8302 FM 327", "postcode": "78112"}}},
{"geometry": {"type": "Point", "coordinates": [-98.3283877835, 29.2584226513]}, "type": "Feature", "properties": {"collection_times": [{"days": "Mon-Fri", "time": "4:30pm"}, {"days": "Sat", "time": "11:00am"}, {"days": "Sun", "time": "Closed"}], "id": "7811200010", "name": "USPS COLLECTION BOX - PO LOBBY", "address": {"city": "ELMENDORF", "state": "TX", "street": "8302 FM 327", "postcode": "78112"}}},
{"geometry": {"type": "Point", "coordinates": [-98.3283877835, 29.2584226513]}, "type": "Feature", "properties": {"collection_times": [{"days": "Mon-Fri", "time": "4:30pm"}, {"days": "Sat", "time": "11:00am"}, {"days": "Sun", "time": "Closed"}], "id": "7811200011", "name": "USPS COLLECTION BOX - BLUE BOX", "address": {"city": "ELMENDORF", "state": "TX", "street": "8302 FM 327", "postcode": "78112"}}},
{"geometry": {"type": "Point", "coordinates": [-98.0167710892, 28.980050089]}, "type": "Feature", "properties": {"collection_times": [{"days": "Mon-Fri", "time": "4:00pm"}, {"days": "Sat", "time": "11:00am"}, {"days": "Sun", "time": "Closed"}], "id": "7811300001", "name": "USPS COLLECTION BOX - BLUE BOX", "address": {"city": "FALLS CITY", "state": "TX", "street": "200 N IRVIN ST", "postcode": "78113"}}},
{"geometry": {"type": "Point", "coordinates": [-98.0167710892, 28.980050089]}, "type": "Feature", "properties": {"collection_times": [{"days": "Mon-Fri", "time": "4:00pm"}, {"days": "Sat", "time": "11:00am"}, {"days": "Sun", "time": "Closed"}], "id": "7811300004", "name": "USPS COLLECTION BOX - PO LOBBY", "address": {"city": "FALLS CITY", "state": "TX", "street": "200 N IRVIN ST", "postcode": "78113"}}},
{"geometry": {"type": "Point", "coordinates": [-98.156280164, 29.1445602043]}, "type": "Feature", "properties": {"collection_times": [{"days": "Mon-Sat", "time": "11:00am"}, {"days": "Sun", "time": "Closed"}], "id": "7811400001", "name": "USPS COLLECTION BOX - BLUE BOX", "address": {"city": "FLORESVILLE", "state": "TX", "street": "925 10TH ST", "postcode": "78114"}}},
{"geometry": {"type": "Point", "coordinates": [-98.1424582534, 29.1297545572]}, "type": "Feature", "properties": {"collection_times": [{"days": "Mon-Fri", "time": "4:30pm"}, {"days": "Sat", "time": "12:00pm"}, {"days": "Sun", "time": "Closed"}], "id": "7811400006", "name": "USPS COLLECTION BOX - BLUE BOX", "address": {"city": "FLORESVILLE", "state": "TX", "street": "141 PALOMA DR", "postcode": "78114"}}},
{"geometry": {"type": "Point", "coordinates": [-98.1424582534, 29.1297545572]}, "type": "Feature", "properties": {"collection_times": [{"days": "Mon-Fri", "time": "4:30pm"}, {"days": "Sat", "time": "12:00pm"}, {"days": "Sun", "time": "Closed"}], "id": "7811400007", "name": "USPS COLLECTION BOX - BLUE BOX", "address": {"city": "FLORESVILLE", "state": "TX", "street": "141 PALOMA DR", "postcode": "78114"}}},
{"geometry": {"type": "Point", "coordinates": [-98.254660379, 29.2367671674]}, "type": "Feature", "properties": {"collection_times": [{"days": "Mon-Sat", "time": "10:30am"}, {"days": "Sun", "time": "Closed"}], "id": "7811400018", "name": "USPS COLLECTION BOX - BLUE BOX", "address": {"city": "FLORESVILLE", "state": "TX", "street": "7020 US HIGHWAY 181 N", "postcode": "78114"}}},
{"geometry": {"type": "Point", "coordinates": [-98.1424582534, 29.1297545572]}, "type": "Feature", "properties": {"collection_times": [{"days": "Mon-Fri", "time": "4:30pm"}, {"days": "Sat", "time": "12:00pm"}, {"days": "Sun", "time": "Closed"}], "id": "7811400019", "name": "USPS COLLECTION BOX - PO LOBBY", "address": {"city": "FLORESVILLE", "state": "TX", "street": "141 PALOMA DR", "postcode": "78114"}}},
{"geometry": {"type": "Point", "coordinates": [-98.1424582534, 29.1297545572]}, "type": "Feature", "properties": {"collection_times": [{"days": "Mon-Fri", "time": "4:30pm"}, {"days": "Sat", "time": "12:00pm"}, {"days": "Sun", "time": "Closed"}], "id": "7811400020", "name": "USPS COLLECTION BOX - PO LOBBY", "address": {"city": "FLORESVILLE", "state": "TX", "street": "141 PALOMA DR", "postcode": "78114"}}},
{"geometry": {"type": "Point", "coordinates": [-97.7897545784, 29.0804009788]}, "type": "Feature", "properties": {"collection_times": [{"days": "Mon-Fri", "time": "11:30am"}, {"days": "Sat", "time": "11:15am"}, {"days": "Sun", "time": "Closed"}], "id": "7811600001", "name": "USPS COLLECTION BOX - BLUE BOX", "address": {"city": "GILLETT", "state": "TX", "street": "21694 FM 887", "postcode": "78116"}}},
{"geometry": {"type": "Point", "coordinates": [-97.7897545784, 29.0804009788]}, "type": "Feature", "properties": {"collection_times": [{"days": "Mon-Fri", "time": "11:30am"}, {"days": "Sat", "time": "11:15am"}, {"days": "Sun", "time": "Closed"}], "id": "7811600002", "name": "USPS COLLECTION BOX - PO LOBBY", "address": {"city": "GILLETT", "state": "TX", "street": "21694 FM 887", "postcode": "78116"}}},
{"geometry": {"type": "Point", "coordinates": [-97.8979584962, 28.8829172709]}, "type": "Feature", "properties": {"collection_times": [{"days": "Mon-Fri", "time": "3:45pm"}, {"days": "Sat", "time": "2:30pm"}, {"days": "Sun", "time": "Closed"}], "id": "7811800004", "name": "USPS COLLECTION BOX - BLUE BOX", "address": {"city": "KARNES CITY", "state": "TX", "street": "404 E WALL ST", "postcode": "78118"}}},
{"geometry": {"type": "Point", "coordinates": [-97.8999772836, 28.884948231]}, "type": "Feature", "properties": {"collection_times": [{"days": "Mon-Fri", "time": "2:30pm"}, {"days": "Sat-Sun", "time": "Closed"}], "id": "7811800005", "name": "USPS COLLECTION BOX - BLUE BOX", "address": {"city": "KARNES CITY", "state": "TX", "street": "200 E CALVERT AVE", "postcode": "78118"}}},
{"geometry": {"type": "Point", "coordinates": [-97.8979584962, 28.8829172709]}, "type": "Feature", "properties": {"collection_times": [{"days": "Mon-Fri", "time": "3:45pm"}, {"days": "Sat", "time": "2:30pm"}, {"days": "Sun", "time": "Closed"}], "id": "7811800006", "name": "USPS COLLECTION BOX - BLUE BOX", "address": {"city": "KARNES CITY", "state": "TX", "street": "404 E WALL ST", "postcode": "78118"}}},
{"geometry": {"type": "Point", "coordinates": [-97.8979584962, 28.8829172709]}, "type": "Feature", "properties": {"collection_times": [{"days": "Mon-Fri", "time": "4:15pm"}, {"days": "Sat", "time": "2:30pm"}, {"days": "Sun", "time": "Closed"}], "id": "7811800011", "name": "USPS COLLECTION BOX - PO LOBBY", "address": {"city": "KARNES CITY", "state": "TX", "street": "404 E WALL ST", "postcode": "78118"}}},
{"geometry": {"type": "Point", "coordinates": [-97.8582061102, 28.8135913799]}, "type": "Feature", "properties": {"collection_times": [{"days": "Mon-Sat", "time": "1:15pm"}, {"days": "Sun", "time": "Closed"}], "id": "7811900005", "name": "USPS COLLECTION BOX - BLUE BOX", "address": {"city": "KENEDY", "state": "TX", "street": "113 S SUNSET STRIP ST", "postcode": "78119"}}},
{"geometry": {"type": "Point", "coordinates": [-97.8486451122, 28.8178413733]}, "type": "Feature", "properties": {"collection_times": [{"days": "Mon-Fri", "time": "3:45pm"}, {"days": "Sat", "time": "2:00pm"}, {"days": "Sun", "time": "Closed"}], "id": "7811900006", "name": "USPS COLLECTION BOX - BLUE BOX", "address": {"city": "KENEDY", "state": "TX", "street": "223 S 2ND ST", "postcode": "78119"}}},
{"geometry": {"type": "Point", "coordinates": [-97.8486451122, 28.8178413733]}, "type": "Feature", "properties": {"collection_times": [{"days": "Mon-Fri", "time": "4:30pm"}, {"days": "Sat", "time": "2:00pm"}, {"days": "Sun", "time": "Closed"}], "id": "7811900009", "name": "USPS COLLECTION BOX - PO LOBBY", "address": {"city": "KENEDY", "state": "TX", "street": "223 S 2ND ST", "postcode": "78119"}}},
{"geometry": {"type": "Point", "coordinates": [-98.1699298233, 29.3035166368]}, "type": "Feature", "properties": {"collection_times": [{"days": "Mon-Fri", "time": "4:00pm"}, {"days": "Sat", "time": "10:00am"}, {"days": "Sun", "time": "Closed"}], "id": "7812100001", "name": "USPS COLLECTION BOX - BLUE BOX", "address": {"city": "LA VERNIA", "state": "TX", "street": "2560 FM 775", "postcode": "78121"}}},
{"geometry": {"type": "Point", "coordinates": [-98.1699298233, 29.3035166368]}, "type": "Feature", "properties": {"collection_times": [{"days": "Mon-Fri", "time": "4:00pm"}, {"days": "Sat", "time": "10:00am"}, {"days": "Sun", "time": "Closed"}], "id": "7812100002", "name": "USPS COLLECTION BOX - BLUE BOX", "address": {"city": "LA VERNIA", "state": "TX", "street": "2560 FM 775", "postcode": "78121"}}},
{"geometry": {"type": "Point", "coordinates": [-98.1699298233, 29.3035166368]}, "type": "Feature", "properties": {"collection_times": [{"days": "Mon-Fri", "time": "4:00pm"}, {"days": "Sat", "time": "10:00am"}, {"days": "Sun", "time": "Closed"}], "id": "7812100004", "name": "USPS COLLECTION BOX - PO LOBBY", "address": {"city": "LA VERNIA", "state": "TX", "street": "2560 FM 775", "postcode": "78121"}}},
{"geometry": {"type": "Point", "coordinates": [-97.7997512219, 29.400152908]}, "type": "Feature", "properties": {"collection_times": [{"days": "Mon-Sat", "time": "10:00am"}, {"days": "Sun", "time": "Closed"}], "id": "7812200002", "name": "USPS COLLECTION BOX - PO LOBBY", "address": {"city": "LEESVILLE", "state": "TX", "street": "9606 N STATE HIGHWAY 80", "postcode": "78122"}}},
{"geometry": {"type": "Point", "coordinates": [-98.0365258445, 29.5898736592]}, "type": "Feature", "properties": {"collection_times": [{"days": "Mon-Fri", "time": "3:45pm"}, {"days": "Sat", "time": "10:00am"}, {"days": "Sun", "time": "Closed"}], "id": "7812300001", "name": "USPS COLLECTION BOX - BLUE BOX", "address": {"city": "MCQUEENEY", "state": "TX", "street": "4000 FM 78", "postcode": "78123"}}},
{"geometry": {"type": "Point", "coordinates": [-98.0374291751, 29.6048637627]}, "type": "Feature", "properties": {"collection_times": [{"days": "Mon-Fri", "time": "3:45pm"}, {"days": "Sat", "time": "10:00am"}, {"days": "Sun", "time": "Closed"}], "id": "7812300003", "name": "USPS COLLECTION BOX - PO LOBBY", "address": {"city": "MCQUEENEY", "state": "TX", "street": "4000 FM 78", "postcode": "78123"}}},
{"geometry": {"type": "Point", "coordinates": [-98.0374291751, 29.6048637627]}, "type": "Feature", "properties": {"collection_times": [{"days": "Mon-Fri", "time": "3:45pm"}, {"days": "Sat", "time": "10:00am"}, {"days": "Sun", "time": "Closed"}], "id": "7812300004", "name": "USPS COLLECTION BOX - PO LOBBY", "address": {"city": "MCQUEENEY", "state": "TX", "street": "4000 FM 78", "postcode": "78123"}}},
{"geometry": {"type": "Point", "coordinates": [-98.151248, 29.555166]}, "type": "Feature", "properties": {"collection_times": [{"days": "Mon-Fri", "time": "4:00pm"}, {"days": "Sat", "time": "10:30am"}, {"days": "Sun", "time": "Closed"}], "id": "7812400003", "name": "USPS COLLECTION BOX - BLUE BOX", "address": {"city": "MARION", "state": "TX", "street": "413 E SAN ANTONIO ST", "postcode": "78124"}}},
{"geometry": {"type": "Point", "coordinates": [-98.1513940918, 29.5551051422]}, "type": "Feature", "properties": {"collection_times": [{"days": "Mon-Fri", "time": "4:00pm"}, {"days": "Sat", "time": "10:30am"}, {"days": "Sun", "time": "Closed"}], "id": "7812400005", "name": "USPS COLLECTION BOX - PO LOBBY", "address": {"city": "MARION", "state": "TX", "street": "413 E SAN ANTONIO ST", "postcode": "78124"}}},
{"geometry": {"type": "Point", "coordinates": [-98.109256461, 29.6971820945]}, "type": "Feature", "properties": {"collection_times": [{"days": "Mon-Fri", "time": "3:15pm"}, {"days": "Sat", "time": "2:00pm"}, {"days": "Sun", "time": "Closed"}], "id": "7813000034", "name": "USPS COLLECTION BOX - BLUE BOX", "address": {"city": "NEW BRAUNFELS", "state": "TX", "street": "651 N BUSINESS IH 35", "postcode": "78130"}}},
{"geometry": {"type": "Point", "coordinates": [-98.126322761, 29.7025549333]}, "type": "Feature", "properties": {"collection_times": [{"days": "Mon-Fri", "time": "3:15pm"}, {"days": "Sat", "time": "2:30pm"}, {"days": "Sun", "time": "Closed"}], "id": "7813000037", "name": "USPS COLLECTION BOX - BLUE BOX", "address": {"city": "NEW BRAUNFELS", "state": "TX", "street": "139 N CASTELL AVE", "postcode": "78130"}}},
{"geometry": {"type": "Point", "coordinates": [-98.1365631464, 29.7046362626]}, "type": "Feature", "properties": {"collection_times": [{"days": "Mon-Fri", "time": "2:45pm"}, {"days": "Sat", "time": "2:30pm"}, {"days": "Sun", "time": "Closed"}], "id": "7813000038", "name": "USPS COLLECTION BOX - BLUE BOX", "address": {"city": "NEW BRAUNFELS", "state": "TX", "street": "351 LANDA ST", "postcode": "78130"}}},
{"geometry": {"type": "Point", "coordinates": [-98.1419165261, 29.7058293637]}, "type": "Feature", "properties": {"collection_times": [{"days": "Mon-Fri", "time": "2:45pm"}, {"days": "Sat", "time": "2:30pm"}, {"days": "Sun", "time": "Closed"}], "id": "7813000039", "name": "USPS COLLECTION BOX - BLUE BOX", "address": {"city": "NEW BRAUNFELS", "state": "TX", "street": "1000 N WALNUT AVE", "postcode": "78130"}}},
{"geometry": {"type": "Point", "coordinates": [-98.1036168546, 29.7201578262]}, "type": "Feature", "properties": {"collection_times": [{"days": "Mon-Fri", "time": "3:30pm"}, {"days": "Sat", "time": "2:00pm"}, {"days": "Sun", "time": "Closed"}], "id": "7813000043", "name": "USPS COLLECTION BOX - BLUE BOX", "address": {"city": "NEW BRAUNFELS", "state": "TX", "street": "1308 COMMON ST STE 205", "postcode": "78130"}}},
{"geometry": {"type": "Point", "coordinates": [-98.109256461, 29.6971820945]}, "type": "Feature", "properties": {"collection_times": [{"days": "Mon-Fri", "time": "3:15pm"}, {"days": "Sat", "time": "2:00pm"}, {"days": "Sun", "time": "Closed"}], "id": "7813000047", "name": "USPS COLLECTION BOX - BLUE BOX", "address": {"city": "NEW BRAUNFELS", "state": "TX", "street": "555 S IH 35", "postcode": "78130"}}},
{"geometry": {"type": "Point", "coordinates": [-98.109256461, 29.6971820945]}, "type": "Feature", "properties": {"collection_times": [{"days": "Mon-Fri", "time": "2:45pm"}, {"days": "Sat", "time": "2:00pm"}, {"days": "Sun", "time": "Closed"}], "id": "7813000050", "name": "USPS COLLECTION BOX - BLUE BOX", "address": {"city": "NEW BRAUNFELS", "state": "TX", "street": "1160 S IH 35", "postcode": "78130"}}},
{"geometry": {"type": "Point", "coordinates": [-98.1263073825, 29.7010975279]}, "type": "Feature", "properties": {"collection_times": [{"days": "Mon-Fri", "time": "3:00pm"}, {"days": "Sat", "time": "2:30pm"}, {"days": "Sun", "time": "Closed"}], "id": "7813000056", "name": "USPS COLLECTION BOX - BLUE BOX", "address": {"city": "NEW BRAUNFELS", "state": "TX", "street": "297 W SAN ANTONIO ST", "postcode": "78130"}}},
{"geometry": {"type": "Point", "coordinates": [-98.1161591093, 29.6971977198]}, "type": "Feature", "properties": {"collection_times": [{"days": "Mon-Fri", "time": "5:15pm"}, {"days": "Sat", "time": "3:00pm"}, {"days": "Sun", "time": "Closed"}], "id": "7813000065", "name": "USPS COLLECTION BOX - BLUE BOX", "address": {"city": "NEW BRAUNFELS", "state": "TX", "street": "686 S SEGUIN AVE", "postcode": "78130"}}},
{"geometry": {"type": "Point", "coordinates": [-98.1160014497, 29.6971067471]}, "type": "Feature", "properties": {"collection_times": [{"days": "Mon-Fri", "time": "5:15pm"}, {"days": "Sat", "time": "3:00pm"}, {"days": "Sun", "time": "Closed"}], "id": "7813000066", "name": "USPS COLLECTION BOX - BLUE BOX", "address": {"city": "NEW BRAUNFELS", "state": "TX", "street": "686 S SEGUIN AVE", "postcode": "78130"}}},
{"geometry": {"type": "Point", "coordinates": [-98.1160014497, 29.6971067471]}, "type": "Feature", "properties": {"collection_times": [{"days": "Mon-Fri", "time": "5:15pm"}, {"days": "Sat", "time": "3:00pm"}, {"days": "Sun", "time": "Closed"}], "id": "7813000067", "name": "USPS COLLECTION BOX - BLUE BOX", "address": {"city": "NEW BRAUNFELS", "state": "TX", "street": "686 S SEGUIN AVE", "postcode": "78130"}}},
{"geometry": {"type": "Point", "coordinates": [-98.1160014497, 29.6971067471]}, "type": "Feature", "properties": {"collection_times": [{"days": "Mon-Fri", "time": "5:15pm"}, {"days": "Sat", "time": "3:00pm"}, {"days": "Sun", "time": "Closed"}], "id": "7813000068", "name": "USPS COLLECTION BOX - BLUE BOX", "address": {"city": "NEW BRAUNFELS", "state": "TX", "street": "686 S SEGUIN AVE", "postcode": "78130"}}},
{"geometry": {"type": "Point", "coordinates": [-98.109256461, 29.6971820945]}, "type": "Feature", "properties": {"collection_times": [{"days": "Mon-Fri", "time": "5:00pm"}, {"days": "Sat", "time": "3:00pm"}, {"days": "Sun", "time": "Closed"}], "id": "7813000069", "name": "USPS COLLECTION BOX - EXPRESS", "address": {"city": "NEW BRAUNFELS", "state": "TX", "street": "686 S SEGUIN AVE", "postcode": "78130"}}},
{"geometry": {"type": "Point", "coordinates": [-98.1365631464, 29.7046362626]}, "type": "Feature", "properties": {"collection_times": [{"days": "Mon-Fri", "time": "2:45pm"}, {"days": "Sat", "time": "2:30pm"}, {"days": "Sun", "time": "Closed"}], "id": "7813000071", "name": "USPS COLLECTION BOX - BLUE BOX", "address": {"city": "NEW BRAUNFELS", "state": "TX", "street": "351 LANDA ST", "postcode": "78130"}}},
{"geometry": {"type": "Point", "coordinates": [-98.1419165261, 29.7058293637]}, "type": "Feature", "properties": {"collection_times": [{"days": "Mon-Fri", "time": "2:45pm"}, {"days": "Sat", "time": "2:30pm"}, {"days": "Sun", "time": "Closed"}], "id": "7813000073", "name": "USPS COLLECTION BOX - BLUE BOX", "address": {"city": "NEW BRAUNFELS", "state": "TX", "street": "1000 N WALNUT AVE", "postcode": "78130"}}},
{"geometry": {"type": "Point", "coordinates": [-98.1160014497, 29.6971067471]}, "type": "Feature", "properties": {"collection_times": [{"days": "Mon-Fri", "time": "5:00pm"}, {"days": "Sat", "time": "3:00pm"}, {"days": "Sun", "time": "Closed"}], "id": "7813000074", "name": "USPS COLLECTION BOX - PO LOBBY", "address": {"city": "NEW BRAUNFELS", "state": "TX", "street": "686 S SEGUIN AVE", "postcode": "78130"}}},
{"geometry": {"type": "Point", "coordinates": [-98.1160014497, 29.6971067471]}, "type": "Feature", "properties": {"collection_times": [{"days": "Mon-Fri", "time": "5:00pm"}, {"days": "Sat", "time": "3:00pm"}, {"days": "Sun", "time": "Closed"}], "id": "7813000075", "name": "USPS COLLECTION BOX - PO LOBBY", "address": {"city": "NEW BRAUNFELS", "state": "TX", "street": "686 S SEGUIN AVE", "postcode": "78130"}}},
{"geometry": {"type": "Point", "coordinates": [-98.1160014497, 29.6971067471]}, "type": "Feature", "properties": {"collection_times": [{"days": "Mon-Fri", "time": "5:00pm"}, {"days": "Sat", "time": "3:00pm"}, {"days": "Sun", "time": "Closed"}], "id": "7813000076", "name": "USPS COLLECTION BOX - PO LOBBY", "address": {"city": "NEW BRAUNFELS", "state": "TX", "street": "686 S SEGUIN AVE", "postcode": "78130"}}},
{"geometry": {"type": "Point", "coordinates": [-98.1268811176, 29.6883121074]}, "type": "Feature", "properties": {"collection_times": [{"days": "Mon-Fri", "time": "3:00pm"}, {"days": "Sat", "time": "2:00pm"}, {"days": "Sun", "time": "Closed"}], "id": "7813000078", "name": "USPS COLLECTION BOX - BLUE BOX", "address": {"city": "NEW BRAUNFELS", "state": "TX", "street": "651 S WALNUT AVE", "postcode": "78130"}}},
{"geometry": {"type": "Point", "coordinates": [-98.1226846394, 29.7150652174]}, "type": "Feature", "properties": {"collection_times": [{"days": "Mon-Fri", "time": "3:45pm"}, {"days": "Sat", "time": "2:00pm"}, {"days": "Sun", "time": "Closed"}], "id": "7813000080", "name": "USPS COLLECTION BOX - BLUE BOX", "address": {"city": "NEW BRAUNFELS", "state": "TX", "street": "143 E GARZA ST", "postcode": "78130"}}},
{"geometry": {"type": "Point", "coordinates": [-98.109256461, 29.6971820945]}, "type": "Feature", "properties": {"collection_times": [{"days": "Mon-Fri", "time": "3:15pm"}, {"days": "Sat", "time": "2:30pm"}, {"days": "Sun", "time": "Closed"}], "id": "7813000081", "name": "USPS COLLECTION BOX - BLUE BOX", "address": {"city": "NEW BRAUNFELS", "state": "TX", "street": "301 MAIN PLZ", "postcode": "78130"}}},
{"geometry": {"type": "Point", "coordinates": [-98.1160014497, 29.6971067471]}, "type": "Feature", "properties": {"collection_times": [{"days": "Mon-Fri", "time": "5:00pm"}, {"days": "Sat", "time": "3:00pm"}, {"days": "Sun", "time": "Closed"}], "id": "7813000082", "name": "USPS COLLECTION BOX - APC", "address": {"city": "NEW BRAUNFELS", "state": "TX", "street": "686 S SEGUIN AVE", "postcode": "78130"}}},
{"geometry": {"type": "Point", "coordinates": [-98.0974313542, 29.7439419357]}, "type": "Feature", "properties": {"collection_times": [{"days": "Mon-Fri", "time": "3:30pm"}, {"days": "Sat", "time": "2:30pm"}, {"days": "Sun", "time": "Closed"}], "id": "7813000083", "name": "USPS COLLECTION BOX - BLUE BOX", "address": {"city": "NEW BRAUNFELS", "state": "TX", "street": "1293 FM 306", "postcode": "78130"}}},
{"geometry": {"type": "Point", "coordinates": [-98.1208241544, 29.7003740912]}, "type": "Feature", "properties": {"collection_times": [{"days": "Mon-Fri", "time": "3:30pm"}, {"days": "Sat", "time": "2:30pm"}, {"days": "Sun", "time": "Closed"}], "id": "7813000084", "name": "USPS COLLECTION BOX - BLUE BOX", "address": {"city": "NEW BRAUNFELS", "state": "TX", "street": "390 S SEGUIN AVE", "postcode": "78130"}}},
{"geometry": {"type": "Point", "coordinates": [-98.170680904, 29.850456287]}, "type": "Feature", "properties": {"collection_times": [{"days": "Mon-Fri", "time": "4:00pm"}, {"days": "Sat", "time": "1:00pm"}, {"days": "Sun", "time": "Closed"}], "id": "7813300009", "name": "USPS COLLECTION BOX - BLUE BOX", "address": {"city": "CANYON LAKE", "state": "TX", "street": "1300 FM 2673", "postcode": "78133"}}},
{"geometry": {"type": "Point", "coordinates": [-98.170680904, 29.850456287]}, "type": "Feature", "properties": {"collection_times": [{"days": "Mon-Fri", "time": "4:00pm"}, {"days": "Sat", "time": "1:00pm"}, {"days": "Sun", "time": "Closed"}], "id": "7813300010", "name": "USPS COLLECTION BOX - EXPRESS", "address": {"city": "CANYON LAKE", "state": "TX", "street": "1300 FM 2673", "postcode": "78133"}}},
{"geometry": {"type": "Point", "coordinates": [-98.170680904, 29.850456287]}, "type": "Feature", "properties": {"collection_times": [{"days": "Mon-Fri", "time": "4:00pm"}, {"days": "Sat", "time": "1:00pm"}, {"days": "Sun", "time": "Closed"}], "id": "7813300011", "name": "USPS COLLECTION BOX - BLUE BOX", "address": {"city": "CANYON LAKE", "state": "TX", "street": "1300 FM 2673", "postcode": "78133"}}},
{"geometry": {"type": "Point", "coordinates": [-98.170680904, 29.850456287]}, "type": "Feature", "properties": {"collection_times": [{"days": "Mon-Fri", "time": "4:30pm"}, {"days": "Sat", "time": "1:00pm"}, {"days": "Sun", "time": "Closed"}], "id": "7813300012", "name": "USPS COLLECTION BOX - PO LOBBY", "address": {"city": "CANYON LAKE", "state": "TX", "street": "1300 FM 2673", "postcode": "78133"}}},
{"geometry": {"type": "Point", "coordinates": [-98.170680904, 29.850456287]}, "type": "Feature", "properties": {"collection_times": [{"days": "Mon-Fri", "time": "4:30pm"}, {"days": "Sat", "time": "1:00pm"}, {"days": "Sun", "time": "Closed"}], "id": "7813300013", "name": "USPS COLLECTION BOX - PO LOBBY", "address": {"city": "CANYON LAKE", "state": "TX", "street": "1300 FM 2673", "postcode": "78133"}}},
{"geometry": {"type": "Point", "coordinates": [-98.2677513047, 29.8436595806]}, "type": "Feature", "properties": {"collection_times": [{"days": "Mon-Sat", "time": "12:00pm"}, {"days": "Sun", "time": "Closed"}], "id": "7813300014", "name": "USPS COLLECTION BOX - BLUE BOX", "address": {"city": "CANYON LAKE", "state": "TX", "street": "8079 FM 2673", "postcode": "78133"}}},
{"geometry": {"type": "Point", "coordinates": [-98.2143575035, 29.9132500451]}, "type": "Feature", "properties": {"collection_times": [{"days": "Mon-Sat", "time": "12:00pm"}, {"days": "Sun", "time": "Closed"}], "id": "7813300015", "name": "USPS COLLECTION BOX - BLUE BOX", "address": {"city": "CANYON LAKE", "state": "TX", "street": "18134 FM 306", "postcode": "78133"}}},
{"geometry": {"type": "Point", "coordinates": [-97.7647667454, 29.2684257288]}, "type": "Feature", "properties": {"collection_times": [{"days": "Mon-Fri", "time": "4:00pm"}, {"days": "Sat", "time": "10:30am"}, {"days": "Sun", "time": "Closed"}], "id": "7814000002", "name": "USPS COLLECTION BOX - BLUE BOX", "address": {"city": "NIXON", "state": "TX", "street": "109 E 2ND ST", "postcode": "78140"}}},
{"geometry": {"type": "Point", "coordinates": [-97.7647667454, 29.2684257288]}, "type": "Feature", "properties": {"collection_times": [{"days": "Mon-Fri", "time": "4:15pm"}, {"days": "Sat", "time": "10:30am"}, {"days": "Sun", "time": "Closed"}], "id": "7814000004", "name": "USPS COLLECTION BOX - PO LOBBY", "address": {"city": "NIXON", "state": "TX", "street": "109 E 2ND ST", "postcode": "78140"}}},
{"geometry": {"type": "Point", "coordinates": [-97.7647667454, 29.2684257288]}, "type": "Feature", "properties": {"collection_times": [{"days": "Mon-Fri", "time": "4:15pm"}, {"days": "Sat", "time": "10:30am"}, {"days": "Sun", "time": "Closed"}], "id": "7814000005", "name": "USPS COLLECTION BOX - PO LOBBY", "address": {"city": "NIXON", "state": "TX", "street": "109 E 2ND ST", "postcode": "78140"}}},
{"geometry": {"type": "Point", "coordinates": [-97.6118920966, 28.9231500465]}, "type": "Feature", "properties": {"collection_times": [{"days": "Mon-Sat", "time": "4:45pm"}, {"days": "Sun", "time": "Closed"}], "id": "7814100002", "name": "USPS COLLECTION BOX - BLUE BOX", "address": {"city": "NORDHEIM", "state": "TX", "street": "301 BROADWAY", "postcode": "78141"}}},
{"geometry": {"type": "Point", "coordinates": [-97.6118920966, 28.9231500465]}, "type": "Feature", "properties": {"collection_times": [{"days": "Mon-Sat", "time": "4:45pm"}, {"days": "Sun", "time": "Closed"}], "id": "7814100003", "name": "USPS COLLECTION BOX - BLUE BOX", "address": {"city": "NORDHEIM", "state": "TX", "street": "301 BROADWAY", "postcode": "78141"}}},
{"geometry": {"type": "Point", "coordinates": [-97.6118920966, 28.9231500465]}, "type": "Feature", "properties": {"collection_times": [{"days": "Mon-Fri", "time": "11:30am"}, {"days": "Sat", "time": "7:15am"}, {"days": "Sun", "time": "Closed"}], "id": "7814100004", "name": "USPS COLLECTION BOX - PO LOBBY", "address": {"city": "NORDHEIM", "state": "TX", "street": "301 BROADWAY", "postcode": "78141"}}},
{"geometry": {"type": "Point", "coordinates": [-97.7825028919, 28.5296578218]}, "type": "Feature", "properties": {"collection_times": [{"days": "Mon-Sat", "time": "4:15pm"}, {"days": "Sun", "time": "Closed"}], "id": "7814200001", "name": "USPS COLLECTION BOX - BLUE BOX", "address": {"city": "NORMANNA", "state": "TX", "street": "112 S BEE ST", "postcode": "78142"}}},
{"geometry": {"type": "Point", "coordinates": [-97.7825028919, 28.5296578218]}, "type": "Feature", "properties": {"collection_times": [{"days": "Mon-Fri", "time": "11:30am"}, {"days": "Sat", "time": "8:30am"}, {"days": "Sun", "time": "Closed"}], "id": "7814200002", "name": "USPS COLLECTION BOX - PO LOBBY", "address": {"city": "NORMANNA", "state": "TX", "street": "112 S BEE ST", "postcode": "78142"}}},
{"geometry": {"type": "Point", "coordinates": [-97.8382360256, 29.2499276254]}, "type": "Feature", "properties": {"collection_times": [{"days": "Mon-Sat", "time": "11:30am"}, {"days": "Sun", "time": "Closed"}], "id": "7814300001", "name": "USPS COLLECTION BOX - BLUE BOX", "address": {"city": "PANDORA", "state": "TX", "street": "8547 FM 1107", "postcode": "78143"}}},
{"geometry": {"type": "Point", "coordinates": [-97.8382360256, 29.2499276254]}, "type": "Feature", "properties": {"collection_times": [{"days": "Mon-Fri", "time": "9:45am"}, {"days": "Sat", "time": "11:30am"}, {"days": "Sun", "time": "Closed"}], "id": "7814300002", "name": "USPS COLLECTION BOX - PO LOBBY", "address": {"city": "PANDORA", "state": "TX", "street": "8547 FM 1107", "postcode": "78143"}}},
{"geometry": {"type": "Point", "coordinates": [-97.8982840833, 28.9576820939]}, "type": "Feature", "properties": {"collection_times": [{"days": "Mon-Sat", "time": "11:15am"}, {"days": "Sun", "time": "Closed"}], "id": "7814400001", "name": "USPS COLLECTION BOX - BLUE BOX", "address": {"city": "PANNA MARIA", "state": "TX", "street": "13870 N FM 81", "postcode": "78144"}}},
{"geometry": {"type": "Point", "coordinates": [-97.8982840833, 28.9576820939]}, "type": "Feature", "properties": {"collection_times": [{"days": "Mon-Sat", "time": "11:15am"}, {"days": "Sun", "time": "Closed"}], "id": "7814400002", "name": "USPS COLLECTION BOX - PO LOBBY", "address": {"city": "PANNA MARIA", "state": "TX", "street": "13870 N FM 81", "postcode": "78144"}}},
{"geometry": {"type": "Point", "coordinates": [-98.002630797, 28.6525145226]}, "type": "Feature", "properties": {"collection_times": [{"days": "Mon-Sat", "time": "9:45am"}, {"days": "Sun", "time": "Closed"}], "id": "7814500002", "name": "USPS COLLECTION BOX - PO LOBBY", "address": {"city": "PAWNEE", "state": "TX", "street": "14132 FM 673", "postcode": "78145"}}},
{"geometry": {"type": "Point", "coordinates": [-97.8034331002, 28.6177877716]}, "type": "Feature", "properties": {"collection_times": [{"days": "Mon-Sat", "time": "4:00pm"}, {"days": "Sun", "time": "Closed"}], "id": "7814600001", "name": "USPS COLLECTION BOX - BLUE BOX", "address": {"city": "PETTUS", "state": "TX", "street": "114 FM 623 W", "postcode": "78146"}}},
{"geometry": {"type": "Point", "coordinates": [-97.8034331002, 28.6177877716]}, "type": "Feature", "properties": {"collection_times": [{"days": "Mon-Fri", "time": "11:30am"}, {"days": "Sat", "time": "8:00am"}, {"days": "Sun", "time": "Closed"}], "id": "7814600004", "name": "USPS COLLECTION BOX - PO LOBBY", "address": {"city": "PETTUS", "state": "TX", "street": "114 FM 623 W", "postcode": "78146"}}},
{"geometry": {"type": "Point", "coordinates": [-98.0983505041, 29.0267990224]}, "type": "Feature", "properties": {"collection_times": [{"days": "Mon-Fri", "time": "4:00pm"}, {"days": "Sat", "time": "11:00am"}, {"days": "Sun", "time": "Closed"}], "id": "7814700001", "name": "USPS COLLECTION BOX - BLUE BOX", "address": {"city": "POTH", "state": "TX", "street": "1100 STORTS", "postcode": "78147"}}},
{"geometry": {"type": "Point", "coordinates": [-98.0983505041, 29.0267990224]}, "type": "Feature", "properties": {"collection_times": [{"days": "Mon-Fri", "time": "4:00pm"}, {"days": "Sat", "time": "11:00am"}, {"days": "Sun", "time": "Closed"}], "id": "7814700002", "name": "USPS COLLECTION BOX - BLUE BOX", "address": {"city": "POTH", "state": "TX", "street": "1100 STORTS", "postcode": "78147"}}},
{"geometry": {"type": "Point", "coordinates": [-98.0983505041, 29.0267990224]}, "type": "Feature", "properties": {"collection_times": [{"days": "Mon-Fri", "time": "4:00pm"}, {"days": "Sat", "time": "11:00am"}, {"days": "Sun", "time": "Closed"}], "id": "7814700003", "name": "USPS COLLECTION BOX - PO LOBBY", "address": {"city": "POTH", "state": "TX", "street": "1100 STORTS", "postcode": "78147"}}},
{"geometry": {"type": "Point", "coordinates": [-98.3048939656, 29.5594145326]}, "type": "Feature", "properties": {"collection_times": [{"days": "Mon-Sat", "time": "1:00pm"}, {"days": "Sun", "time": "Closed"}], "id": "7814800025", "name": "USPS COLLECTION BOX - BLUE BOX", "address": {"city": "UNIVERSAL CITY", "state": "TX", "street": "102 MILLRIDGE RD", "postcode": "78148"}}},
{"geometry": {"type": "Point", "coordinates": [-98.3087291186, 29.5554043018]}, "type": "Feature", "properties": {"collection_times": [{"days": "Mon-Sat", "time": "2:30pm"}, {"days": "Sun", "time": "Closed"}], "id": "7814800028", "name": "USPS COLLECTION BOX - BLUE BOX", "address": {"city": "UNIVERSAL CITY", "state": "TX", "street": "2125 UNIVERSAL CITY BLVD", "postcode": "78148"}}},
{"geometry": {"type": "Point", "coordinates": [-98.3084529379, 29.55637447]}, "type": "Feature", "properties": {"collection_times": [{"days": "Mon-Sat", "time": "9:15am"}, {"days": "Sun", "time": "Closed"}], "id": "7814800029", "name": "USPS COLLECTION BOX - BLUE BOX", "address": {"city": "UNIVERSAL CITY", "state": "TX", "street": "2150 UNIVERSAL CITY BLVD", "postcode": "78148"}}},
{"geometry": {"type": "Point", "coordinates": [-98.3074172171, 29.550783664]}, "type": "Feature", "properties": {"collection_times": [{"days": "Mon-Sat", "time": "9:15am"}, {"days": "Sun", "time": "Closed"}], "id": "7814800031", "name": "USPS COLLECTION BOX - BLUE BOX", "address": {"city": "UNIVERSAL CITY", "state": "TX", "street": "433 KITTY HAWK RD", "postcode": "78148"}}},
{"geometry": {"type": "Point", "coordinates": [-98.3053246274, 29.5516562958]}, "type": "Feature", "properties": {"collection_times": [{"days": "Mon-Sat", "time": "9:15am"}, {"days": "Sun", "time": "Closed"}], "id": "7814800032", "name": "USPS COLLECTION BOX - BLUE BOX", "address": {"city": "UNIVERSAL CITY", "state": "TX", "street": "330 KITTY HAWK RD", "postcode": "78148"}}},
{"geometry": {"type": "Point", "coordinates": [-98.3239904722, 29.5592134296]}, "type": "Feature", "properties": {"collection_times": [{"days": "Mon-Sat", "time": "10:15am"}, {"days": "Sun", "time": "Closed"}], "id": "7814800037", "name": "USPS COLLECTION BOX - BLUE BOX", "address": {"city": "UNIVERSAL CITY", "state": "TX", "street": "3000 PAT BOOKER RD", "postcode": "78148"}}},
{"geometry": {"type": "Point", "coordinates": [-98.3151348501, 29.5573949139]}, "type": "Feature", "properties": {"collection_times": [{"days": "Mon-Sat", "time": "9:30am"}, {"days": "Sun", "time": "Closed"}], "id": "7814800041", "name": "USPS COLLECTION BOX - BLUE BOX", "address": {"city": "UNIVERSAL CITY", "state": "TX", "street": "932 CORONADO BLVD", "postcode": "78148"}}},
{"geometry": {"type": "Point", "coordinates": [-98.2942686282, 29.5513290081]}, "type": "Feature", "properties": {"collection_times": [{"days": "Mon-Sat", "time": "3:00pm"}, {"days": "Sun", "time": "Closed"}], "id": "7814800042", "name": "USPS COLLECTION BOX - BLUE BOX", "address": {"city": "UNIVERSAL CITY", "state": "TX", "street": "830 NORTH BLVD", "postcode": "78148"}}},
{"geometry": {"type": "Point", "coordinates": [-98.2942686282, 29.5513290081]}, "type": "Feature", "properties": {"collection_times": [{"days": "Mon-Sat", "time": "3:00pm"}, {"days": "Sun", "time": "Closed"}], "id": "7814800044", "name": "USPS COLLECTION BOX - BLUE BOX", "address": {"city": "UNIVERSAL CITY", "state": "TX", "street": "830 NORTH BLVD", "postcode": "78148"}}},
{"geometry": {"type": "Point", "coordinates": [-98.2942686282, 29.5513290081]}, "type": "Feature", "properties": {"collection_times": [{"days": "Mon-Sat", "time": "3:00pm"}, {"days": "Sun", "time": "Closed"}], "id": "7814800046", "name": "USPS COLLECTION BOX - BLUE BOX", "address": {"city": "UNIVERSAL CITY", "state": "TX", "street": "830 NORTH BLVD", "postcode": "78148"}}},
{"geometry": {"type": "Point", "coordinates": [-98.2942686282, 29.5513290081]}, "type": "Feature", "properties": {"collection_times": [{"days": "Mon-Sat", "time": "3:00pm"}, {"days": "Sun", "time": "Closed"}], "id": "7814800047", "name": "USPS COLLECTION BOX - BLUE BOX", "address": {"city": "UNIVERSAL CITY", "state": "TX", "street": "830 NORTH BLVD", "postcode": "78148"}}},
{"geometry": {"type": "Point", "coordinates": [-98.2942686282, 29.5513290081]}, "type": "Feature", "properties": {"collection_times": [{"days": "Mon-Sat", "time": "3:30pm"}, {"days": "Sun", "time": "Closed"}], "id": "7814800050", "name": "USPS COLLECTION BOX - PO LOBBY", "address": {"city": "UNIVERSAL CITY", "state": "TX", "street": "830 NORTH BLVD", "postcode": "78148"}}},
{"geometry": {"type": "Point", "coordinates": [-98.3138761731, 29.5473495342]}, "type": "Feature", "properties": {"collection_times": [{"days": "Mon-Sat", "time": "10:15am"}, {"days": "Sun", "time": "Closed"}], "id": "7814800053", "name": "USPS COLLECTION BOX - BLUE BOX", "address": {"city": "UNIVERSAL CITY", "state": "TX", "street": "910 KITTY HAWK RD", "postcode": "78148"}}},
{"geometry": {"type": "Point", "coordinates": [-98.294187075, 29.5513359442]}, "type": "Feature", "properties": {"collection_times": [{"days": "Mon-Sat", "time": "3:00pm"}, {"days": "Sun", "time": "Closed"}], "id": "7814800055", "name": "USPS COLLECTION BOX - BLUE BOX", "address": {"city": "UNIVERSAL CITY", "state": "TX", "street": "830 NORTH BLVD", "postcode": "78148"}}},
{"geometry": {"type": "Point", "coordinates": [-98.2805828373, 29.5279148522]}, "type": "Feature", "properties": {"collection_times": [{"days": "Mon-Fri", "time": "2:00pm"}, {"days": "Sat-Sun", "time": "Closed"}], "id": "7815000003", "name": "USPS COLLECTION BOX - BLUE BOX", "address": {"city": "UNIVERSAL CITY", "state": "TX", "street": "244 F ST E", "postcode": "78150"}}},
{"geometry": {"type": "Point", "coordinates": [-98.2865453381, 29.5390335989]}, "type": "Feature", "properties": {"collection_times": [{"days": "Mon-Sat", "time": "2:00pm"}, {"days": "Sun", "time": "Closed"}], "id": "7815000005", "name": "USPS COLLECTION BOX - BLUE BOX", "address": {"city": "UNIVERSAL CITY", "state": "TX", "street": "1985 1ST ST W", "postcode": "78150"}}},
{"geometry": {"type": "Point", "coordinates": [-98.28579, 29.534319]}, "type": "Feature", "properties": {"collection_times": [{"days": "Mon-Sat", "time": "2:10pm"}, {"days": "Sun", "time": "Closed"}], "id": "7815000008", "name": "USPS COLLECTION BOX - BLUE BOX", "address": {"city": "UNIVERSAL CITY", "state": "TX", "street": "770 3RD ST W", "postcode": "78150"}}},
{"geometry": {"type": "Point", "coordinates": [-98.2872007302, 29.5339288581]}, "type": "Feature", "properties": {"collection_times": [{"days": "Mon-Fri", "time": "3:00pm"}, {"days": "Sat-Sun", "time": "Closed"}], "id": "7815000011", "name": "USPS COLLECTION BOX - BLUE BOX", "address": {"city": "UNIVERSAL CITY", "state": "TX", "street": "355 B ST W STE 103", "postcode": "78150"}}},
{"geometry": {"type": "Point", "coordinates": [-98.2872007302, 29.5339288581]}, "type": "Feature", "properties": {"collection_times": [{"days": "Mon-Fri", "time": "3:00pm"}, {"days": "Sat-Sun", "time": "Closed"}], "id": "7815000012", "name": "USPS COLLECTION BOX - PO LOBBY", "address": {"city": "UNIVERSAL CITY", "state": "TX", "street": "355 B ST W STE 103", "postcode": "78150"}}},
{"geometry": {"type": "Point", "coordinates": [-98.2872007302, 29.5339288581]}, "type": "Feature", "properties": {"collection_times": [{"days": "Mon-Fri", "time": "3:00pm"}, {"days": "Sat-Sun", "time": "Closed"}], "id": "7815000014", "name": "USPS COLLECTION BOX - PO LOBBY", "address": {"city": "UNIVERSAL CITY", "state": "TX", "street": "355 B ST W STE 103", "postcode": "78150"}}},
{"geometry": {"type": "Point", "coordinates": [-97.7131526128, 28.8847168095]}, "type": "Feature", "properties": {"collection_times": [{"days": "Mon-Fri", "time": "4:00pm"}, {"days": "Sat", "time": "9:00am"}, {"days": "Sun", "time": "Closed"}], "id": "7815100001", "name": "USPS COLLECTION BOX - BLUE BOX", "address": {"city": "RUNGE", "state": "TX", "street": "302 HELENA ST", "postcode": "78151"}}},
{"geometry": {"type": "Point", "coordinates": [-97.7131526128, 28.8847168095]}, "type": "Feature", "properties": {"collection_times": [{"days": "Mon-Fri", "time": "4:00pm"}, {"days": "Sat", "time": "9:00am"}, {"days": "Sun", "time": "Closed"}], "id": "7815100004", "name": "USPS COLLECTION BOX - PO LOBBY", "address": {"city": "RUNGE", "state": "TX", "street": "302 HELENA ST", "postcode": "78151"}}},
{"geometry": {"type": "Point", "coordinates": [-98.2041105937, 29.4144038738]}, "type": "Feature", "properties": {"collection_times": [{"days": "Mon-Fri", "time": "3:15pm"}, {"days": "Sat", "time": "10:15am"}, {"days": "Sun", "time": "Closed"}], "id": "7815200002", "name": "USPS COLLECTION BOX - BLUE BOX", "address": {"city": "SAINT HEDWIG", "state": "TX", "street": "1102 CHURCH VIEW DR", "postcode": "78152"}}},
{"geometry": {"type": "Point", "coordinates": [-98.2041105937, 29.4144038738]}, "type": "Feature", "properties": {"collection_times": [{"days": "Mon-Fri", "time": "1:30pm"}, {"days": "Sat", "time": "10:15am"}, {"days": "Sun", "time": "Closed"}], "id": "7815200003", "name": "USPS COLLECTION BOX - PO LOBBY", "address": {"city": "SAINT HEDWIG", "state": "TX", "street": "1102 CHURCH VIEW DR", "postcode": "78152"}}},
{"geometry": {"type": "Point", "coordinates": [-98.263662504, 29.563128871]}, "type": "Feature", "properties": {"collection_times": [{"days": "Mon-Sat", "time": "3:30pm"}, {"days": "Sun", "time": "Closed"}], "id": "7815400012", "name": "USPS COLLECTION BOX - BLUE BOX", "address": {"city": "SCHERTZ", "state": "TX", "street": "1081 ELBEL RD", "postcode": "78154"}}},
{"geometry": {"type": "Point", "coordinates": [-98.305500482, 29.590879788]}, "type": "Feature", "properties": {"collection_times": [{"days": "Mon-Fri", "time": "1:00pm"}, {"days": "Sat", "time": "12:00pm"}, {"days": "Sun", "time": "Closed"}], "id": "7815400017", "name": "USPS COLLECTION BOX - BLUE BOX", "address": {"city": "SCHERTZ", "state": "TX", "street": "9375 CORPORATE DR", "postcode": "78154"}}},
{"geometry": {"type": "Point", "coordinates": [-98.331047467, 29.567480594]}, "type": "Feature", "properties": {"collection_times": [{"days": "Mon-Sat", "time": "10:30am"}, {"days": "Sun", "time": "Closed"}], "id": "7815400019", "name": "USPS COLLECTION BOX - BLUE BOX", "address": {"city": "SCHERTZ", "state": "TX", "street": "17460 IH 35 N", "postcode": "78154"}}},
{"geometry": {"type": "Point", "coordinates": [-98.263662504, 29.563128871]}, "type": "Feature", "properties": {"collection_times": [{"days": "Mon-Sat", "time": "3:30pm"}, {"days": "Sun", "time": "Closed"}], "id": "7815400021", "name": "USPS COLLECTION BOX - BLUE BOX", "address": {"city": "SCHERTZ", "state": "TX", "street": "1081 ELBEL RD", "postcode": "78154"}}},
{"geometry": {"type": "Point", "coordinates": [-98.263662504, 29.563128871]}, "type": "Feature", "properties": {"collection_times": [{"days": "Mon-Sat", "time": "3:30pm"}, {"days": "Sun", "time": "Closed"}], "id": "7815400022", "name": "USPS COLLECTION BOX - BLUE BOX", "address": {"city": "SCHERTZ", "state": "TX", "street": "1081 ELBEL RD", "postcode": "78154"}}},
{"geometry": {"type": "Point", "coordinates": [-98.263662504, 29.563128871]}, "type": "Feature", "properties": {"collection_times": [{"days": "Mon-Fri", "time": "4:30pm"}, {"days": "Sat", "time": "12:00pm"}, {"days": "Sun", "time": "Closed"}], "id": "7815400025", "name": "USPS COLLECTION BOX - PO LOBBY", "address": {"city": "SCHERTZ", "state": "TX", "street": "1081 ELBEL RD", "postcode": "78154"}}},
{"geometry": {"type": "Point", "coordinates": [-98.263662504, 29.563128871]}, "type": "Feature", "properties": {"collection_times": [{"days": "Mon-Fri", "time": "4:30pm"}, {"days": "Sat", "time": "12:00pm"}, {"days": "Sun", "time": "Closed"}], "id": "7815400026", "name": "USPS COLLECTION BOX - PO LOBBY", "address": {"city": "SCHERTZ", "state": "TX", "street": "1081 ELBEL RD", "postcode": "78154"}}},
{"geometry": {"type": "Point", "coordinates": [-98.307484185, 29.58979243]}, "type": "Feature", "properties": {"collection_times": [{"days": "Mon-Sat", "time": "11:30am"}, {"days": "Sun", "time": "Closed"}], "id": "7815400028", "name": "USPS COLLECTION BOX - BLUE BOX", "address": {"city": "SCHERTZ", "state": "TX", "street": "13183 IH 10 E", "postcode": "78154"}}},
{"geometry": {"type": "Point", "coordinates": [-97.966760292, 29.5688525766]}, "type": "Feature", "properties": {"collection_times": [{"days": "Mon-Fri", "time": "4:45pm"}, {"days": "Sat", "time": "12:00pm"}, {"days": "Sun", "time": "Closed"}], "id": "7815500003", "name": "USPS COLLECTION BOX - BLUE BOX", "address": {"city": "SEGUIN", "state": "TX", "street": "307 W COURT ST", "postcode": "78155"}}},
{"geometry": {"type": "Point", "coordinates": [-97.9654633291, 29.5697135095]}, "type": "Feature", "properties": {"collection_times": [{"days": "Mon-Fri", "time": "4:45pm"}, {"days": "Sat", "time": "12:00pm"}, {"days": "Sun", "time": "Closed"}], "id": "7815500005", "name": "USPS COLLECTION BOX - BLUE BOX", "address": {"city": "SEGUIN", "state": "TX", "street": "200 W GONZALES ST", "postcode": "78155"}}},
{"geometry": {"type": "Point", "coordinates": [-97.947374533, 29.5692232618]}, "type": "Feature", "properties": {"collection_times": [{"days": "Mon-Fri", "time": "4:15pm"}, {"days": "Sat", "time": "12:00pm"}, {"days": "Sun", "time": "Closed"}], "id": "7815500009", "name": "USPS COLLECTION BOX - BLUE BOX", "address": {"city": "SEGUIN", "state": "TX", "street": "1500 E COURT ST", "postcode": "78155"}}},
{"geometry": {"type": "Point", "coordinates": [-97.944423476, 29.5691360492]}, "type": "Feature", "properties": {"collection_times": [{"days": "Mon-Fri", "time": "4:15pm"}, {"days": "Sat", "time": "12:00pm"}, {"days": "Sun", "time": "Closed"}], "id": "7815500010", "name": "USPS COLLECTION BOX - BLUE BOX", "address": {"city": "SEGUIN", "state": "TX", "street": "1374 E COURT ST", "postcode": "78155"}}},
{"geometry": {"type": "Point", "coordinates": [-97.9697089708, 29.5664513243]}, "type": "Feature", "properties": {"collection_times": [{"days": "Mon-Sat", "time": "8:30am"}, {"days": "Sun", "time": "Closed"}], "id": "7815500022", "name": "USPS COLLECTION BOX - BLUE BOX", "address": {"city": "SEGUIN", "state": "TX", "street": "516 JEFFERSON AVE", "postcode": "78155"}}},
{"geometry": {"type": "Point", "coordinates": [-97.9485111558, 29.5815981495]}, "type": "Feature", "properties": {"collection_times": [{"days": "Mon-Fri", "time": "4:30pm"}, {"days": "Sat", "time": "12:00pm"}, {"days": "Sun", "time": "Closed"}], "id": "7815500026", "name": "USPS COLLECTION BOX - BLUE BOX", "address": {"city": "SEGUIN", "state": "TX", "street": "1136 E KINGSBURY ST", "postcode": "78155"}}},
{"geometry": {"type": "Point", "coordinates": [-97.9636791699, 29.5697315328]}, "type": "Feature", "properties": {"collection_times": [{"days": "Mon-Fri", "time": "4:30pm"}, {"days": "Sat", "time": "12:00pm"}, {"days": "Sun", "time": "Closed"}], "id": "7815500034", "name": "USPS COLLECTION BOX - BLUE BOX", "address": {"city": "SEGUIN", "state": "TX", "street": "205 N RIVER ST", "postcode": "78155"}}},
{"geometry": {"type": "Point", "coordinates": [-97.9636515384, 29.5681661804]}, "type": "Feature", "properties": {"collection_times": [{"days": "Mon-Fri", "time": "4:30pm"}, {"days": "Sat", "time": "12:00pm"}, {"days": "Sun", "time": "Closed"}], "id": "7815500035", "name": "USPS COLLECTION BOX - BLUE BOX", "address": {"city": "SEGUIN", "state": "TX", "street": "201 S RIVER ST", "postcode": "78155"}}},
{"geometry": {"type": "Point", "coordinates": [-97.9498478086, 29.5728452766]}, "type": "Feature", "properties": {"collection_times": [{"days": "Mon-Fri", "time": "4:15pm"}, {"days": "Sat", "time": "12:00pm"}, {"days": "Sun", "time": "Closed"}], "id": "7815500038", "name": "USPS COLLECTION BOX - BLUE BOX", "address": {"city": "SEGUIN", "state": "TX", "street": "519 N KING ST", "postcode": "78155"}}},
{"geometry": {"type": "Point", "coordinates": [-97.9699348809, 29.5687451139]}, "type": "Feature", "properties": {"collection_times": [{"days": "Mon-Fri", "time": "4:00pm"}, {"days": "Sat", "time": "12:00pm"}, {"days": "Sun", "time": "Closed"}], "id": "7815500042", "name": "USPS COLLECTION BOX - BLUE BOX", "address": {"city": "SEGUIN", "state": "TX", "street": "531 W COURT ST", "postcode": "78155"}}},
{"geometry": {"type": "Point", "coordinates": [-97.9699348809, 29.5687451139]}, "type": "Feature", "properties": {"collection_times": [{"days": "Mon-Fri", "time": "4:00pm"}, {"days": "Sat", "time": "1:00pm"}, {"days": "Sun", "time": "Closed"}], "id": "7815500043", "name": "USPS COLLECTION BOX - BLUE BOX", "address": {"city": "SEGUIN", "state": "TX", "street": "531 W COURT ST", "postcode": "78155"}}},
{"geometry": {"type": "Point", "coordinates": [-97.9699348809, 29.5687451139]}, "type": "Feature", "properties": {"collection_times": [{"days": "Mon-Fri", "time": "4:00pm"}, {"days": "Sat", "time": "1:00pm"}, {"days": "Sun", "time": "Closed"}], "id": "7815500044", "name": "USPS COLLECTION BOX - BLUE BOX", "address": {"city": "SEGUIN", "state": "TX", "street": "531 W COURT ST", "postcode": "78155"}}},
{"geometry": {"type": "Point", "coordinates": [-97.9699348809, 29.5687451139]}, "type": "Feature", "properties": {"collection_times": [{"days": "Mon-Fri", "time": "4:00pm"}, {"days": "Sat", "time": "1:00pm"}, {"days": "Sun", "time": "Closed"}], "id": "7815500045", "name": "USPS COLLECTION BOX - BLUE BOX", "address": {"city": "SEGUIN", "state": "TX", "street": "531 W COURT ST", "postcode": "78155"}}},
{"geometry": {"type": "Point", "coordinates": [-97.9673789964, 29.5610226572]}, "type": "Feature", "properties": {"collection_times": [{"days": "Mon-Fri", "time": "4:00pm"}, {"days": "Sat", "time": "1:00pm"}, {"days": "Sun", "time": "Closed"}], "id": "7815500046", "name": "USPS COLLECTION BOX - EXPRESS", "address": {"city": "SEGUIN", "state": "TX", "street": "531 W COURT ST", "postcode": "78155"}}},
{"geometry": {"type": "Point", "coordinates": [-97.9699348809, 29.5687451139]}, "type": "Feature", "properties": {"collection_times": [{"days": "Mon-Fri", "time": "5:00pm"}, {"days": "Sat", "time": "1:00pm"}, {"days": "Sun", "time": "Closed"}], "id": "7815500047", "name": "USPS COLLECTION BOX - PO LOBBY", "address": {"city": "SEGUIN", "state": "TX", "street": "531 W COURT ST", "postcode": "78155"}}},
{"geometry": {"type": "Point", "coordinates": [-97.9699348809, 29.5687451139]}, "type": "Feature", "properties": {"collection_times": [{"days": "Mon-Fri", "time": "5:00pm"}, {"days": "Sat", "time": "1:00pm"}, {"days": "Sun", "time": "Closed"}], "id": "7815500048", "name": "USPS COLLECTION BOX - PO LOBBY", "address": {"city": "SEGUIN", "state": "TX", "street": "531 W COURT ST", "postcode": "78155"}}},
{"geometry": {"type": "Point", "coordinates": [-97.9699348809, 29.5687451139]}, "type": "Feature", "properties": {"collection_times": [{"days": "Mon-Fri", "time": "5:00pm"}, {"days": "Sat", "time": "1:00pm"}, {"days": "Sun", "time": "Closed"}], "id": "7815500049", "name": "USPS COLLECTION BOX - PO LOBBY", "address": {"city": "SEGUIN", "state": "TX", "street": "531 W COURT ST", "postcode": "78155"}}},
{"geometry": {"type": "Point", "coordinates": [-97.9810318812, 29.5694056825]}, "type": "Feature", "properties": {"collection_times": [{"days": "Mon-Fri", "time": "3:45pm"}, {"days": "Sat", "time": "12:00pm"}, {"days": "Sun", "time": "Closed"}], "id": "7815500054", "name": "USPS COLLECTION BOX - BLUE BOX", "address": {"city": "SEGUIN", "state": "TX", "street": "1000 W COURT ST", "postcode": "78155"}}},
{"geometry": {"type": "Point", "coordinates": [-97.9541186468, 29.5689567664]}, "type": "Feature", "properties": {"collection_times": [{"days": "Mon-Fri", "time": "4:00pm"}, {"days": "Sat", "time": "12:00pm"}, {"days": "Sun", "time": "Closed"}], "id": "7815500056", "name": "USPS COLLECTION BOX - BLUE BOX", "address": {"city": "SEGUIN", "state": "TX", "street": "933 E COURT CT", "postcode": "78155"}}},
{"geometry": {"type": "Point", "coordinates": [-97.9411426442, 29.5665605283]}, "type": "Feature", "properties": {"collection_times": [{"days": "Mon-Fri", "time": "4:15pm"}, {"days": "Sat", "time": "12:00pm"}, {"days": "Sun", "time": "Closed"}], "id": "7815500057", "name": "USPS COLLECTION BOX - BLUE BOX", "address": {"city": "SEGUIN", "state": "TX", "street": "550 S HIGHWAY 123 BYP", "postcode": "78155"}}},
{"geometry": {"type": "Point", "coordinates": [-97.9656254886, 29.5687806179]}, "type": "Feature", "properties": {"collection_times": [{"days": "Mon-Fri", "time": "10:00am"}, {"days": "Sat-Sun", "time": "Closed"}], "id": "7815500060", "name": "USPS COLLECTION BOX - BLUE BOX", "address": {"city": "SEGUIN", "state": "TX", "street": "211 W COURT ST", "postcode": "78155"}}},
{"geometry": {"type": "Point", "coordinates": [-97.6390374921, 29.2690246299]}, "type": "Feature", "properties": {"collection_times": [{"days": "Mon-Fri", "time": "4:00pm"}, {"days": "Sat", "time": "10:00am"}, {"days": "Sun", "time": "Closed"}], "id": "7815900001", "name": "USPS COLLECTION BOX - BLUE BOX", "address": {"city": "SMILEY", "state": "TX", "street": "401 W US HIGHWAY 87", "postcode": "78159"}}},
{"geometry": {"type": "Point", "coordinates": [-97.6390374921, 29.2690246299]}, "type": "Feature", "properties": {"collection_times": [{"days": "Mon-Fri", "time": "1:30pm"}, {"days": "Sat", "time": "10:00am"}, {"days": "Sun", "time": "Closed"}], "id": "7815900002", "name": "USPS COLLECTION BOX - PO LOBBY", "address": {"city": "SMILEY", "state": "TX", "street": "401 W US HIGHWAY 87", "postcode": "78159"}}},
{"geometry": {"type": "Point", "coordinates": [-97.9573614967, 29.2325283448]}, "type": "Feature", "properties": {"collection_times": [{"days": "Mon-Fri", "time": "4:00pm"}, {"days": "Sat", "time": "9:30am"}, {"days": "Sun", "time": "Closed"}], "id": "7816000001", "name": "USPS COLLECTION BOX - BLUE BOX", "address": {"city": "STOCKDALE", "state": "TX", "street": "102 W SALMON ST", "postcode": "78160"}}},
{"geometry": {"type": "Point", "coordinates": [-97.9573614967, 29.2325283448]}, "type": "Feature", "properties": {"collection_times": [{"days": "Mon-Fri", "time": "4:00pm"}, {"days": "Sat", "time": "9:30am"}, {"days": "Sun", "time": "Closed"}], "id": "7816000004", "name": "USPS COLLECTION BOX - PO LOBBY", "address": {"city": "STOCKDALE", "state": "TX", "street": "102 W SALMON ST", "postcode": "78160"}}},
{"geometry": {"type": "Point", "coordinates": [-98.0533924793, 29.2723410861]}, "type": "Feature", "properties": {"collection_times": [{"days": "Mon-Sat", "time": "5:45pm"}, {"days": "Sun", "time": "Closed"}], "id": "7816100001", "name": "USPS COLLECTION BOX - BLUE BOX", "address": {"city": "SUTHERLAND SPRGS", "state": "TX", "street": "6230 US HIGHWAY 87 W", "postcode": "78161"}}},
{"geometry": {"type": "Point", "coordinates": [-98.0566063367, 29.2747737989]}, "type": "Feature", "properties": {"collection_times": [{"days": "Mon-Fri", "time": "3:00pm"}, {"days": "Sat", "time": "11:30am"}, {"days": "Sun", "time": "Closed"}], "id": "7816100003", "name": "USPS COLLECTION BOX - PO LOBBY", "address": {"city": "SUTHERLAND SPRGS", "state": "TX", "street": "6230 US HIGHWAY 87 W", "postcode": "78161"}}},
{"geometry": {"type": "Point", "coordinates": [-97.7998776718, 28.5699285522]}, "type": "Feature", "properties": {"collection_times": [{"days": "Mon-Sat", "time": "4:30pm"}, {"days": "Sun", "time": "Closed"}], "id": "7816200000", "name": "USPS COLLECTION BOX - BLUE BOX", "address": {"city": "TULETA", "state": "TX", "street": "123 MAIN ST", "postcode": "78162"}}},
{"geometry": {"type": "Point", "coordinates": [-97.7998776718, 28.5699285522]}, "type": "Feature", "properties": {"collection_times": [{"days": "Mon-Fri", "time": "11:30am"}, {"days": "Sat", "time": "8:15am"}, {"days": "Sun", "time": "Closed"}], "id": "7816200001", "name": "USPS COLLECTION BOX - PO LOBBY", "address": {"city": "TULETA", "state": "TX", "street": "123 MAIN ST", "postcode": "78162"}}},
{"geometry": {"type": "Point", "coordinates": [-97.7998776718, 28.5699285522]}, "type": "Feature", "properties": {"collection_times": [{"days": "Mon-Fri", "time": "11:30am"}, {"days": "Sat", "time": "8:15am"}, {"days": "Sun", "time": "Closed"}], "id": "7816200002", "name": "USPS COLLECTION BOX - PO LOBBY", "address": {"city": "TULETA", "state": "TX", "street": "123 MAIN ST", "postcode": "78162"}}},
{"geometry": {"type": "Point", "coordinates": [-98.453493722, 29.7433977746]}, "type": "Feature", "properties": {"collection_times": [{"days": "Mon-Fri", "time": "4:45pm"}, {"days": "Sat", "time": "12:00pm"}, {"days": "Sun", "time": "Closed"}], "id": "7816300002", "name": "USPS COLLECTION BOX - BLUE BOX", "address": {"city": "BULVERDE", "state": "TX", "street": "30131 BULVERDE LN", "postcode": "78163"}}},
{"geometry": {"type": "Point", "coordinates": [-98.453493722, 29.7433977746]}, "type": "Feature", "properties": {"collection_times": [{"days": "Mon-Fri", "time": "4:45pm"}, {"days": "Sat", "time": "12:00pm"}, {"days": "Sun", "time": "Closed"}], "id": "7816300003", "name": "USPS COLLECTION BOX - BLUE BOX", "address": {"city": "BULVERDE", "state": "TX", "street": "30131 BULVERDE LN", "postcode": "78163"}}},
{"geometry": {"type": "Point", "coordinates": [-97.500968726, 28.9754332309]}, "type": "Feature", "properties": {"collection_times": [{"days": "Mon-Fri", "time": "4:00pm"}, {"days": "Sat", "time": "8:30am"}, {"days": "Sun", "time": "Closed"}], "id": "7816400001", "name": "USPS COLLECTION BOX - BLUE BOX", "address": {"city": "YORKTOWN", "state": "TX", "street": "124 W MAIN ST", "postcode": "78164"}}},
{"geometry": {"type": "Point", "coordinates": [-97.500968726, 28.9754332309]}, "type": "Feature", "properties": {"collection_times": [{"days": "Mon-Fri", "time": "4:00pm"}, {"days": "Sat", "time": "8:30am"}, {"days": "Sun", "time": "Closed"}], "id": "7816400002", "name": "USPS COLLECTION BOX - BLUE BOX", "address": {"city": "YORKTOWN", "state": "TX", "street": "124 W MAIN ST", "postcode": "78164"}}},
{"geometry": {"type": "Point", "coordinates": [-97.500968726, 28.9754332309]}, "type": "Feature", "properties": {"collection_times": [{"days": "Mon-Fri", "time": "4:00pm"}, {"days": "Sat", "time": "8:30am"}, {"days": "Sun", "time": "Closed"}], "id": "7816400003", "name": "USPS COLLECTION BOX - BLUE BOX", "address": {"city": "YORKTOWN", "state": "TX", "street": "124 W MAIN ST", "postcode": "78164"}}},
{"geometry": {"type": "Point", "coordinates": [-97.500968726, 28.9754332309]}, "type": "Feature", "properties": {"collection_times": [{"days": "Mon-Fri", "time": "4:30pm"}, {"days": "Sat", "time": "8:30am"}, {"days": "Sun", "time": "Closed"}], "id": "7816400006", "name": "USPS COLLECTION BOX - PO LOBBY", "address": {"city": "YORKTOWN", "state": "TX", "street": "124 W MAIN ST", "postcode": "78164"}}},
{"geometry": {"type": "Point", "coordinates": [-97.500968726, 28.9754332309]}, "type": "Feature", "properties": {"collection_times": [{"days": "Mon-Fri", "time": "4:00pm"}, {"days": "Sat", "time": "6:00am"}, {"days": "Sun", "time": "Closed"}], "id": "7816400007", "name": "USPS COLLECTION BOX - BLUE BOX", "address": {"city": "YORKTOWN", "state": "TX", "street": "124 W MAIN ST", "postcode": "78164"}}}
]}
