{"type": "FeatureCollection", "features": [
{"geometry": {"type": "Point", "coordinates": [-98.5348713021, 29.4828276236]}, "type": "Feature", "properties": {"collection_times": [{"days": "Mon-Fri", "time": "5:00pm"}, {"days": "Sat", "time": "4:15pm"}, {"days": "Sun", "time": "Closed"}], "id": "7820100032", "name": "USPS COLLECTION BOX - BLUE BOX", "address": {"city": "SAN ANTONIO", "state": "TX", "street": "1064 VANCE JACKSON RD", "postcode": "78201"}}},
{"geometry": {"type": "Point", "coordinates": [-98.5285169795, 29.483931104]}, "type": "Feature", "properties": {"collection_times": [{"days": "Mon-Fri", "time": "3:30pm"}, {"days": "Sat-Sun", "time": "Closed"}], "id": "7820100033", "name": "USPS COLLECTION BOX - BLUE BOX", "address": {"city": "SAN ANTONIO", "state": "TX", "street": "5707 W IH 10", "postcode": "78201"}}},
{"geometry": {"type": "Point", "coordinates": [-98.5091152695, 29.4427854253]}, "type": "Feature", "properties": {"collection_times": [{"days": "Mon-Fri", "time": "3:15pm"}, {"days": "Sat-Sun", "time": "Closed"}], "id": "7820100038", "name": "USPS COLLECTION BOX - BLUE BOX", "address": {"city": "SAN ANTONIO", "state": "TX", "street": "1606 N COLORADO ST", "postcode": "78201"}}},
{"geometry": {"type": "Point", "coordinates": [-98.526426691, 29.46496354]}, "type": "Feature", "properties": {"collection_times": [{"days": "Mon-Fri", "time": "1:15pm"}, {"days": "Sat", "time": "3:45pm"}, {"days": "Sun", "time": "Closed"}], "id": "7820100040", "name": "USPS COLLECTION BOX - BLUE BOX", "address": {"city": "SAN ANTONIO", "state": "TX", "street": "2118 FREDERICKSBURG RD", "postcode": "78201"}}},
{"geometry": {"type": "Point", "coordinates": [-98.5167027683, 29.4664162136]}, "type": "Feature", "properties": {"collection_times": [{"days": "Mon-Fri", "time": "3:15pm"}, {"days": "Sat-Sun", "time": "Closed"}], "id": "7820100041", "name": "USPS COLLECTION BOX - BLUE BOX", "address": {"city": "SAN ANTONIO", "state": "TX", "street": "1300 W HILDEBRAND AVE", "postcode": "78201"}}},
{"geometry": {"type": "Point", "coordinates": [-98.5212844815, 29.4772557709]}, "type": "Feature", "properties": {"collection_times": [{"days": "Mon-Fri", "time": "4:15pm"}, {"days": "Sat-Sun", "time": "Closed"}], "id": "7820100043", "name": "USPS COLLECTION BOX - BLUE BOX", "address": {"city": "SAN ANTONIO", "state": "TX", "street": "6243 W IH 10", "postcode": "78201"}}},
{"geometry": {"type": "Point", "coordinates": [-98.5490484153, 29.4876349486]}, "type": "Feature", "properties": {"collection_times": [{"days": "Mon-Fri", "time": "1:15pm"}, {"days": "Sat", "time": "4:00pm"}, {"days": "Sun", "time": "Closed"}], "id": "7820100047", "name": "USPS COLLECTION BOX - BLUE BOX", "address": {"city": "SAN ANTONIO", "state": "TX", "street": "4400 FREDERICKSBURG RD", "postcode": "78201"}}},
{"geometry": {"type": "Point", "coordinates": [-98.5377736334, 29.4851306244]}, "type": "Feature", "properties": {"collection_times": [{"days": "Mon-Fri", "time": "3:45pm"}, {"days": "Sat-Sun", "time": "Closed"}], "id": "7820100049", "name": "USPS COLLECTION BOX - BLUE BOX", "address": {"city": "SAN ANTONIO", "state": "TX", "street": "6061 W IH 10", "postcode": "78201"}}},
{"geometry": {"type": "Point", "coordinates": [-98.5319593901, 29.470412249]}, "type": "Feature", "properties": {"collection_times": [{"days": "Mon-Fri", "time": "1:15pm"}, {"days": "Sat-Sun", "time": "Closed"}], "id": "7820100057", "name": "USPS COLLECTION BOX - BLUE BOX", "address": {"city": "SAN ANTONIO", "state": "TX", "street": "2900 FREDERICKSBURG RD", "postcode": "78201"}}},
{"geometry": {"type": "Point", "coordinates": [-98.5348713021, 29.4828276236]}, "type": "Feature", "properties": {"collection_times": [{"days": "Mon-Fri", "time": "5:00pm"}, {"days": "Sat", "time": "3:45pm"}, {"days": "Sun", "time": "Closed"}], "id": "7820100082", "name": "USPS COLLECTION BOX - PO LOBBY", "address": {"city": "SAN ANTONIO", "state": "TX", "street": "1064 VANCE JACKSON RD", "postcode": "78201"}}},
{"geometry": {"type": "Point", "coordinates": [-98.4612551157, 29.424604529]}, "type": "Feature", "properties": {"collection_times": [{"days": "Mon-Fri", "time": "1:00pm"}, {"days": "Sat-Sun", "time": "Closed"}], "id": "7820200024", "name": "USPS COLLECTION BOX - BLUE BOX", "address": {"city": "SAN ANTONIO", "state": "TX", "street": "415 N NEW BRAUNFELS AVE", "postcode": "78202"}}},
{"geometry": {"type": "Point", "coordinates": [-98.465195552, 29.4250576023]}, "type": "Feature", "properties": {"collection_times": [{"days": "Mon-Fri", "time": "1:00pm"}, {"days": "Sat-Sun", "time": "Closed"}], "id": "7820200025", "name": "USPS COLLECTION BOX - BLUE BOX", "address": {"city": "SAN ANTONIO", "state": "TX", "street": "2011 E HOUSTON ST", "postcode": "78202"}}},
{"geometry": {"type": "Point", "coordinates": [-98.4773912666, 29.4225254984]}, "type": "Feature", "properties": {"collection_times": [{"days": "Mon-Fri", "time": "1:15pm"}, {"days": "Sat-Sun", "time": "Closed"}], "id": "7820200026", "name": "USPS COLLECTION BOX - BLUE BOX", "address": {"city": "SAN ANTONIO", "state": "TX", "street": "321 N CENTER", "postcode": "78202"}}},
{"geometry": {"type": "Point", "coordinates": [-98.4612062515, 29.4150130924]}, "type": "Feature", "properties": {"collection_times": [{"days": "Mon-Fri", "time": "1:00pm"}, {"days": "Sat-Sun", "time": "Closed"}], "id": "7820300007", "name": "USPS COLLECTION BOX - BLUE BOX", "address": {"city": "SAN ANTONIO", "state": "TX", "street": "1801 MARTIN LUTHER KING DR", "postcode": "78203"}}},
{"geometry": {"type": "Point", "coordinates": [-98.4946054418, 29.4208303209]}, "type": "Feature", "properties": {"collection_times": [{"days": "Mon-Fri", "time": "2:30pm"}, {"days": "Sat-Sun", "time": "Closed"}], "id": "7820400013", "name": "USPS COLLECTION BOX - BLUE BOX", "address": {"city": "SAN ANTONIO", "state": "TX", "street": "434 S MAIN AVE", "postcode": "78204"}}},
{"geometry": {"type": "Point", "coordinates": [-98.5038345407, 29.4142666506]}, "type": "Feature", "properties": {"collection_times": [{"days": "Mon-Fri", "time": "5:45pm"}, {"days": "Sat", "time": "5:00pm"}, {"days": "Sun", "time": "Closed"}], "id": "7820400025", "name": "USPS COLLECTION BOX - BLUE BOX", "address": {"city": "SAN ANTONIO", "state": "TX", "street": "1140 S LAREDO ST", "postcode": "78204"}}},
{"geometry": {"type": "Point", "coordinates": [-98.5038345407, 29.4142666506]}, "type": "Feature", "properties": {"collection_times": [{"days": "Mon-Fri", "time": "5:45pm"}, {"days": "Sat", "time": "5:00pm"}, {"days": "Sun", "time": "Closed"}], "id": "7820400033", "name": "USPS COLLECTION BOX - PO LOBBY", "address": {"city": "SAN ANTONIO", "state": "TX", "street": "1140 S LAREDO ST", "postcode": "78204"}}},
{"geometry": {"type": "Point", "coordinates": [-98.5038345407, 29.4142666506]}, "type": "Feature", "properties": {"collection_times": [{"days": "Mon-Fri", "time": "5:45pm"}, {"days": "Sat", "time": "5:00pm"}, {"days": "Sun", "time": "Closed"}], "id": "7820400036", "name": "USPS COLLECTION BOX - PO LOBBY", "address": {"city": "SAN ANTONIO", "state": "TX", "street": "1140 S LAREDO ST", "postcode": "78204"}}},
{"geometry": {"type": "Point", "coordinates": [-98.5033180448, 29.4034336527]}, "type": "Feature", "properties": {"collection_times": [{"days": "Mon-Fri", "time": "3:15pm"}, {"days": "Sat-Sun", "time": "Closed"}], "id": "7820400039", "name": "USPS COLLECTION BOX - BLUE BOX", "address": {"city": "SAN ANTONIO", "state": "TX", "street": "211 S FLORES ST", "postcode": "78204"}}},
{"geometry": {"type": "Point", "coordinates": [-98.486515585, 29.4265380617]}, "type": "Feature", "properties": {"collection_times": [{"days": "Mon-Fri", "time": "4:45pm"}, {"days": "Sat", "time": "3:00pm"}, {"days": "Sun", "time": "Closed"}], "id": "7820500000", "name": "USPS COLLECTION BOX - BLUE BOX", "address": {"city": "SAN ANTONIO", "state": "TX", "street": "615 E HOUSTON ST", "postcode": "78205"}}},
{"geometry": {"type": "Point", "coordinates": [-98.486515585, 29.4265380617]}, "type": "Feature", "properties": {"collection_times": [{"days": "Mon-Fri", "time": "4:45pm"}, {"days": "Sat", "time": "3:00pm"}, {"days": "Sun", "time": "Closed"}], "id": "7820500001", "name": "USPS COLLECTION BOX - BLUE BOX", "address": {"city": "SAN ANTONIO", "state": "TX", "street": "615 E HOUSTON ST", "postcode": "78205"}}},
{"geometry": {"type": "Point", "coordinates": [-98.4927957206, 29.4329386586]}, "type": "Feature", "properties": {"collection_times": [{"days": "Mon-Fri", "time": "2:00pm"}, {"days": "Sat-Sun", "time": "Closed"}], "id": "7820500067", "name": "USPS COLLECTION BOX - BLUE BOX", "address": {"city": "SAN ANTONIO", "state": "TX", "street": "111 DALLAS ST", "postcode": "78205"}}},
{"geometry": {"type": "Point", "coordinates": [-98.4898181128, 29.4258712611]}, "type": "Feature", "properties": {"collection_times": [{"days": "Mon-Fri", "time": "1:00pm"}, {"days": "Sat-Sun", "time": "Closed"}], "id": "7820500075", "name": "USPS COLLECTION BOX - BLUE BOX", "address": {"city": "SAN ANTONIO", "state": "TX", "street": "226 N SAINT MARYS ST", "postcode": "78205"}}},
{"geometry": {"type": "Point", "coordinates": [-98.4941236306, 29.4347176452]}, "type": "Feature", "properties": {"collection_times": [{"days": "Mon-Fri", "time": "1:45pm"}, {"days": "Sat-Sun", "time": "Closed"}], "id": "7820500095", "name": "USPS COLLECTION BOX - BLUE BOX", "address": {"city": "SAN ANTONIO", "state": "TX", "street": "730 N MAIN AVE", "postcode": "78205"}}},
{"geometry": {"type": "Point", "coordinates": [-98.4897149932, 29.4285796755]}, "type": "Feature", "properties": {"collection_times": [{"days": "Mon-Fri", "time": "1:30pm"}, {"days": "Sat-Sun", "time": "Closed"}], "id": "7820500102", "name": "USPS COLLECTION BOX - BLUE BOX", "address": {"city": "SAN ANTONIO", "state": "TX", "street": "800 NAVARRO ST", "postcode": "78205"}}},
{"geometry": {"type": "Point", "coordinates": [-98.4879046918, 29.4263730823]}, "type": "Feature", "properties": {"collection_times": [{"days": "Mon-Fri", "time": "2:15pm"}, {"days": "Sat-Sun", "time": "Closed"}], "id": "7820500103", "name": "USPS COLLECTION BOX - BLUE BOX", "address": {"city": "SAN ANTONIO", "state": "TX", "street": "126 LOSOYA ST", "postcode": "78205"}}},
{"geometry": {"type": "Point", "coordinates": [-98.48684725, 29.4290027704]}, "type": "Feature", "properties": {"collection_times": [{"days": "Mon-Fri", "time": "1:45pm"}, {"days": "Sat-Sun", "time": "Closed"}], "id": "7820500107", "name": "USPS COLLECTION BOX - BLUE BOX", "address": {"city": "SAN ANTONIO", "state": "TX", "street": "301 BROADWAY ST", "postcode": "78205"}}},
{"geometry": {"type": "Point", "coordinates": [-98.4877214566, 29.4273087732]}, "type": "Feature", "properties": {"collection_times": [{"days": "Mon-Fri", "time": "1:15pm"}, {"days": "Sat", "time": "1:00pm"}, {"days": "Sun", "time": "Closed"}], "id": "7820500123", "name": "USPS COLLECTION BOX - BLUE BOX", "address": {"city": "SAN ANTONIO", "state": "TX", "street": "118 BROADWAY ST", "postcode": "78205"}}},
{"geometry": {"type": "Point", "coordinates": [-98.4898181128, 29.4258712611]}, "type": "Feature", "properties": {"collection_times": [{"days": "Mon-Fri", "time": "3:45pm"}, {"days": "Sat-Sun", "time": "Closed"}], "id": "7820500141", "name": "USPS COLLECTION BOX - EXPRESS", "address": {"city": "SAN ANTONIO", "state": "TX", "street": "300 CONVENT ST", "postcode": "78205"}}},
{"geometry": {"type": "Point", "coordinates": [-98.4898181128, 29.4258712611]}, "type": "Feature", "properties": {"collection_times": [{"days": "Mon-Fri", "time": "4:00pm"}, {"days": "Sat-Sun", "time": "Closed"}], "id": "7820500152", "name": "USPS COLLECTION BOX - EXPRESS", "address": {"city": "SAN ANTONIO", "state": "TX", "street": "100 W HOUSTON ST", "postcode": "78205"}}},
{"geometry": {"type": "Point", "coordinates": [-98.4867715406, 29.4235138408]}, "type": "Feature", "properties": {"collection_times": [{"days": "Mon-Fri", "time": "2:45pm"}, {"days": "Sat-Sun", "time": "Closed"}], "id": "7820500161", "name": "USPS COLLECTION BOX - BLUE BOX", "address": {"city": "SAN ANTONIO", "state": "TX", "street": "602 E COMMERCE ST", "postcode": "78205"}}},
{"geometry": {"type": "Point", "coordinates": [-98.4898181128, 29.4258712611]}, "type": "Feature", "properties": {"collection_times": [{"days": "Mon-Fri", "time": "4:15pm"}, {"days": "Sat-Sun", "time": "Closed"}], "id": "7820500167", "name": "USPS COLLECTION BOX - EXPRESS", "address": {"city": "SAN ANTONIO", "state": "TX", "street": "112 E PECAN ST", "postcode": "78205"}}},
{"geometry": {"type": "Point", "coordinates": [-98.4930400402, 29.4253284999]}, "type": "Feature", "properties": {"collection_times": [{"days": "Mon-Fri", "time": "3:45pm"}, {"days": "Sat-Sun", "time": "Closed"}], "id": "7820500171", "name": "USPS COLLECTION BOX - BLUE BOX", "address": {"city": "SAN ANTONIO", "state": "TX", "street": "111 SOLEDAD ST", "postcode": "78205"}}},
{"geometry": {"type": "Point", "coordinates": [-98.4913507748, 29.4304660907]}, "type": "Feature", "properties": {"collection_times": [{"days": "Mon-Fri", "time": "4:00pm"}, {"days": "Sat-Sun", "time": "Closed"}], "id": "7820500178", "name": "USPS COLLECTION BOX - BLUE BOX", "address": {"city": "SAN ANTONIO", "state": "TX", "street": "700 N SAINT MARYS ST", "postcode": "78205"}}},
{"geometry": {"type": "Point", "coordinates": [-98.4913507748, 29.4304660907]}, "type": "Feature", "properties": {"collection_times": [{"days": "Mon-Fri", "time": "4:00pm"}, {"days": "Sat-Sun", "time": "Closed"}], "id": "7820500179", "name": "USPS COLLECTION BOX - BLUE BOX", "address": {"city": "SAN ANTONIO", "state": "TX", "street": "700 N SAINT MARYS ST", "postcode": "78205"}}},
{"geometry": {"type": "Point", "coordinates": [-98.4898181128, 29.4258712611]}, "type": "Feature", "properties": {"collection_times": [{"days": "Mon-Fri", "time": "4:30pm"}, {"days": "Sat", "time": "1:15pm"}, {"days": "Sun", "time": "Closed"}], "id": "7820500185", "name": "USPS COLLECTION BOX - EXPRESS", "address": {"city": "SAN ANTONIO", "state": "TX", "street": "115 E TRAVIS ST", "postcode": "78205"}}},
{"geometry": {"type": "Point", "coordinates": [-98.4930400402, 29.4253284999]}, "type": "Feature", "properties": {"collection_times": [{"days": "Mon-Fri", "time": "3:45pm"}, {"days": "Sat-Sun", "time": "Closed"}], "id": "7820500207", "name": "USPS COLLECTION BOX - BLUE BOX", "address": {"city": "SAN ANTONIO", "state": "TX", "street": "111 SOLEDAD ST", "postcode": "78205"}}},
{"geometry": {"type": "Point", "coordinates": [-98.490260819, 29.4318443715]}, "type": "Feature", "properties": {"collection_times": [{"days": "Mon-Fri", "time": "2:00pm"}, {"days": "Sat-Sun", "time": "Closed"}], "id": "7820500208", "name": "USPS COLLECTION BOX - BLUE BOX", "address": {"city": "SAN ANTONIO", "state": "TX", "street": "815 N SAINT MARYS ST", "postcode": "78205"}}},
{"geometry": {"type": "Point", "coordinates": [-98.4897159255, 29.4255781042]}, "type": "Feature", "properties": {"collection_times": [{"days": "Mon-Fri", "time": "3:30pm"}, {"days": "Sat-Sun", "time": "Closed"}], "id": "7820500219", "name": "USPS COLLECTION BOX - BLUE BOX", "address": {"city": "SAN ANTONIO", "state": "TX", "street": "414 NAVARRO ST", "postcode": "78205"}}},
{"geometry": {"type": "Point", "coordinates": [-98.489974735, 29.424206996]}, "type": "Feature", "properties": {"collection_times": [{"days": "Mon-Fri", "time": "2:45pm"}, {"days": "Sat-Sun", "time": "Closed"}], "id": "7820500228", "name": "USPS COLLECTION BOX - BLUE BOX", "address": {"city": "SAN ANTONIO", "state": "TX", "street": "245 E COMMERCE ST", "postcode": "78205"}}},
{"geometry": {"type": "Point", "coordinates": [-98.486515585, 29.4265380617]}, "type": "Feature", "properties": {"collection_times": [{"days": "Mon-Fri", "time": "5:00pm"}, {"days": "Sat-Sun", "time": "Closed"}], "id": "7820500229", "name": "USPS COLLECTION BOX - PO LOBBY", "address": {"city": "SAN ANTONIO", "state": "TX", "street": "615 E HOUSTON ST", "postcode": "78205"}}},
{"geometry": {"type": "Point", "coordinates": [-98.4899808988, 29.4195995305]}, "type": "Feature", "properties": {"collection_times": [{"days": "Mon-Fri", "time": "1:15pm"}, {"days": "Sat-Sun", "time": "Closed"}], "id": "7820500231", "name": "USPS COLLECTION BOX - BLUE BOX", "address": {"city": "SAN ANTONIO", "state": "TX", "street": "423 S PRESA ST", "postcode": "78205"}}},
{"geometry": {"type": "Point", "coordinates": [-98.4933486159, 29.4319895073]}, "type": "Feature", "properties": {"collection_times": [{"days": "Mon-Fri", "time": "1:45pm"}, {"days": "Sat-Sun", "time": "Closed"}], "id": "7820500232", "name": "USPS COLLECTION BOX - BLUE BOX", "address": {"city": "SAN ANTONIO", "state": "TX", "street": "600 SOLEDAD ST", "postcode": "78205"}}},
{"geometry": {"type": "Point", "coordinates": [-98.486515585, 29.4265380617]}, "type": "Feature", "properties": {"collection_times": [{"days": "Mon-Fri", "time": "5:00pm"}, {"days": "Sat-Sun", "time": "Closed"}], "id": "7820500243", "name": "USPS COLLECTION BOX - PO LOBBY", "address": {"city": "SAN ANTONIO", "state": "TX", "street": "615 E HOUSTON ST", "postcode": "78205"}}},
{"geometry": {"type": "Point", "coordinates": [-98.5277953745, 29.4214566752]}, "type": "Feature", "properties": {"collection_times": [{"days": "Mon-Fri", "time": "2:45pm"}, {"days": "Sat-Sun", "time": "Closed"}], "id": "7820700048", "name": "USPS COLLECTION BOX - BLUE BOX", "address": {"city": "SAN ANTONIO", "state": "TX", "street": "700 S ZARZAMORA ST", "postcode": "78207"}}},
{"geometry": {"type": "Point", "coordinates": [-98.5431087783, 29.4249239279]}, "type": "Feature", "properties": {"collection_times": [{"days": "Mon-Fri", "time": "2:45pm"}, {"days": "Sat-Sun", "time": "Closed"}], "id": "7820700049", "name": "USPS COLLECTION BOX - BLUE BOX", "address": {"city": "SAN ANTONIO", "state": "TX", "street": "411 SW 24TH ST", "postcode": "78207"}}},
{"geometry": {"type": "Point", "coordinates": [-98.4987785741, 29.4243501928]}, "type": "Feature", "properties": {"collection_times": [{"days": "Mon-Fri", "time": "3:15pm"}, {"days": "Sat-Sun", "time": "Closed"}], "id": "7820700073", "name": "USPS COLLECTION BOX - BLUE BOX", "address": {"city": "SAN ANTONIO", "state": "TX", "street": "800 DOLOROSA", "postcode": "78207"}}},
{"geometry": {"type": "Point", "coordinates": [-98.4871512704, 29.4265398499]}, "type": "Feature", "properties": {"collection_times": [{"days": "Mon-Fri", "time": "3:15pm"}, {"days": "Sat-Sun", "time": "Closed"}], "id": "7820700083", "name": "USPS COLLECTION BOX - BLUE BOX", "address": {"city": "SAN ANTONIO", "state": "TX", "street": "333 N SANTA ROSA ST", "postcode": "78207"}}},
{"geometry": {"type": "Point", "coordinates": [-98.5290528599, 29.4118025471]}, "type": "Feature", "properties": {"collection_times": [{"days": "Mon-Fri", "time": "2:30pm"}, {"days": "Sat-Sun", "time": "Closed"}], "id": "7820700086", "name": "USPS COLLECTION BOX - BLUE BOX", "address": {"city": "SAN ANTONIO", "state": "TX", "street": "1500 S ZARZAMORA ST", "postcode": "78207"}}},
{"geometry": {"type": "Point", "coordinates": [-98.5229357447, 29.4240115988]}, "type": "Feature", "properties": {"collection_times": [{"days": "Mon-Fri", "time": "3:15pm"}, {"days": "Sat-Sun", "time": "Closed"}], "id": "7820700092", "name": "USPS COLLECTION BOX - EXPRESS", "address": {"city": "SAN ANTONIO", "state": "TX", "street": "800 DOLOROSA", "postcode": "78207"}}},
{"geometry": {"type": "Point", "coordinates": [-98.5256239025, 29.4281162833]}, "type": "Feature", "properties": {"collection_times": [{"days": "Mon-Fri", "time": "3:00pm"}, {"days": "Sat-Sun", "time": "Closed"}], "id": "7820700094", "name": "USPS COLLECTION BOX - BLUE BOX", "address": {"city": "SAN ANTONIO", "state": "TX", "street": "108 N ROSILLO ST", "postcode": "78207"}}},
{"geometry": {"type": "Point", "coordinates": [-98.4644817848, 29.4421693724]}, "type": "Feature", "properties": {"collection_times": [{"days": "Mon-Fri", "time": "3:45pm"}, {"days": "Sat", "time": "3:15pm"}, {"days": "Sun", "time": "Closed"}], "id": "7820800011", "name": "USPS COLLECTION BOX - BLUE BOX", "address": {"city": "SAN ANTONIO", "state": "TX", "street": "515 PIERCE AVE", "postcode": "78208"}}},
{"geometry": {"type": "Point", "coordinates": [-98.4383766893, 29.5163512774]}, "type": "Feature", "properties": {"collection_times": [{"days": "Mon-Fri", "time": "4:30pm"}, {"days": "Sat-Sun", "time": "Closed"}], "id": "7820900048", "name": "USPS COLLECTION BOX - BLUE BOX", "address": {"city": "SAN ANTONIO", "state": "TX", "street": "1635 NE LOOP 410", "postcode": "78209"}}},
{"geometry": {"type": "Point", "coordinates": [-98.4670454795, 29.4607677453]}, "type": "Feature", "properties": {"collection_times": [{"days": "Mon-Fri", "time": "1:45pm"}, {"days": "Sat-Sun", "time": "Closed"}], "id": "7820900051", "name": "USPS COLLECTION BOX - BLUE BOX", "address": {"city": "SAN ANTONIO", "state": "TX", "street": "3737 BROADWAY ST", "postcode": "78209"}}},
{"geometry": {"type": "Point", "coordinates": [-98.465225126, 29.4633357885]}, "type": "Feature", "properties": {"collection_times": [{"days": "Mon-Fri", "time": "2:00pm"}, {"days": "Sat-Sun", "time": "Closed"}], "id": "7820900053", "name": "USPS COLLECTION BOX - BLUE BOX", "address": {"city": "SAN ANTONIO", "state": "TX", "street": "4040 BROADWAY ST", "postcode": "78209"}}},
{"geometry": {"type": "Point", "coordinates": [-98.4592035558, 29.4893588434]}, "type": "Feature", "properties": {"collection_times": [{"days": "Mon-Fri", "time": "1:30pm"}, {"days": "Sat-Sun", "time": "Closed"}], "id": "7820900062", "name": "USPS COLLECTION BOX - BLUE BOX", "address": {"city": "SAN ANTONIO", "state": "TX", "street": "6438 N NEW BRAUNFELS AVE", "postcode": "78209"}}},
{"geometry": {"type": "Point", "coordinates": [-98.466487647, 29.5009160689]}, "type": "Feature", "properties": {"collection_times": [{"days": "Mon-Fri", "time": "2:15pm"}, {"days": "Sat-Sun", "time": "Closed"}], "id": "7820900063", "name": "USPS COLLECTION BOX - BLUE BOX", "address": {"city": "SAN ANTONIO", "state": "TX", "street": "7718 BROADWAY ST", "postcode": "78209"}}},
{"geometry": {"type": "Point", "coordinates": [-98.4583081329, 29.4877137244]}, "type": "Feature", "properties": {"collection_times": [{"days": "Mon-Fri", "time": "3:00pm"}, {"days": "Sat-Sun", "time": "Closed"}], "id": "7820900067", "name": "USPS COLLECTION BOX - EXPRESS", "address": {"city": "SAN ANTONIO", "state": "TX", "street": "900 NE LOOP 410", "postcode": "78209"}}},
{"geometry": {"type": "Point", "coordinates": [-98.4626924109, 29.474131472]}, "type": "Feature", "properties": {"collection_times": [{"days": "Mon-Fri", "time": "2:00pm"}, {"days": "Sat", "time": "3:00pm"}, {"days": "Sun", "time": "Closed"}], "id": "7820900077", "name": "USPS COLLECTION BOX - BLUE BOX", "address": {"city": "SAN ANTONIO", "state": "TX", "street": "5108 BROADWAY ST", "postcode": "78209"}}},
{"geometry": {"type": "Point", "coordinates": [-98.4606766488, 29.5140882769]}, "type": "Feature", "properties": {"collection_times": [{"days": "Mon-Fri", "time": "3:00pm"}, {"days": "Sat", "time": "1:30pm"}, {"days": "Sun", "time": "Closed"}], "id": "7820900083", "name": "USPS COLLECTION BOX - BLUE BOX", "address": {"city": "SAN ANTONIO", "state": "TX", "street": "8603 CROWNHILL BLVD", "postcode": "78209"}}},
{"geometry": {"type": "Point", "coordinates": [-98.4606766488, 29.5140882769]}, "type": "Feature", "properties": {"collection_times": [{"days": "Mon-Fri", "time": "3:00pm"}, {"days": "Sat", "time": "1:30pm"}, {"days": "Sun", "time": "Closed"}], "id": "7820900084", "name": "USPS COLLECTION BOX - BLUE BOX", "address": {"city": "SAN ANTONIO", "state": "TX", "street": "8603 CROWNHILL BLVD", "postcode": "78209"}}},
{"geometry": {"type": "Point", "coordinates": [-98.4691016825, 29.4966597425]}, "type": "Feature", "properties": {"collection_times": [{"days": "Mon-Fri", "time": "2:15pm"}, {"days": "Sat", "time": "2:30pm"}, {"days": "Sun", "time": "Closed"}], "id": "7820900092", "name": "USPS COLLECTION BOX - BLUE BOX", "address": {"city": "SAN ANTONIO", "state": "TX", "street": "999 E BASSE RD STE 150", "postcode": "78209"}}},
{"geometry": {"type": "Point", "coordinates": [-98.469521633, 29.4965934968]}, "type": "Feature", "properties": {"collection_times": [{"days": "Mon-Fri", "time": "2:00pm"}, {"days": "Sat-Sun", "time": "Closed"}], "id": "7820900099", "name": "USPS COLLECTION BOX - BLUE BOX", "address": {"city": "SAN ANTONIO", "state": "TX", "street": "950 E BASSE RD", "postcode": "78209"}}},
{"geometry": {"type": "Point", "coordinates": [-98.466521649, 29.4924862633]}, "type": "Feature", "properties": {"collection_times": [{"days": "Mon-Fri", "time": "1:00pm"}, {"days": "Sat", "time": "2:45pm"}, {"days": "Sun", "time": "Closed"}], "id": "7820900102", "name": "USPS COLLECTION BOX - BLUE BOX", "address": {"city": "SAN ANTONIO", "state": "TX", "street": "7101 BROADWAY ST", "postcode": "78209"}}},
{"geometry": {"type": "Point", "coordinates": [-98.4663728268, 29.4837558371]}, "type": "Feature", "properties": {"collection_times": [{"days": "Mon-Fri", "time": "2:15pm"}, {"days": "Sat", "time": "3:00pm"}, {"days": "Sun", "time": "Closed"}], "id": "7820900107", "name": "USPS COLLECTION BOX - BLUE BOX", "address": {"city": "SAN ANTONIO", "state": "TX", "street": "6116 BROADWAY ST", "postcode": "78209"}}},
{"geometry": {"type": "Point", "coordinates": [-98.444587817, 29.48863523]}, "type": "Feature", "properties": {"collection_times": [{"days": "Mon-Fri", "time": "4:00pm"}, {"days": "Sat", "time": "2:30pm"}, {"days": "Sun", "time": "Closed"}], "id": "7820900109", "name": "USPS COLLECTION BOX - BLUE BOX", "address": {"city": "SAN ANTONIO", "state": "TX", "street": "1248 AUSTIN HWY", "postcode": "78209"}}},
{"geometry": {"type": "Point", "coordinates": [-98.4583081329, 29.4877137244]}, "type": "Feature", "properties": {"collection_times": [{"days": "Mon-Fri", "time": "3:45pm"}, {"days": "Sat-Sun", "time": "Closed"}], "id": "7820900114", "name": "USPS COLLECTION BOX - EXPRESS", "address": {"city": "SAN ANTONIO", "state": "TX", "street": "901 NE LOOP 410", "postcode": "78209"}}},
{"geometry": {"type": "Point", "coordinates": [-98.463784522, 29.516333079]}, "type": "Feature", "properties": {"collection_times": [{"days": "Mon-Fri", "time": "2:45pm"}, {"days": "Sat-Sun", "time": "Closed"}], "id": "7820900115", "name": "USPS COLLECTION BOX - BLUE BOX", "address": {"city": "SAN ANTONIO", "state": "TX", "street": "830 NE LOOP 410", "postcode": "78209"}}},
{"geometry": {"type": "Point", "coordinates": [-98.4635181162, 29.4701626447]}, "type": "Feature", "properties": {"collection_times": [{"days": "Mon-Fri", "time": "5:00pm"}, {"days": "Sat", "time": "3:30pm"}, {"days": "Sun", "time": "Closed"}], "id": "7820900118", "name": "USPS COLLECTION BOX - BLUE BOX", "address": {"city": "SAN ANTONIO", "state": "TX", "street": "4801 BROADWAY ST", "postcode": "78209"}}},
{"geometry": {"type": "Point", "coordinates": [-98.4635181162, 29.4701626447]}, "type": "Feature", "properties": {"collection_times": [{"days": "Mon-Fri", "time": "5:00pm"}, {"days": "Sat", "time": "3:30pm"}, {"days": "Sun", "time": "Closed"}], "id": "7820900119", "name": "USPS COLLECTION BOX - BLUE BOX", "address": {"city": "SAN ANTONIO", "state": "TX", "street": "4801 BROADWAY ST", "postcode": "78209"}}},
{"geometry": {"type": "Point", "coordinates": [-98.4635181162, 29.4701626447]}, "type": "Feature", "properties": {"collection_times": [{"days": "Mon-Fri", "time": "5:00pm"}, {"days": "Sat", "time": "3:30pm"}, {"days": "Sun", "time": "Closed"}], "id": "7820900120", "name": "USPS COLLECTION BOX - BLUE BOX", "address": {"city": "SAN ANTONIO", "state": "TX", "street": "4801 BROADWAY ST", "postcode": "78209"}}},
{"geometry": {"type": "Point", "coordinates": [-98.4583081329, 29.4877137244]}, "type": "Feature", "properties": {"collection_times": [{"days": "Mon-Fri", "time": "3:45pm"}, {"days": "Sat-Sun", "time": "Closed"}], "id": "7820900128", "name": "USPS COLLECTION BOX - EXPRESS", "address": {"city": "SAN ANTONIO", "state": "TX", "street": "1250 NE LOOP 410", "postcode": "78209"}}},
{"geometry": {"type": "Point", "coordinates": [-98.4575994126, 29.5075063353]}, "type": "Feature", "properties": {"collection_times": [{"days": "Mon-Fri", "time": "1:00pm"}, {"days": "Sat", "time": "2:45pm"}, {"days": "Sun", "time": "Closed"}], "id": "7820900139", "name": "USPS COLLECTION BOX - BLUE BOX", "address": {"city": "SAN ANTONIO", "state": "TX", "street": "1955 NACOGDOCHES RD", "postcode": "78209"}}},
{"geometry": {"type": "Point", "coordinates": [-98.4743256293, 29.499961381]}, "type": "Feature", "properties": {"collection_times": [{"days": "Mon-Fri", "time": "2:00pm"}, {"days": "Sat", "time": "2:30pm"}, {"days": "Sun", "time": "Closed"}], "id": "7820900147", "name": "USPS COLLECTION BOX - BLUE BOX", "address": {"city": "SAN ANTONIO", "state": "TX", "street": "153 TREELINE PARK", "postcode": "78209"}}},
{"geometry": {"type": "Point", "coordinates": [-98.4635181162, 29.4701626447]}, "type": "Feature", "properties": {"collection_times": [{"days": "Mon-Fri", "time": "5:00pm"}, {"days": "Sat", "time": "3:30pm"}, {"days": "Sun", "time": "Closed"}], "id": "7820900152", "name": "USPS COLLECTION BOX - PO LOBBY", "address": {"city": "SAN ANTONIO", "state": "TX", "street": "4801 BROADWAY ST", "postcode": "78209"}}},
{"geometry": {"type": "Point", "coordinates": [-98.4691277076, 29.4575357407]}, "type": "Feature", "properties": {"collection_times": [{"days": "Mon-Fri", "time": "1:45pm"}, {"days": "Sat-Sun", "time": "Closed"}], "id": "7820900154", "name": "USPS COLLECTION BOX - BLUE BOX", "address": {"city": "SAN ANTONIO", "state": "TX", "street": "3308 BROADWAY ST", "postcode": "78209"}}},
{"geometry": {"type": "Point", "coordinates": [-98.4635181162, 29.4701626447]}, "type": "Feature", "properties": {"collection_times": [{"days": "Mon-Fri", "time": "5:00pm"}, {"days": "Sat", "time": "3:30pm"}, {"days": "Sun", "time": "Closed"}], "id": "7820900155", "name": "USPS COLLECTION BOX - APC", "address": {"city": "SAN ANTONIO", "state": "TX", "street": "4801 BROADWAY ST", "postcode": "78209"}}},
{"geometry": {"type": "Point", "coordinates": [-98.4635181162, 29.4701626447]}, "type": "Feature", "properties": {"collection_times": [{"days": "Mon-Fri", "time": "5:00pm"}, {"days": "Sat", "time": "3:30pm"}, {"days": "Sun", "time": "Closed"}], "id": "7820900156", "name": "USPS COLLECTION BOX - PO LOBBY", "address": {"city": "SAN ANTONIO", "state": "TX", "street": "4801 BROADWAY ST", "postcode": "78209"}}},
{"geometry": {"type": "Point", "coordinates": [-98.4666012398, 29.4957691887]}, "type": "Feature", "properties": {"collection_times": [{"days": "Mon-Fri", "time": "4:00pm"}, {"days": "Sat-Sun", "time": "Closed"}], "id": "7820900157", "name": "USPS COLLECTION BOX - BLUE BOX", "address": {"city": "SAN ANTONIO", "state": "TX", "street": "7373 BROADWAY ST", "postcode": "78209"}}},
{"geometry": {"type": "Point", "coordinates": [-98.4666012398, 29.4957691887]}, "type": "Feature", "properties": {"collection_times": [{"days": "Mon-Fri", "time": "4:00pm"}, {"days": "Sat-Sun", "time": "Closed"}], "id": "7820900158", "name": "USPS COLLECTION BOX - BLUE BOX", "address": {"city": "SAN ANTONIO", "state": "TX", "street": "7373 BROADWAY ST", "postcode": "78209"}}},
{"geometry": {"type": "Point", "coordinates": [-98.4691120244, 29.4994163657]}, "type": "Feature", "properties": {"collection_times": [{"days": "Mon-Fri", "time": "4:00pm"}, {"days": "Sat-Sun", "time": "Closed"}], "id": "7820900160", "name": "USPS COLLECTION BOX - BLUE BOX", "address": {"city": "SAN ANTONIO", "state": "TX", "street": "250 W NOTTINGHAM DR", "postcode": "78209"}}},
{"geometry": {"type": "Point", "coordinates": [-98.4914667279, 29.3939930213]}, "type": "Feature", "properties": {"collection_times": [{"days": "Mon-Fri", "time": "1:30pm"}, {"days": "Sat-Sun", "time": "Closed"}], "id": "7821000029", "name": "USPS COLLECTION BOX - BLUE BOX", "address": {"city": "SAN ANTONIO", "state": "TX", "street": "600 MISSION RD", "postcode": "78210"}}},
{"geometry": {"type": "Point", "coordinates": [-98.4873866793, 29.4173518076]}, "type": "Feature", "properties": {"collection_times": [{"days": "Mon-Fri", "time": "1:15pm"}, {"days": "Sat-Sun", "time": "Closed"}], "id": "7821000034", "name": "USPS COLLECTION BOX - BLUE BOX", "address": {"city": "SAN ANTONIO", "state": "TX", "street": "141 LAVACA ST", "postcode": "78210"}}},
{"geometry": {"type": "Point", "coordinates": [-98.4734880944, 29.3971243922]}, "type": "Feature", "properties": {"collection_times": [{"days": "Mon-Fri", "time": "5:00pm"}, {"days": "Sat", "time": "4:00pm"}, {"days": "Sun", "time": "Closed"}], "id": "7821000039", "name": "USPS COLLECTION BOX - BLUE BOX", "address": {"city": "SAN ANTONIO", "state": "TX", "street": "2000 S HACKBERRY", "postcode": "78210"}}},
{"geometry": {"type": "Point", "coordinates": [-98.4734880944, 29.3971243922]}, "type": "Feature", "properties": {"collection_times": [{"days": "Mon-Fri", "time": "5:00pm"}, {"days": "Sat", "time": "4:00pm"}, {"days": "Sun", "time": "Closed"}], "id": "7821000040", "name": "USPS COLLECTION BOX - BLUE BOX", "address": {"city": "SAN ANTONIO", "state": "TX", "street": "2000 S HACKBERRY", "postcode": "78210"}}},
{"geometry": {"type": "Point", "coordinates": [-98.468679661, 29.3994405927]}, "type": "Feature", "properties": {"collection_times": [{"days": "Mon-Fri", "time": "5:00pm"}, {"days": "Sat-Sun", "time": "Closed"}], "id": "7821000041", "name": "USPS COLLECTION BOX - EXPRESS", "address": {"city": "SAN ANTONIO", "state": "TX", "street": "2000 S HACKBERRY", "postcode": "78210"}}},
{"geometry": {"type": "Point", "coordinates": [-98.5548439463, 29.3687927631]}, "type": "Feature", "properties": {"collection_times": [{"days": "Mon-Fri", "time": "2:15pm"}, {"days": "Sat", "time": "3:15pm"}, {"days": "Sun", "time": "Closed"}], "id": "7821100011", "name": "USPS COLLECTION BOX - BLUE BOX", "address": {"city": "SAN ANTONIO", "state": "TX", "street": "2612 W SOUTHCROSS BLVD", "postcode": "78211"}}},
{"geometry": {"type": "Point", "coordinates": [-98.5600891706, 29.3576541151]}, "type": "Feature", "properties": {"collection_times": [{"days": "Mon-Fri", "time": "2:15pm"}, {"days": "Sat-Sun", "time": "Closed"}], "id": "7821100013", "name": "USPS COLLECTION BOX - BLUE BOX", "address": {"city": "SAN ANTONIO", "state": "TX", "street": "7110 NEW LAREDO HWY", "postcode": "78211"}}},
{"geometry": {"type": "Point", "coordinates": [-98.5354065325, 29.361615513]}, "type": "Feature", "properties": {"collection_times": [{"days": "Mon-Fri", "time": "2:45pm"}, {"days": "Sat-Sun", "time": "Closed"}], "id": "7821100014", "name": "USPS COLLECTION BOX - BLUE BOX", "address": {"city": "SAN ANTONIO", "state": "TX", "street": "711 W MAYFIELD BLVD", "postcode": "78211"}}},
{"geometry": {"type": "Point", "coordinates": [-98.4918393368, 29.4410760496]}, "type": "Feature", "properties": {"collection_times": [{"days": "Mon-Fri", "time": "1:30pm"}, {"days": "Sat", "time": "3:15pm"}, {"days": "Sun", "time": "Closed"}], "id": "7821200047", "name": "USPS COLLECTION BOX - BLUE BOX", "address": {"city": "SAN ANTONIO", "state": "TX", "street": "1310 MCCULLOUGH AVE", "postcode": "78212"}}},
{"geometry": {"type": "Point", "coordinates": [-98.4904942082, 29.4719118411]}, "type": "Feature", "properties": {"collection_times": [{"days": "Mon-Fri", "time": "1:00pm"}, {"days": "Sat", "time": "3:45pm"}, {"days": "Sun", "time": "Closed"}], "id": "7821200048", "name": "USPS COLLECTION BOX - BLUE BOX", "address": {"city": "SAN ANTONIO", "state": "TX", "street": "120 W EL PRADO DR", "postcode": "78212"}}},
{"geometry": {"type": "Point", "coordinates": [-98.4870341575, 29.4672454678]}, "type": "Feature", "properties": {"collection_times": [{"days": "Mon-Fri", "time": "1:00pm"}, {"days": "Sat-Sun", "time": "Closed"}], "id": "7821200053", "name": "USPS COLLECTION BOX - BLUE BOX", "address": {"city": "SAN ANTONIO", "state": "TX", "street": "1023 SHOOK AVE", "postcode": "78212"}}},
{"geometry": {"type": "Point", "coordinates": [-98.4784373077, 29.4577679532]}, "type": "Feature", "properties": {"collection_times": [{"days": "Mon-Fri", "time": "1:15pm"}, {"days": "Sat-Sun", "time": "Closed"}], "id": "7821200055", "name": "USPS COLLECTION BOX - BLUE BOX", "address": {"city": "SAN ANTONIO", "state": "TX", "street": "3707 N SAINT MARYS ST", "postcode": "78212"}}},
{"geometry": {"type": "Point", "coordinates": [-98.4917444279, 29.4519780563]}, "type": "Feature", "properties": {"collection_times": [{"days": "Mon-Fri", "time": "5:00pm"}, {"days": "Sat", "time": "4:30pm"}, {"days": "Sun", "time": "Closed"}], "id": "7821200062", "name": "USPS COLLECTION BOX - BLUE BOX", "address": {"city": "SAN ANTONIO", "state": "TX", "street": "2400 MCCULLOUGH AVE", "postcode": "78212"}}},
{"geometry": {"type": "Point", "coordinates": [-98.4954970349, 29.4571509557]}, "type": "Feature", "properties": {"collection_times": [{"days": "Mon-Fri", "time": "5:00pm"}, {"days": "Sat-Sun", "time": "Closed"}], "id": "7821200102", "name": "USPS COLLECTION BOX - EXPRESS", "address": {"city": "SAN ANTONIO", "state": "TX", "street": "2400 MCCULLOUGH AVE", "postcode": "78212"}}},
{"geometry": {"type": "Point", "coordinates": [-98.4954970349, 29.4571509557]}, "type": "Feature", "properties": {"collection_times": [{"days": "Mon-Fri", "time": "4:30pm"}, {"days": "Sat-Sun", "time": "Closed"}], "id": "7821200104", "name": "USPS COLLECTION BOX - EXPRESS", "address": {"city": "SAN ANTONIO", "state": "TX", "street": "745 E MULBERRY AVE", "postcode": "78212"}}},
{"geometry": {"type": "Point", "coordinates": [-98.4971579203, 29.4709351169]}, "type": "Feature", "properties": {"collection_times": [{"days": "Mon-Fri", "time": "1:00pm"}, {"days": "Sat", "time": "3:45pm"}, {"days": "Sun", "time": "Closed"}], "id": "7821200105", "name": "USPS COLLECTION BOX - BLUE BOX", "address": {"city": "SAN ANTONIO", "state": "TX", "street": "300 W OLMOS DR", "postcode": "78212"}}},
{"geometry": {"type": "Point", "coordinates": [-98.4812031702, 29.4625325925]}, "type": "Feature", "properties": {"collection_times": [{"days": "Mon-Fri", "time": "4:30pm"}, {"days": "Sat-Sun", "time": "Closed"}], "id": "7821200107", "name": "USPS COLLECTION BOX - BLUE BOX", "address": {"city": "SAN ANTONIO", "state": "TX", "street": "607 KINGS CT", "postcode": "78212"}}},
{"geometry": {"type": "Point", "coordinates": [-98.4917444279, 29.4519780563]}, "type": "Feature", "properties": {"collection_times": [{"days": "Mon-Fri", "time": "5:00pm"}, {"days": "Sat", "time": "4:30pm"}, {"days": "Sun", "time": "Closed"}], "id": "7821200110", "name": "USPS COLLECTION BOX - BLUE BOX", "address": {"city": "SAN ANTONIO", "state": "TX", "street": "2400 MCCULLOUGH AVE", "postcode": "78212"}}},
{"geometry": {"type": "Point", "coordinates": [-98.4917444279, 29.4519780563]}, "type": "Feature", "properties": {"collection_times": [{"days": "Mon-Fri", "time": "5:00pm"}, {"days": "Sat", "time": "4:30pm"}, {"days": "Sun", "time": "Closed"}], "id": "7821200112", "name": "USPS COLLECTION BOX - BLUE BOX", "address": {"city": "SAN ANTONIO", "state": "TX", "street": "2400 MCCULLOUGH AVE", "postcode": "78212"}}},
{"geometry": {"type": "Point", "coordinates": [-98.4917444279, 29.4519780563]}, "type": "Feature", "properties": {"collection_times": [{"days": "Mon-Fri", "time": "5:00pm"}, {"days": "Sat", "time": "4:30pm"}, {"days": "Sun", "time": "Closed"}], "id": "7821200123", "name": "USPS COLLECTION BOX - PO LOBBY", "address": {"city": "SAN ANTONIO", "state": "TX", "street": "2400 MCCULLOUGH AVE", "postcode": "78212"}}},
{"geometry": {"type": "Point", "coordinates": [-98.4969887572, 29.4406430866]}, "type": "Feature", "properties": {"collection_times": [{"days": "Mon-Fri", "time": "1:45pm"}, {"days": "Sat", "time": "3:30pm"}, {"days": "Sun", "time": "Closed"}], "id": "7821200132", "name": "USPS COLLECTION BOX - BLUE BOX", "address": {"city": "SAN ANTONIO", "state": "TX", "street": "303 W CYPRESS ST", "postcode": "78212"}}},
{"geometry": {"type": "Point", "coordinates": [-98.4941768637, 29.4380169177]}, "type": "Feature", "properties": {"collection_times": [{"days": "Mon-Fri", "time": "2:00pm"}, {"days": "Sat-Sun", "time": "Closed"}], "id": "7821200133", "name": "USPS COLLECTION BOX - BLUE BOX", "address": {"city": "SAN ANTONIO", "state": "TX", "street": "1017 N MAIN AVE", "postcode": "78212"}}},
{"geometry": {"type": "Point", "coordinates": [-98.4917444279, 29.4519780563]}, "type": "Feature", "properties": {"collection_times": [{"days": "Mon-Fri", "time": "5:00pm"}, {"days": "Sat", "time": "4:30pm"}, {"days": "Sun", "time": "Closed"}], "id": "7821200139", "name": "USPS COLLECTION BOX - APC", "address": {"city": "SAN ANTONIO", "state": "TX", "street": "2400 MCCULLOUGH AVE", "postcode": "78212"}}},
{"geometry": {"type": "Point", "coordinates": [-98.5229931445, 29.5369771164]}, "type": "Feature", "properties": {"collection_times": [{"days": "Mon-Fri", "time": "1:00pm"}, {"days": "Sat-Sun", "time": "Closed"}], "id": "7821300005", "name": "USPS COLLECTION BOX - BLUE BOX", "address": {"city": "SAN ANTONIO", "state": "TX", "street": "1848 LOCKHILL SELMA RD", "postcode": "78213"}}},
{"geometry": {"type": "Point", "coordinates": [-98.5221053419, 29.5321520603]}, "type": "Feature", "properties": {"collection_times": [{"days": "Mon-Fri", "time": "1:00pm"}, {"days": "Sat-Sun", "time": "Closed"}], "id": "7821300027", "name": "USPS COLLECTION BOX - BLUE BOX", "address": {"city": "SAN ANTONIO", "state": "TX", "street": "2161 NW MILITARY HWY", "postcode": "78213"}}},
{"geometry": {"type": "Point", "coordinates": [-98.5428177704, 29.4877638911]}, "type": "Feature", "properties": {"collection_times": [{"days": "Mon-Fri", "time": "4:00pm"}, {"days": "Sat", "time": "4:15pm"}, {"days": "Sun", "time": "Closed"}], "id": "7821300038", "name": "USPS COLLECTION BOX - BLUE BOX", "address": {"city": "SAN ANTONIO", "state": "TX", "street": "6800 PARK TEN BLVD", "postcode": "78213"}}},
{"geometry": {"type": "Point", "coordinates": [-98.5428177704, 29.4877638911]}, "type": "Feature", "properties": {"collection_times": [{"days": "Mon-Fri", "time": "4:00pm"}, {"days": "Sat", "time": "4:15pm"}, {"days": "Sun", "time": "Closed"}], "id": "7821300039", "name": "USPS COLLECTION BOX - BLUE BOX", "address": {"city": "SAN ANTONIO", "state": "TX", "street": "6800 PARK TEN BLVD", "postcode": "78213"}}},
{"geometry": {"type": "Point", "coordinates": [-98.5428177704, 29.4877638911]}, "type": "Feature", "properties": {"collection_times": [{"days": "Mon-Fri", "time": "4:00pm"}, {"days": "Sat", "time": "4:15pm"}, {"days": "Sun", "time": "Closed"}], "id": "7821300040", "name": "USPS COLLECTION BOX - BLUE BOX", "address": {"city": "SAN ANTONIO", "state": "TX", "street": "6800 PARK TEN BLVD", "postcode": "78213"}}},
{"geometry": {"type": "Point", "coordinates": [-98.522409999, 29.5191020441]}, "type": "Feature", "properties": {"collection_times": [{"days": "Mon-Fri", "time": "4:00pm"}, {"days": "Sat-Sun", "time": "Closed"}], "id": "7821300041", "name": "USPS COLLECTION BOX - EXPRESS", "address": {"city": "SAN ANTONIO", "state": "TX", "street": "6800 PARK TEN BLVD", "postcode": "78213"}}},
{"geometry": {"type": "Point", "coordinates": [-98.5131113049, 29.5422178582]}, "type": "Feature", "properties": {"collection_times": [{"days": "Mon-Fri", "time": "3:00pm"}, {"days": "Sat-Sun", "time": "Closed"}], "id": "7821300047", "name": "USPS COLLECTION BOX - BLUE BOX", "address": {"city": "SAN ANTONIO", "state": "TX", "street": "11230 WEST AVE", "postcode": "78213"}}},
{"geometry": {"type": "Point", "coordinates": [-98.5259239335, 29.5154439479]}, "type": "Feature", "properties": {"collection_times": [{"days": "Mon-Fri", "time": "1:00pm"}, {"days": "Sat", "time": "3:45pm"}, {"days": "Sun", "time": "Closed"}], "id": "7821300053", "name": "USPS COLLECTION BOX - BLUE BOX", "address": {"city": "SAN ANTONIO", "state": "TX", "street": "6000 WEST AVE", "postcode": "78213"}}},
{"geometry": {"type": "Point", "coordinates": [-98.5085486322, 29.5199936081]}, "type": "Feature", "properties": {"collection_times": [{"days": "Mon-Fri", "time": "3:45pm"}, {"days": "Sat-Sun", "time": "Closed"}], "id": "7821300059", "name": "USPS COLLECTION BOX - BLUE BOX", "address": {"city": "SAN ANTONIO", "state": "TX", "street": "1100 NW LOOP 410", "postcode": "78213"}}},
{"geometry": {"type": "Point", "coordinates": [-98.5085486322, 29.5199936081]}, "type": "Feature", "properties": {"collection_times": [{"days": "Mon-Fri", "time": "3:45pm"}, {"days": "Sat-Sun", "time": "Closed"}], "id": "7821300060", "name": "USPS COLLECTION BOX - BLUE BOX", "address": {"city": "SAN ANTONIO", "state": "TX", "street": "1100 NW LOOP 410", "postcode": "78213"}}},
{"geometry": {"type": "Point", "coordinates": [-98.5085486322, 29.5199936081]}, "type": "Feature", "properties": {"collection_times": [{"days": "Mon-Fri", "time": "3:45pm"}, {"days": "Sat-Sun", "time": "Closed"}], "id": "7821300061", "name": "USPS COLLECTION BOX - BLUE BOX", "address": {"city": "SAN ANTONIO", "state": "TX", "street": "1100 NW LOOP 410", "postcode": "78213"}}},
{"geometry": {"type": "Point", "coordinates": [-98.5423055492, 29.4898021294]}, "type": "Feature", "properties": {"collection_times": [{"days": "Mon-Fri", "time": "4:00pm"}, {"days": "Sat-Sun", "time": "Closed"}], "id": "7821300069", "name": "USPS COLLECTION BOX - BLUE BOX", "address": {"city": "SAN ANTONIO", "state": "TX", "street": "6655 FIRST PARK TEN BLVD", "postcode": "78213"}}},
{"geometry": {"type": "Point", "coordinates": [-98.5229523405, 29.5332557611]}, "type": "Feature", "properties": {"collection_times": [{"days": "Mon-Fri", "time": "1:00pm"}, {"days": "Sat-Sun", "time": "Closed"}], "id": "7821300072", "name": "USPS COLLECTION BOX - BLUE BOX", "address": {"city": "SAN ANTONIO", "state": "TX", "street": "2201 NW MILITARY HWY", "postcode": "78213"}}},
{"geometry": {"type": "Point", "coordinates": [-98.4930591242, 29.36184944]}, "type": "Feature", "properties": {"collection_times": [{"days": "Mon-Fri", "time": "4:15pm"}, {"days": "Sat", "time": "2:45pm"}, {"days": "Sun", "time": "Closed"}], "id": "7821400006", "name": "USPS COLLECTION BOX - BLUE BOX", "address": {"city": "SAN ANTONIO", "state": "TX", "street": "6302 S FLORES ST", "postcode": "78214"}}},
{"geometry": {"type": "Point", "coordinates": [-98.478398557, 29.3544846363]}, "type": "Feature", "properties": {"collection_times": [{"days": "Mon-Fri", "time": "3:15pm"}, {"days": "Sat", "time": "2:30pm"}, {"days": "Sun", "time": "Closed"}], "id": "7821400013", "name": "USPS COLLECTION BOX - BLUE BOX", "address": {"city": "SAN ANTONIO", "state": "TX", "street": "1200 SE MILITARY DR", "postcode": "78214"}}},
{"geometry": {"type": "Point", "coordinates": [-98.4929722506, 29.3615674964]}, "type": "Feature", "properties": {"collection_times": [{"days": "Mon-Fri", "time": "4:15pm"}, {"days": "Sat", "time": "2:45pm"}, {"days": "Sun", "time": "Closed"}], "id": "7821400016", "name": "USPS COLLECTION BOX - BLUE BOX", "address": {"city": "SAN ANTONIO", "state": "TX", "street": "6302 S FLORES ST", "postcode": "78214"}}},
{"geometry": {"type": "Point", "coordinates": [-98.4847541668, 29.4366838641]}, "type": "Feature", "properties": {"collection_times": [{"days": "Mon-Fri", "time": "2:15pm"}, {"days": "Sat-Sun", "time": "Closed"}], "id": "7821500018", "name": "USPS COLLECTION BOX - BLUE BOX", "address": {"city": "SAN ANTONIO", "state": "TX", "street": "1403 N SAINT MARYS ST", "postcode": "78215"}}},
{"geometry": {"type": "Point", "coordinates": [-98.4951748571, 29.5197526365]}, "type": "Feature", "properties": {"collection_times": [{"days": "Mon-Fri", "time": "1:30pm"}, {"days": "Sat", "time": "4:00pm"}, {"days": "Sun", "time": "Closed"}], "id": "7821600060", "name": "USPS COLLECTION BOX - BLUE BOX", "address": {"city": "SAN ANTONIO", "state": "TX", "street": "2000 NORTH STAR MALL", "postcode": "78216"}}},
{"geometry": {"type": "Point", "coordinates": [-98.482809811, 29.5616219341]}, "type": "Feature", "properties": {"collection_times": [{"days": "Mon-Sat", "time": "2:00pm"}, {"days": "Sun", "time": "Closed"}], "id": "7821600062", "name": "USPS COLLECTION BOX - BLUE BOX", "address": {"city": "SAN ANTONIO", "state": "TX", "street": "13402 SAN PEDRO AVE", "postcode": "78216"}}},
{"geometry": {"type": "Point", "coordinates": [-98.4992600384, 29.5059436045]}, "type": "Feature", "properties": {"collection_times": [{"days": "Mon-Fri", "time": "1:30pm"}, {"days": "Sat-Sun", "time": "Closed"}], "id": "7821600067", "name": "USPS COLLECTION BOX - BLUE BOX", "address": {"city": "SAN ANTONIO", "state": "TX", "street": "6900 SAN PEDRO AVE", "postcode": "78216"}}},
{"geometry": {"type": "Point", "coordinates": [-98.4993232705, 29.5103273473]}, "type": "Feature", "properties": {"collection_times": [{"days": "Mon-Fri", "time": "1:00pm"}, {"days": "Sat-Sun", "time": "Closed"}], "id": "7821600071", "name": "USPS COLLECTION BOX - BLUE BOX", "address": {"city": "SAN ANTONIO", "state": "TX", "street": "7071 SAN PEDRO AVE", "postcode": "78216"}}},
{"geometry": {"type": "Point", "coordinates": [-98.4990542035, 29.5250294644]}, "type": "Feature", "properties": {"collection_times": [{"days": "Mon-Fri", "time": "4:15pm"}, {"days": "Sat-Sun", "time": "Closed"}], "id": "7821600074", "name": "USPS COLLECTION BOX - BLUE BOX", "address": {"city": "SAN ANTONIO", "state": "TX", "street": "9311 SAN PEDRO AVE", "postcode": "78216"}}},
{"geometry": {"type": "Point", "coordinates": [-98.4992588554, 29.5032062374]}, "type": "Feature", "properties": {"collection_times": [{"days": "Mon-Fri", "time": "1:15pm"}, {"days": "Sat-Sun", "time": "Closed"}], "id": "7821600077", "name": "USPS COLLECTION BOX - BLUE BOX", "address": {"city": "SAN ANTONIO", "state": "TX", "street": "6836 SAN PEDRO AVE", "postcode": "78216"}}},
{"geometry": {"type": "Point", "coordinates": [-98.4993201795, 29.5026809778]}, "type": "Feature", "properties": {"collection_times": [{"days": "Mon-Fri", "time": "1:15pm"}, {"days": "Sat", "time": "3:45pm"}, {"days": "Sun", "time": "Closed"}], "id": "7821600079", "name": "USPS COLLECTION BOX - BLUE BOX", "address": {"city": "SAN ANTONIO", "state": "TX", "street": "6839 SAN PEDRO AVE", "postcode": "78216"}}},
{"geometry": {"type": "Point", "coordinates": [-98.4790006832, 29.5078789253]}, "type": "Feature", "properties": {"collection_times": [{"days": "Mon-Fri", "time": "1:45pm"}, {"days": "Sat", "time": "2:45pm"}, {"days": "Sun", "time": "Closed"}], "id": "7821600082", "name": "USPS COLLECTION BOX - BLUE BOX", "address": {"city": "SAN ANTONIO", "state": "TX", "street": "600 W SUNSET RD", "postcode": "78216"}}},
{"geometry": {"type": "Point", "coordinates": [-98.5068037677, 29.5166209921]}, "type": "Feature", "properties": {"collection_times": [{"days": "Mon-Fri", "time": "1:00pm"}, {"days": "Sat", "time": "4:00pm"}, {"days": "Sun", "time": "Closed"}], "id": "7821600086", "name": "USPS COLLECTION BOX - BLUE BOX", "address": {"city": "SAN ANTONIO", "state": "TX", "street": "6609 BLANCO RD", "postcode": "78216"}}},
{"geometry": {"type": "Point", "coordinates": [-98.4903074049, 29.5613250114]}, "type": "Feature", "properties": {"collection_times": [{"days": "Mon-Fri", "time": "3:15pm"}, {"days": "Sat-Sun", "time": "Closed"}], "id": "7821600092", "name": "USPS COLLECTION BOX - BLUE BOX", "address": {"city": "SAN ANTONIO", "state": "TX", "street": "121 INTERPARK BLVD", "postcode": "78216"}}},
{"geometry": {"type": "Point", "coordinates": [-98.5183304971, 29.5702951336]}, "type": "Feature", "properties": {"collection_times": [{"days": "Mon-Fri", "time": "1:15pm"}, {"days": "Sat", "time": "4:00pm"}, {"days": "Sun", "time": "Closed"}], "id": "7821600094", "name": "USPS COLLECTION BOX - BLUE BOX", "address": {"city": "SAN ANTONIO", "state": "TX", "street": "13423 BLANCO RD", "postcode": "78216"}}},
{"geometry": {"type": "Point", "coordinates": [-98.5050553544, 29.5254044624]}, "type": "Feature", "properties": {"collection_times": [{"days": "Mon-Fri", "time": "1:45pm"}, {"days": "Sat-Sun", "time": "Closed"}], "id": "7821600101", "name": "USPS COLLECTION BOX - BLUE BOX", "address": {"city": "SAN ANTONIO", "state": "TX", "street": "7300 BLANCO RD", "postcode": "78216"}}},
{"geometry": {"type": "Point", "coordinates": [-98.4967875016, 29.5356521701]}, "type": "Feature", "properties": {"collection_times": [{"days": "Mon-Fri", "time": "3:30pm"}, {"days": "Sat-Sun", "time": "Closed"}], "id": "7821600113", "name": "USPS COLLECTION BOX - EXPRESS", "address": {"city": "SAN ANTONIO", "state": "TX", "street": "10100 REUNION PL", "postcode": "78216"}}},
{"geometry": {"type": "Point", "coordinates": [-98.4967875016, 29.5356521701]}, "type": "Feature", "properties": {"collection_times": [{"days": "Mon-Fri", "time": "2:30pm"}, {"days": "Sat-Sun", "time": "Closed"}], "id": "7821600128", "name": "USPS COLLECTION BOX - EXPRESS", "address": {"city": "SAN ANTONIO", "state": "TX", "street": "200 CONCORD PLAZA DR", "postcode": "78216"}}},
{"geometry": {"type": "Point", "coordinates": [-98.4916453315, 29.5350633224]}, "type": "Feature", "properties": {"collection_times": [{"days": "Mon-Fri", "time": "5:00pm"}, {"days": "Sat", "time": "4:15pm"}, {"days": "Sun", "time": "Closed"}], "id": "7821600133", "name": "USPS COLLECTION BOX - BLUE BOX", "address": {"city": "SAN ANTONIO", "state": "TX", "street": "10330 DESERT SANDS ST", "postcode": "78216"}}},
{"geometry": {"type": "Point", "coordinates": [-98.4967875016, 29.5356521701]}, "type": "Feature", "properties": {"collection_times": [{"days": "Mon-Fri", "time": "5:00pm"}, {"days": "Sat", "time": "11:30am"}, {"days": "Sun", "time": "Closed"}], "id": "7821600135", "name": "USPS COLLECTION BOX - EXPRESS", "address": {"city": "SAN ANTONIO", "state": "TX", "street": "10330 DESERT SANDS ST", "postcode": "78216"}}},
{"geometry": {"type": "Point", "coordinates": [-98.4933620185, 29.528151746]}, "type": "Feature", "properties": {"collection_times": [{"days": "Mon-Fri", "time": "1:00pm"}, {"days": "Sat-Sun", "time": "Closed"}], "id": "7821600139", "name": "USPS COLLECTION BOX - BLUE BOX", "address": {"city": "SAN ANTONIO", "state": "TX", "street": "431 ISOM RD", "postcode": "78216"}}},
{"geometry": {"type": "Point", "coordinates": [-98.4967875016, 29.5356521701]}, "type": "Feature", "properties": {"collection_times": [{"days": "Mon-Fri", "time": "3:15pm"}, {"days": "Sat-Sun", "time": "Closed"}], "id": "7821600165", "name": "USPS COLLECTION BOX - EXPRESS", "address": {"city": "SAN ANTONIO", "state": "TX", "street": "10101 REUNION PL", "postcode": "78216"}}},
{"geometry": {"type": "Point", "coordinates": [-98.482809811, 29.5616219341]}, "type": "Feature", "properties": {"collection_times": [{"days": "Mon-Sat", "time": "2:00pm"}, {"days": "Sun", "time": "Closed"}], "id": "7821600171", "name": "USPS COLLECTION BOX - BLUE BOX", "address": {"city": "SAN ANTONIO", "state": "TX", "street": "13402 SAN PEDRO AVE", "postcode": "78216"}}},
{"geometry": {"type": "Point", "coordinates": [-98.4990542035, 29.5250294644]}, "type": "Feature", "properties": {"collection_times": [{"days": "Mon-Fri", "time": "4:15pm"}, {"days": "Sat-Sun", "time": "Closed"}], "id": "7821600174", "name": "USPS COLLECTION BOX - BLUE BOX", "address": {"city": "SAN ANTONIO", "state": "TX", "street": "9311 SAN PEDRO AVE", "postcode": "78216"}}},
{"geometry": {"type": "Point", "coordinates": [-98.4990542035, 29.5250294644]}, "type": "Feature", "properties": {"collection_times": [{"days": "Mon-Fri", "time": "4:15pm"}, {"days": "Sat-Sun", "time": "Closed"}], "id": "7821600175", "name": "USPS COLLECTION BOX - BLUE BOX", "address": {"city": "SAN ANTONIO", "state": "TX", "street": "9311 SAN PEDRO AVE", "postcode": "78216"}}},
{"geometry": {"type": "Point", "coordinates": [-98.4967875016, 29.5356521701]}, "type": "Feature", "properties": {"collection_times": [{"days": "Mon-Fri", "time": "4:15pm"}, {"days": "Sat-Sun", "time": "Closed"}], "id": "7821600177", "name": "USPS COLLECTION BOX - EXPRESS", "address": {"city": "SAN ANTONIO", "state": "TX", "street": "9311 SAN PEDRO AVE", "postcode": "78216"}}},
{"geometry": {"type": "Point", "coordinates": [-98.5068156957, 29.5483584119]}, "type": "Feature", "properties": {"collection_times": [{"days": "Mon-Fri", "time": "3:30pm"}, {"days": "Sat-Sun", "time": "Closed"}], "id": "7821600178", "name": "USPS COLLECTION BOX - BLUE BOX", "address": {"city": "SAN ANTONIO", "state": "TX", "street": "11765 WEST AVE", "postcode": "78216"}}},
{"geometry": {"type": "Point", "coordinates": [-98.4903074049, 29.5613250114]}, "type": "Feature", "properties": {"collection_times": [{"days": "Mon-Fri", "time": "3:15pm"}, {"days": "Sat-Sun", "time": "Closed"}], "id": "7821600191", "name": "USPS COLLECTION BOX - BLUE BOX", "address": {"city": "SAN ANTONIO", "state": "TX", "street": "121 INTERPARK BLVD", "postcode": "78216"}}},
{"geometry": {"type": "Point", "coordinates": [-98.4831646987, 29.5153623237]}, "type": "Feature", "properties": {"collection_times": [{"days": "Mon-Fri", "time": "1:45pm"}, {"days": "Sat", "time": "2:45pm"}, {"days": "Sun", "time": "Closed"}], "id": "7821600203", "name": "USPS COLLECTION BOX - BLUE BOX", "address": {"city": "SAN ANTONIO", "state": "TX", "street": "8500 JONES MALTSBERGER RD", "postcode": "78216"}}},
{"geometry": {"type": "Point", "coordinates": [-98.5005767077, 29.5300118644]}, "type": "Feature", "properties": {"collection_times": [{"days": "Mon-Fri", "time": "1:30pm"}, {"days": "Sat", "time": "4:15pm"}, {"days": "Sun", "time": "Closed"}], "id": "7821600211", "name": "USPS COLLECTION BOX - BLUE BOX", "address": {"city": "SAN ANTONIO", "state": "TX", "street": "9846 LORENE LN", "postcode": "78216"}}},
{"geometry": {"type": "Point", "coordinates": [-98.5141227348, 29.5784684527]}, "type": "Feature", "properties": {"collection_times": [{"days": "Mon-Fri", "time": "1:15pm"}, {"days": "Sat-Sun", "time": "Closed"}], "id": "7821600213", "name": "USPS COLLECTION BOX - BLUE BOX", "address": {"city": "SAN ANTONIO", "state": "TX", "street": "14855 BLANCO RD", "postcode": "78216"}}},
{"geometry": {"type": "Point", "coordinates": [-98.4896248376, 29.5274687258]}, "type": "Feature", "properties": {"collection_times": [{"days": "Mon-Fri", "time": "2:00pm"}, {"days": "Sat-Sun", "time": "Closed"}], "id": "7821600220", "name": "USPS COLLECTION BOX - BLUE BOX", "address": {"city": "SAN ANTONIO", "state": "TX", "street": "403 E RAMSEY RD", "postcode": "78216"}}},
{"geometry": {"type": "Point", "coordinates": [-98.5054178809, 29.5288086593]}, "type": "Feature", "properties": {"collection_times": [{"days": "Mon-Fri", "time": "1:45pm"}, {"days": "Sat-Sun", "time": "Closed"}], "id": "7821600228", "name": "USPS COLLECTION BOX - BLUE BOX", "address": {"city": "SAN ANTONIO", "state": "TX", "street": "7410 BLANCO RD", "postcode": "78216"}}},
{"geometry": {"type": "Point", "coordinates": [-98.5039459287, 29.5545299197]}, "type": "Feature", "properties": {"collection_times": [{"days": "Mon-Fri", "time": "3:30pm"}, {"days": "Sat", "time": "4:00pm"}, {"days": "Sun", "time": "Closed"}], "id": "7821600230", "name": "USPS COLLECTION BOX - BLUE BOX", "address": {"city": "SAN ANTONIO", "state": "TX", "street": "848 W RHAPSODY DR", "postcode": "78216"}}},
{"geometry": {"type": "Point", "coordinates": [-98.4967875016, 29.5356521701]}, "type": "Feature", "properties": {"collection_times": [{"days": "Mon-Fri", "time": "2:00pm"}, {"days": "Sat-Sun", "time": "Closed"}], "id": "7821600232", "name": "USPS COLLECTION BOX - EXPRESS", "address": {"city": "SAN ANTONIO", "state": "TX", "street": "12500 SAN PEDRO AVE", "postcode": "78216"}}},
{"geometry": {"type": "Point", "coordinates": [-98.5210288493, 29.5666010084]}, "type": "Feature", "properties": {"collection_times": [{"days": "Mon-Fri", "time": "1:00pm"}, {"days": "Sat-Sun", "time": "Closed"}], "id": "7821600234", "name": "USPS COLLECTION BOX - BLUE BOX", "address": {"city": "SAN ANTONIO", "state": "TX", "street": "13300 BLANCO RD", "postcode": "78216"}}},
{"geometry": {"type": "Point", "coordinates": [-98.4906496247, 29.561660728]}, "type": "Feature", "properties": {"collection_times": [{"days": "Mon-Fri", "time": "3:15pm"}, {"days": "Sat-Sun", "time": "Closed"}], "id": "7821600240", "name": "USPS COLLECTION BOX - BLUE BOX", "address": {"city": "SAN ANTONIO", "state": "TX", "street": "131 INTERPARK BLVD", "postcode": "78216"}}},
{"geometry": {"type": "Point", "coordinates": [-98.3947065762, 29.5295010493]}, "type": "Feature", "properties": {"collection_times": [{"days": "Mon-Fri", "time": "2:00pm"}, {"days": "Sat-Sun", "time": "Closed"}], "id": "7821700000", "name": "USPS COLLECTION BOX - BLUE BOX", "address": {"city": "SAN ANTONIO", "state": "TX", "street": "9822 BALL ST", "postcode": "78217"}}},
{"geometry": {"type": "Point", "coordinates": [-98.462112761, 29.5192483439]}, "type": "Feature", "properties": {"collection_times": [{"days": "Mon-Fri", "time": "3:30pm"}, {"days": "Sat-Sun", "time": "Closed"}], "id": "7821700003", "name": "USPS COLLECTION BOX - BLUE BOX", "address": {"city": "SAN ANTONIO", "state": "TX", "street": "8610 BROADWAY ST", "postcode": "78217"}}},
{"geometry": {"type": "Point", "coordinates": [-98.3859254718, 29.5674858617]}, "type": "Feature", "properties": {"collection_times": [{"days": "Mon-Fri", "time": "1:00pm"}, {"days": "Sat", "time": "12:30pm"}, {"days": "Sun", "time": "Closed"}], "id": "7821700014", "name": "USPS COLLECTION BOX - BLUE BOX", "address": {"city": "SAN ANTONIO", "state": "TX", "street": "13909 NACOGDOCHES RD", "postcode": "78217"}}},
{"geometry": {"type": "Point", "coordinates": [-98.4271480428, 29.5171769828]}, "type": "Feature", "properties": {"collection_times": [{"days": "Mon-Fri", "time": "3:15pm"}, {"days": "Sat-Sun", "time": "Closed"}], "id": "7821700022", "name": "USPS COLLECTION BOX - BLUE BOX", "address": {"city": "SAN ANTONIO", "state": "TX", "street": "8527 VILLAGE DR", "postcode": "78217"}}},
{"geometry": {"type": "Point", "coordinates": [-98.4568710698, 29.5244237894]}, "type": "Feature", "properties": {"collection_times": [{"days": "Mon-Fri", "time": "5:30pm"}, {"days": "Sat", "time": "4:00pm"}, {"days": "Sun", "time": "Closed"}], "id": "7821700028", "name": "USPS COLLECTION BOX - BLUE BOX", "address": {"city": "SAN ANTONIO", "state": "TX", "street": "9211 BROADWAY ST", "postcode": "78217"}}},
{"geometry": {"type": "Point", "coordinates": [-98.4559755699, 29.5201521246]}, "type": "Feature", "properties": {"collection_times": [{"days": "Mon-Fri", "time": "3:30pm"}, {"days": "Sat-Sun", "time": "Closed"}], "id": "7821700035", "name": "USPS COLLECTION BOX - BLUE BOX", "address": {"city": "SAN ANTONIO", "state": "TX", "street": "8918 TESORO DR", "postcode": "78217"}}},
{"geometry": {"type": "Point", "coordinates": [-98.4582953524, 29.5184995309]}, "type": "Feature", "properties": {"collection_times": [{"days": "Mon-Fri", "time": "3:30pm"}, {"days": "Sat-Sun", "time": "Closed"}], "id": "7821700040", "name": "USPS COLLECTION BOX - BLUE BOX", "address": {"city": "SAN ANTONIO", "state": "TX", "street": "8610 N NEW BRAUNFELS AVE", "postcode": "78217"}}},
{"geometry": {"type": "Point", "coordinates": [-98.4242085297, 29.5377203927]}, "type": "Feature", "properties": {"collection_times": [{"days": "Mon-Fri", "time": "3:30pm"}, {"days": "Sat-Sun", "time": "Closed"}], "id": "7821700042", "name": "USPS COLLECTION BOX - EXPRESS", "address": {"city": "SAN ANTONIO", "state": "TX", "street": "8610 N NEW BRAUNFELS AVE", "postcode": "78217"}}},
{"geometry": {"type": "Point", "coordinates": [-98.4061954737, 29.5516543218]}, "type": "Feature", "properties": {"collection_times": [{"days": "Mon-Fri", "time": "1:00pm"}, {"days": "Sat", "time": "12:45pm"}, {"days": "Sun", "time": "Closed"}], "id": "7821700047", "name": "USPS COLLECTION BOX - BLUE BOX", "address": {"city": "SAN ANTONIO", "state": "TX", "street": "12303 NACOGDOCHES RD", "postcode": "78217"}}},
{"geometry": {"type": "Point", "coordinates": [-98.4351172617, 29.5156945417]}, "type": "Feature", "properties": {"collection_times": [{"days": "Mon-Fri", "time": "2:45pm"}, {"days": "Sat-Sun", "time": "Closed"}], "id": "7821700054", "name": "USPS COLLECTION BOX - BLUE BOX", "address": {"city": "SAN ANTONIO", "state": "TX", "street": "1802 NE LOOP 410", "postcode": "78217"}}},
{"geometry": {"type": "Point", "coordinates": [-98.4319425755, 29.5162956784]}, "type": "Feature", "properties": {"collection_times": [{"days": "Mon-Fri", "time": "3:15pm"}, {"days": "Sat-Sun", "time": "Closed"}], "id": "7821700057", "name": "USPS COLLECTION BOX - BLUE BOX", "address": {"city": "SAN ANTONIO", "state": "TX", "street": "1937 NE LOOP 410", "postcode": "78217"}}},
{"geometry": {"type": "Point", "coordinates": [-98.4568710698, 29.5244237894]}, "type": "Feature", "properties": {"collection_times": [{"days": "Mon-Fri", "time": "5:30pm"}, {"days": "Sat", "time": "4:00pm"}, {"days": "Sun", "time": "Closed"}], "id": "7821700060", "name": "USPS COLLECTION BOX - PO LOBBY", "address": {"city": "SAN ANTONIO", "state": "TX", "street": "9211 BROADWAY ST", "postcode": "78217"}}},
{"geometry": {"type": "Point", "coordinates": [-98.4274662588, 29.5188000025]}, "type": "Feature", "properties": {"collection_times": [{"days": "Mon-Fri", "time": "3:00pm"}, {"days": "Sat-Sun", "time": "Closed"}], "id": "7821700061", "name": "USPS COLLECTION BOX - BLUE BOX", "address": {"city": "SAN ANTONIO", "state": "TX", "street": "8711 VILLAGE DR", "postcode": "78217"}}},
{"geometry": {"type": "Point", "coordinates": [-98.4568710698, 29.5244237894]}, "type": "Feature", "properties": {"collection_times": [{"days": "Mon-Fri", "time": "5:30pm"}, {"days": "Sat", "time": "4:00pm"}, {"days": "Sun", "time": "Closed"}], "id": "7821700063", "name": "USPS COLLECTION BOX - PO LOBBY", "address": {"city": "SAN ANTONIO", "state": "TX", "street": "9211 BROADWAY ST", "postcode": "78217"}}},
{"geometry": {"type": "Point", "coordinates": [-98.4080456215, 29.5495498378]}, "type": "Feature", "properties": {"collection_times": [{"days": "Mon-Fri", "time": "1:00pm"}, {"days": "Sat", "time": "12:15pm"}, {"days": "Sun", "time": "Closed"}], "id": "7821700067", "name": "USPS COLLECTION BOX - BLUE BOX", "address": {"city": "SAN ANTONIO", "state": "TX", "street": "12018 PERRIN BEITEL RD", "postcode": "78217"}}},
{"geometry": {"type": "Point", "coordinates": [-98.4544007696, 29.517813477]}, "type": "Feature", "properties": {"collection_times": [{"days": "Mon-Fri", "time": "3:30pm"}, {"days": "Sat-Sun", "time": "Closed"}], "id": "7821700070", "name": "USPS COLLECTION BOX - BLUE BOX", "address": {"city": "SAN ANTONIO", "state": "TX", "street": "8626 TESORO DR", "postcode": "78217"}}},
{"geometry": {"type": "Point", "coordinates": [-98.4544007696, 29.517813477]}, "type": "Feature", "properties": {"collection_times": [{"days": "Mon-Fri", "time": "3:30pm"}, {"days": "Sat-Sun", "time": "Closed"}], "id": "7821700071", "name": "USPS COLLECTION BOX - BLUE BOX", "address": {"city": "SAN ANTONIO", "state": "TX", "street": "8626 TESORO DR", "postcode": "78217"}}},
{"geometry": {"type": "Point", "coordinates": [-98.4549369319, 29.5175827377]}, "type": "Feature", "properties": {"collection_times": [{"days": "Mon-Fri", "time": "3:30pm"}, {"days": "Sat-Sun", "time": "Closed"}], "id": "7821700075", "name": "USPS COLLECTION BOX - BLUE BOX", "address": {"city": "SAN ANTONIO", "state": "TX", "street": "1045 CHEEVER BLVD", "postcode": "78217"}}},
{"geometry": {"type": "Point", "coordinates": [-98.4105822391, 29.5141025654]}, "type": "Feature", "properties": {"collection_times": [{"days": "Mon-Fri", "time": "4:45pm"}, {"days": "Sat-Sun", "time": "Closed"}], "id": "7821700078", "name": "USPS COLLECTION BOX - BLUE BOX", "address": {"city": "SAN ANTONIO", "state": "TX", "street": "8306 PERRIN BEITEL RD", "postcode": "78217"}}},
{"geometry": {"type": "Point", "coordinates": [-98.3999135438, 29.493031045]}, "type": "Feature", "properties": {"collection_times": [{"days": "Mon-Fri", "time": "2:30pm"}, {"days": "Sat", "time": "2:15pm"}, {"days": "Sun", "time": "Closed"}], "id": "7821800022", "name": "USPS COLLECTION BOX - BLUE BOX", "address": {"city": "SAN ANTONIO", "state": "TX", "street": "1807 OAKWELL FARMS", "postcode": "78218"}}},
{"geometry": {"type": "Point", "coordinates": [-98.4007597772, 29.5103051742]}, "type": "Feature", "properties": {"collection_times": [{"days": "Mon-Fri", "time": "1:00pm"}, {"days": "Sat", "time": "2:00pm"}, {"days": "Sun", "time": "Closed"}], "id": "7821800026", "name": "USPS COLLECTION BOX - BLUE BOX", "address": {"city": "SAN ANTONIO", "state": "TX", "street": "4615 WALZEM RD", "postcode": "78218"}}},
{"geometry": {"type": "Point", "coordinates": [-98.415937861, 29.5012635866]}, "type": "Feature", "properties": {"collection_times": [{"days": "Mon-Fri", "time": "5:00pm"}, {"days": "Sat", "time": "4:00pm"}, {"days": "Sun", "time": "Closed"}], "id": "7821800027", "name": "USPS COLLECTION BOX - BLUE BOX", "address": {"city": "SAN ANTONIO", "state": "TX", "street": "7503 HARLOW DR", "postcode": "78218"}}},
{"geometry": {"type": "Point", "coordinates": [-98.3978000139, 29.484075425]}, "type": "Feature", "properties": {"collection_times": [{"days": "Mon-Fri", "time": "1:00pm"}, {"days": "Sat", "time": "12:30pm"}, {"days": "Sun", "time": "Closed"}], "id": "7821800029", "name": "USPS COLLECTION BOX - BLUE BOX", "address": {"city": "SAN ANTONIO", "state": "TX", "street": "4802 RITTIMAN RD", "postcode": "78218"}}},
{"geometry": {"type": "Point", "coordinates": [-98.4066225218, 29.5103146378]}, "type": "Feature", "properties": {"collection_times": [{"days": "Mon-Fri", "time": "1:00pm"}, {"days": "Sat-Sun", "time": "Closed"}], "id": "7821800036", "name": "USPS COLLECTION BOX - BLUE BOX", "address": {"city": "SAN ANTONIO", "state": "TX", "street": "4407 WALZEM RD", "postcode": "78218"}}},
{"geometry": {"type": "Point", "coordinates": [-98.3824759544, 29.5103499047]}, "type": "Feature", "properties": {"collection_times": [{"days": "Mon-Fri", "time": "3:15pm"}, {"days": "Sat", "time": "2:00pm"}, {"days": "Sun", "time": "Closed"}], "id": "7821800037", "name": "USPS COLLECTION BOX - BLUE BOX", "address": {"city": "SAN ANTONIO", "state": "TX", "street": "5403 WALZEM RD", "postcode": "78218"}}},
{"geometry": {"type": "Point", "coordinates": [-98.4335774248, 29.5092830976]}, "type": "Feature", "properties": {"collection_times": [{"days": "Mon-Fri", "time": "4:15pm"}, {"days": "Sat-Sun", "time": "Closed"}], "id": "7821800047", "name": "USPS COLLECTION BOX - BLUE BOX", "address": {"city": "SAN ANTONIO", "state": "TX", "street": "1919 OAKWELL FARMS PKWY", "postcode": "78218"}}},
{"geometry": {"type": "Point", "coordinates": [-98.430919316, 29.4908111934]}, "type": "Feature", "properties": {"collection_times": [{"days": "Mon-Fri", "time": "1:15pm"}, {"days": "Sat-Sun", "time": "Closed"}], "id": "7821800054", "name": "USPS COLLECTION BOX - BLUE BOX", "address": {"city": "SAN ANTONIO", "state": "TX", "street": "3407 NORTHEAST PKWY", "postcode": "78218"}}},
{"geometry": {"type": "Point", "coordinates": [-98.4158874565, 29.5012803802]}, "type": "Feature", "properties": {"collection_times": [{"days": "Mon-Fri", "time": "5:00pm"}, {"days": "Sat", "time": "4:00pm"}, {"days": "Sun", "time": "Closed"}], "id": "7821800057", "name": "USPS COLLECTION BOX - PO LOBBY", "address": {"city": "SAN ANTONIO", "state": "TX", "street": "7503 HARLOW DR", "postcode": "78218"}}},
{"geometry": {"type": "Point", "coordinates": [-98.4158874565, 29.5012803802]}, "type": "Feature", "properties": {"collection_times": [{"days": "Mon-Fri", "time": "5:00pm"}, {"days": "Sat", "time": "4:00pm"}, {"days": "Sun", "time": "Closed"}], "id": "7821800061", "name": "USPS COLLECTION BOX - PO LOBBY", "address": {"city": "SAN ANTONIO", "state": "TX", "street": "7503 HARLOW DR", "postcode": "78218"}}},
{"geometry": {"type": "Point", "coordinates": [-98.4323533878, 29.4944898522]}, "type": "Feature", "properties": {"collection_times": [{"days": "Mon-Fri", "time": "1:15pm"}, {"days": "Sat", "time": "2:15pm"}, {"days": "Sun", "time": "Closed"}], "id": "7821800062", "name": "USPS COLLECTION BOX - BLUE BOX", "address": {"city": "SAN ANTONIO", "state": "TX", "street": "1520 AUSTIN HWY", "postcode": "78218"}}},
{"geometry": {"type": "Point", "coordinates": [-98.4299646681, 29.4468855611]}, "type": "Feature", "properties": {"collection_times": [{"days": "Mon-Fri", "time": "1:15pm"}, {"days": "Sat-Sun", "time": "Closed"}], "id": "7821900016", "name": "USPS COLLECTION BOX - BLUE BOX", "address": {"city": "SAN ANTONIO", "state": "TX", "street": "3453 N PANAM EXPY", "postcode": "78219"}}},
{"geometry": {"type": "Point", "coordinates": [-98.401549326, 29.4491735256]}, "type": "Feature", "properties": {"collection_times": [{"days": "Mon-Fri", "time": "2:15pm"}, {"days": "Sat", "time": "4:15pm"}, {"days": "Sun", "time": "Closed"}], "id": "7821900019", "name": "USPS COLLECTION BOX - EXPRESS", "address": {"city": "SAN ANTONIO", "state": "TX", "street": "1112 ACKERMAN RD", "postcode": "78219"}}},
{"geometry": {"type": "Point", "coordinates": [-98.3926116337, 29.4673146221]}, "type": "Feature", "properties": {"collection_times": [{"days": "Mon-Fri", "time": "2:30pm"}, {"days": "Sat", "time": "4:15pm"}, {"days": "Sun", "time": "Closed"}], "id": "7821900021", "name": "USPS COLLECTION BOX - BLUE BOX", "address": {"city": "SAN ANTONIO", "state": "TX", "street": "5070 SEGUIN RD", "postcode": "78219"}}},
{"geometry": {"type": "Point", "coordinates": [-98.3887959011, 29.4421030062]}, "type": "Feature", "properties": {"collection_times": [{"days": "Mon-Fri", "time": "1:30pm"}, {"days": "Sat-Sun", "time": "Closed"}], "id": "7821900025", "name": "USPS COLLECTION BOX - BLUE BOX", "address": {"city": "SAN ANTONIO", "state": "TX", "street": "1143 SBC CENTER PKWY", "postcode": "78219"}}},
{"geometry": {"type": "Point", "coordinates": [-98.3806357344, 29.4361917686]}, "type": "Feature", "properties": {"collection_times": [{"days": "Mon-Fri", "time": "2:15pm"}, {"days": "Sat", "time": "4:15pm"}, {"days": "Sun", "time": "Closed"}], "id": "7821900032", "name": "USPS COLLECTION BOX - BLUE BOX", "address": {"city": "SAN ANTONIO", "state": "TX", "street": "1112 ACKERMAN RD", "postcode": "78219"}}},
{"geometry": {"type": "Point", "coordinates": [-98.3823505698, 29.47165199]}, "type": "Feature", "properties": {"collection_times": [{"days": "Mon-Fri", "time": "2:45pm"}, {"days": "Sat", "time": "4:15pm"}, {"days": "Sun", "time": "Closed"}], "id": "7821900056", "name": "USPS COLLECTION BOX - BLUE BOX", "address": {"city": "SAN ANTONIO", "state": "TX", "street": "112 BAUMAN ST", "postcode": "78219"}}},
{"geometry": {"type": "Point", "coordinates": [-98.3963097257, 29.4239423077]}, "type": "Feature", "properties": {"collection_times": [{"days": "Mon-Fri", "time": "5:00pm"}, {"days": "Sat", "time": "4:15pm"}, {"days": "Sun", "time": "Closed"}], "id": "7822000004", "name": "USPS COLLECTION BOX - BLUE BOX", "address": {"city": "SAN ANTONIO", "state": "TX", "street": "4950 E HOUSTON ST", "postcode": "78220"}}},
{"geometry": {"type": "Point", "coordinates": [-98.4056161757, 29.4148712405]}, "type": "Feature", "properties": {"collection_times": [{"days": "Mon-Fri", "time": "1:45pm"}, {"days": "Sat", "time": "4:00pm"}, {"days": "Sun", "time": "Closed"}], "id": "7822000010", "name": "USPS COLLECTION BOX - BLUE BOX", "address": {"city": "SAN ANTONIO", "state": "TX", "street": "1015 W W WHITE RD S", "postcode": "78220"}}},
{"geometry": {"type": "Point", "coordinates": [-98.3963097257, 29.4239423077]}, "type": "Feature", "properties": {"collection_times": [{"days": "Mon-Fri", "time": "5:00pm"}, {"days": "Sat", "time": "4:00pm"}, {"days": "Sun", "time": "Closed"}], "id": "7822000011", "name": "USPS COLLECTION BOX - PO LOBBY", "address": {"city": "SAN ANTONIO", "state": "TX", "street": "4950 E HOUSTON ST", "postcode": "78220"}}},
{"geometry": {"type": "Point", "coordinates": [-98.3954618476, 29.4239770506]}, "type": "Feature", "properties": {"collection_times": [{"days": "Mon-Fri", "time": "5:00pm"}, {"days": "Sat", "time": "4:15pm"}, {"days": "Sun", "time": "Closed"}], "id": "7822000015", "name": "USPS COLLECTION BOX - BLUE BOX", "address": {"city": "SAN ANTONIO", "state": "TX", "street": "4950 E HOUSTON ST", "postcode": "78220"}}},
{"geometry": {"type": "Point", "coordinates": [-98.5038164016, 29.3535669856]}, "type": "Feature", "properties": {"collection_times": [{"days": "Mon-Fri", "time": "3:00pm"}, {"days": "Sat", "time": "2:45pm"}, {"days": "Sun", "time": "Closed"}], "id": "7822100018", "name": "USPS COLLECTION BOX - BLUE BOX", "address": {"city": "SAN ANTONIO", "state": "TX", "street": "2602 PLEASANTON RD", "postcode": "78221"}}},
{"geometry": {"type": "Point", "coordinates": [-98.502732023, 29.3566470853]}, "type": "Feature", "properties": {"collection_times": [{"days": "Mon-Fri", "time": "3:15pm"}, {"days": "Sat", "time": "2:45pm"}, {"days": "Sun", "time": "Closed"}], "id": "7822100023", "name": "USPS COLLECTION BOX - BLUE BOX", "address": {"city": "SAN ANTONIO", "state": "TX", "street": "735 SW MILITARY DR", "postcode": "78221"}}},
{"geometry": {"type": "Point", "coordinates": [-98.5038164016, 29.3535669856]}, "type": "Feature", "properties": {"collection_times": [{"days": "Mon-Fri", "time": "3:00pm"}, {"days": "Sat", "time": "2:45pm"}, {"days": "Sun", "time": "Closed"}], "id": "7822100026", "name": "USPS COLLECTION BOX - BLUE BOX", "address": {"city": "SAN ANTONIO", "state": "TX", "street": "2602 PLEASANTON RD", "postcode": "78221"}}},
{"geometry": {"type": "Point", "coordinates": [-98.388687681, 29.4004224818]}, "type": "Feature", "properties": {"collection_times": [{"days": "Mon-Fri", "time": "2:00pm"}, {"days": "Sat", "time": "4:00pm"}, {"days": "Sun", "time": "Closed"}], "id": "7822200007", "name": "USPS COLLECTION BOX - BLUE BOX", "address": {"city": "SAN ANTONIO", "state": "TX", "street": "2100 SE LOOP 410", "postcode": "78222"}}},
{"geometry": {"type": "Point", "coordinates": [-98.3049009956, 29.2668864185]}, "type": "Feature", "properties": {"collection_times": [{"days": "Mon-Sat", "time": "12:00pm"}, {"days": "Sun", "time": "Closed"}], "id": "7822300018", "name": "USPS COLLECTION BOX - BLUE BOX", "address": {"city": "SAN ANTONIO", "state": "TX", "street": "15540 S US HIGHWAY 181", "postcode": "78223"}}},
{"geometry": {"type": "Point", "coordinates": [-98.4254037361, 29.3536068621]}, "type": "Feature", "properties": {"collection_times": [{"days": "Mon-Fri", "time": "3:30pm"}, {"days": "Sat", "time": "2:15pm"}, {"days": "Sun", "time": "Closed"}], "id": "7822300023", "name": "USPS COLLECTION BOX - BLUE BOX", "address": {"city": "SAN ANTONIO", "state": "TX", "street": "3323 SE MILITARY DR", "postcode": "78223"}}},
{"geometry": {"type": "Point", "coordinates": [-98.4482863366, 29.3775393236]}, "type": "Feature", "properties": {"collection_times": [{"days": "Mon-Fri", "time": "5:00pm"}, {"days": "Sat", "time": "3:45pm"}, {"days": "Sun", "time": "Closed"}], "id": "7822300039", "name": "USPS COLLECTION BOX - PO LOBBY", "address": {"city": "SAN ANTONIO", "state": "TX", "street": "3918 CLARK AVE", "postcode": "78223"}}},
{"geometry": {"type": "Point", "coordinates": [-98.4226503889, 29.3378935983]}, "type": "Feature", "properties": {"collection_times": [{"days": "Mon-Fri", "time": "3:30pm"}, {"days": "Sat", "time": "2:15pm"}, {"days": "Sun", "time": "Closed"}], "id": "7822300044", "name": "USPS COLLECTION BOX - BLUE BOX", "address": {"city": "SAN ANTONIO", "state": "TX", "street": "3500 GOLIAD RD", "postcode": "78223"}}},
{"geometry": {"type": "Point", "coordinates": [-98.4482863366, 29.3775393236]}, "type": "Feature", "properties": {"collection_times": [{"days": "Mon-Fri", "time": "5:00pm"}, {"days": "Sat", "time": "3:45pm"}, {"days": "Sun", "time": "Closed"}], "id": "7822300046", "name": "USPS COLLECTION BOX - PO LOBBY", "address": {"city": "SAN ANTONIO", "state": "TX", "street": "3918 CLARK AVE", "postcode": "78223"}}},
{"geometry": {"type": "Point", "coordinates": [-98.4482495822, 29.3777806622]}, "type": "Feature", "properties": {"collection_times": [{"days": "Mon-Fri", "time": "5:00pm"}, {"days": "Sat", "time": "3:45pm"}, {"days": "Sun", "time": "Closed"}], "id": "7822300047", "name": "USPS COLLECTION BOX - BLUE BOX", "address": {"city": "SAN ANTONIO", "state": "TX", "street": "3918 CLARK AVE", "postcode": "78223"}}},
{"geometry": {"type": "Point", "coordinates": [-98.4482495822, 29.3777806622]}, "type": "Feature", "properties": {"collection_times": [{"days": "Mon-Fri", "time": "5:00pm"}, {"days": "Sat", "time": "3:45pm"}, {"days": "Sun", "time": "Closed"}], "id": "7822300051", "name": "USPS COLLECTION BOX - BLUE BOX", "address": {"city": "SAN ANTONIO", "state": "TX", "street": "3918 CLARK AVE", "postcode": "78223"}}},
{"geometry": {"type": "Point", "coordinates": [-98.5491395032, 29.3550335293]}, "type": "Feature", "properties": {"collection_times": [{"days": "Mon-Fri", "time": "2:30pm"}, {"days": "Sat-Sun", "time": "Closed"}], "id": "7822400012", "name": "USPS COLLECTION BOX - BLUE BOX", "address": {"city": "SAN ANTONIO", "state": "TX", "street": "88 BRIGGS ST", "postcode": "78224"}}},
{"geometry": {"type": "Point", "coordinates": [-98.5332948605, 29.3305228906]}, "type": "Feature", "properties": {"collection_times": [{"days": "Mon-Sat", "time": "3:00pm"}, {"days": "Sun", "time": "Closed"}], "id": "7822400018", "name": "USPS COLLECTION BOX - BLUE BOX", "address": {"city": "SAN ANTONIO", "state": "TX", "street": "9209 S ZARZAMORA ST", "postcode": "78224"}}},
{"geometry": {"type": "Point", "coordinates": [-98.5306427568, 29.3565926692]}, "type": "Feature", "properties": {"collection_times": [{"days": "Mon-Fri", "time": "2:45pm"}, {"days": "Sat-Sun", "time": "Closed"}], "id": "7822400022", "name": "USPS COLLECTION BOX - BLUE BOX", "address": {"city": "SAN ANTONIO", "state": "TX", "street": "2310 SW MILITARY DR", "postcode": "78224"}}},
{"geometry": {"type": "Point", "coordinates": [-98.5465902266, 29.3532803841]}, "type": "Feature", "properties": {"collection_times": [{"days": "Mon-Sat", "time": "5:00pm"}, {"days": "Sun", "time": "Closed"}], "id": "7822400024", "name": "USPS COLLECTION BOX - BLUE BOX", "address": {"city": "SAN ANTONIO", "state": "TX", "street": "7411 BARLITE BLVD", "postcode": "78224"}}},
{"geometry": {"type": "Point", "coordinates": [-98.5465902266, 29.3532803841]}, "type": "Feature", "properties": {"collection_times": [{"days": "Mon-Sat", "time": "5:00pm"}, {"days": "Sun", "time": "Closed"}], "id": "7822400027", "name": "USPS COLLECTION BOX - PO LOBBY", "address": {"city": "SAN ANTONIO", "state": "TX", "street": "7411 BARLITE BLVD", "postcode": "78224"}}},
{"geometry": {"type": "Point", "coordinates": [-98.5465902266, 29.3532803841]}, "type": "Feature", "properties": {"collection_times": [{"days": "Mon-Sat", "time": "5:00pm"}, {"days": "Sun", "time": "Closed"}], "id": "7822400031", "name": "USPS COLLECTION BOX - PO LOBBY", "address": {"city": "SAN ANTONIO", "state": "TX", "street": "7411 BARLITE BLVD", "postcode": "78224"}}},
{"geometry": {"type": "Point", "coordinates": [-98.5465902266, 29.3532803841]}, "type": "Feature", "properties": {"collection_times": [{"days": "Mon-Sat", "time": "5:00pm"}, {"days": "Sun", "time": "Closed"}], "id": "7822400032", "name": "USPS COLLECTION BOX - PO LOBBY", "address": {"city": "SAN ANTONIO", "state": "TX", "street": "7411 BARLITE BLVD", "postcode": "78224"}}},
{"geometry": {"type": "Point", "coordinates": [-98.5465822056, 29.3538513628]}, "type": "Feature", "properties": {"collection_times": [{"days": "Mon-Sat", "time": "5:00pm"}, {"days": "Sun", "time": "Closed"}], "id": "7822400036", "name": "USPS COLLECTION BOX - BLUE BOX", "address": {"city": "SAN ANTONIO", "state": "TX", "street": "7411 BARLITE BLVD", "postcode": "78224"}}},
{"geometry": {"type": "Point", "coordinates": [-98.5278060212, 29.3819718709]}, "type": "Feature", "properties": {"collection_times": [{"days": "Mon-Fri", "time": "1:45pm"}, {"days": "Sat", "time": "3:30pm"}, {"days": "Sun", "time": "Closed"}], "id": "7822500003", "name": "USPS COLLECTION BOX - BLUE BOX", "address": {"city": "SAN ANTONIO", "state": "TX", "street": "3414 NOGALITOS", "postcode": "78225"}}},
{"geometry": {"type": "Point", "coordinates": [-98.5317369938, 29.3970640613]}, "type": "Feature", "properties": {"collection_times": [{"days": "Mon-Fri", "time": "1:45pm"}, {"days": "Sat", "time": "3:30pm"}, {"days": "Sun", "time": "Closed"}], "id": "7822600004", "name": "USPS COLLECTION BOX - BLUE BOX", "address": {"city": "SAN ANTONIO", "state": "TX", "street": "705 KIRK PL", "postcode": "78226"}}},
{"geometry": {"type": "Point", "coordinates": [-98.6249190039, 29.4187140434]}, "type": "Feature", "properties": {"collection_times": [{"days": "Mon-Fri", "time": "2:00pm"}, {"days": "Sat-Sun", "time": "Closed"}], "id": "7822700006", "name": "USPS COLLECTION BOX - BLUE BOX", "address": {"city": "SAN ANTONIO", "state": "TX", "street": "118 MEDINA-BASE RD", "postcode": "78227"}}},
{"geometry": {"type": "Point", "coordinates": [-98.6376272208, 29.3739404099]}, "type": "Feature", "properties": {"collection_times": [{"days": "Mon-Fri", "time": "5:30pm"}, {"days": "Sat", "time": "4:00pm"}, {"days": "Sun", "time": "Closed"}], "id": "7822700013", "name": "USPS COLLECTION BOX - BLUE BOX", "address": {"city": "SAN ANTONIO", "state": "TX", "street": "5510 SW LOOP 410", "postcode": "78227"}}},
{"geometry": {"type": "Point", "coordinates": [-98.6334064021, 29.4016882479]}, "type": "Feature", "properties": {"collection_times": [{"days": "Mon-Fri", "time": "3:45pm"}, {"days": "Sat", "time": "2:30pm"}, {"days": "Sun", "time": "Closed"}], "id": "7822700015", "name": "USPS COLLECTION BOX - BLUE BOX", "address": {"city": "SAN ANTONIO", "state": "TX", "street": "7323 W US HIGHWAY 90", "postcode": "78227"}}},
{"geometry": {"type": "Point", "coordinates": [-98.6291785067, 29.4086499614]}, "type": "Feature", "properties": {"collection_times": [{"days": "Mon-Fri", "time": "3:30pm"}, {"days": "Sat-Sun", "time": "Closed"}], "id": "7822700021", "name": "USPS COLLECTION BOX - BLUE BOX", "address": {"city": "SAN ANTONIO", "state": "TX", "street": "7047 W MILITARY DR", "postcode": "78227"}}},
{"geometry": {"type": "Point", "coordinates": [-98.6523867925, 29.4178919002]}, "type": "Feature", "properties": {"collection_times": [{"days": "Mon-Fri", "time": "3:30pm"}, {"days": "Sat", "time": "2:45pm"}, {"days": "Sun", "time": "Closed"}], "id": "7822700036", "name": "USPS COLLECTION BOX - BLUE BOX", "address": {"city": "SAN ANTONIO", "state": "TX", "street": "8219 MARBACH RD", "postcode": "78227"}}},
{"geometry": {"type": "Point", "coordinates": [-98.6376272208, 29.3739404099]}, "type": "Feature", "properties": {"collection_times": [{"days": "Mon-Fri", "time": "5:30pm"}, {"days": "Sat", "time": "4:00pm"}, {"days": "Sun", "time": "Closed"}], "id": "7822700041", "name": "USPS COLLECTION BOX - PO LOBBY", "address": {"city": "SAN ANTONIO", "state": "TX", "street": "5510 SW LOOP 410", "postcode": "78227"}}},
{"geometry": {"type": "Point", "coordinates": [-98.5415307111, 29.4467400571]}, "type": "Feature", "properties": {"collection_times": [{"days": "Mon-Fri", "time": "2:00pm"}, {"days": "Sat", "time": "1:00pm"}, {"days": "Sun", "time": "Closed"}], "id": "7822800038", "name": "USPS COLLECTION BOX - BLUE BOX", "address": {"city": "SAN ANTONIO", "state": "TX", "street": "2130 CULEBRA RD", "postcode": "78228"}}},
{"geometry": {"type": "Point", "coordinates": [-98.5684820652, 29.4889515819]}, "type": "Feature", "properties": {"collection_times": [{"days": "Mon-Fri", "time": "1:00pm"}, {"days": "Sat-Sun", "time": "Closed"}], "id": "7822800062", "name": "USPS COLLECTION BOX - BLUE BOX", "address": {"city": "SAN ANTONIO", "state": "TX", "street": "4100 E PIEDRAS DR", "postcode": "78228"}}},
{"geometry": {"type": "Point", "coordinates": [-98.5441083311, 29.4643266295]}, "type": "Feature", "properties": {"collection_times": [{"days": "Mon-Fri", "time": "1:30pm"}, {"days": "Sat-Sun", "time": "Closed"}], "id": "7822800065", "name": "USPS COLLECTION BOX - BLUE BOX", "address": {"city": "SAN ANTONIO", "state": "TX", "street": "1024 DONALDSON AVE", "postcode": "78228"}}},
{"geometry": {"type": "Point", "coordinates": [-98.560790466, 29.4845651701]}, "type": "Feature", "properties": {"collection_times": [{"days": "Mon-Fri", "time": "1:15pm"}, {"days": "Sat", "time": "12:30pm"}, {"days": "Sun", "time": "Closed"}], "id": "7822800066", "name": "USPS COLLECTION BOX - BLUE BOX", "address": {"city": "SAN ANTONIO", "state": "TX", "street": "114 W GLENVIEW DR", "postcode": "78228"}}},
{"geometry": {"type": "Point", "coordinates": [-98.5709828404, 29.4696740826]}, "type": "Feature", "properties": {"collection_times": [{"days": "Mon-Fri", "time": "1:45pm"}, {"days": "Sat-Sun", "time": "Closed"}], "id": "7822800068", "name": "USPS COLLECTION BOX - BLUE BOX", "address": {"city": "SAN ANTONIO", "state": "TX", "street": "1630 BANDERA RD", "postcode": "78228"}}},
{"geometry": {"type": "Point", "coordinates": [-98.5550007265, 29.4574106017]}, "type": "Feature", "properties": {"collection_times": [{"days": "Mon-Fri", "time": "4:30pm"}, {"days": "Sat", "time": "5:00pm"}, {"days": "Sun", "time": "Closed"}], "id": "7822800070", "name": "USPS COLLECTION BOX - BLUE BOX", "address": {"city": "SAN ANTONIO", "state": "TX", "street": "4438 CENTERVIEW", "postcode": "78228"}}},
{"geometry": {"type": "Point", "coordinates": [-98.5550007265, 29.4574106017]}, "type": "Feature", "properties": {"collection_times": [{"days": "Mon-Fri", "time": "4:30pm"}, {"days": "Sat", "time": "5:00pm"}, {"days": "Sun", "time": "Closed"}], "id": "7822800071", "name": "USPS COLLECTION BOX - BLUE BOX", "address": {"city": "SAN ANTONIO", "state": "TX", "street": "4438 CENTERVIEW", "postcode": "78228"}}},
{"geometry": {"type": "Point", "coordinates": [-98.5550007265, 29.4574106017]}, "type": "Feature", "properties": {"collection_times": [{"days": "Mon-Fri", "time": "4:30pm"}, {"days": "Sat", "time": "5:00pm"}, {"days": "Sun", "time": "Closed"}], "id": "7822800072", "name": "USPS COLLECTION BOX - BLUE BOX", "address": {"city": "SAN ANTONIO", "state": "TX", "street": "4438 CENTERVIEW", "postcode": "78228"}}},
{"geometry": {"type": "Point", "coordinates": [-98.5550007265, 29.4574106017]}, "type": "Feature", "properties": {"collection_times": [{"days": "Mon-Fri", "time": "4:30pm"}, {"days": "Sat", "time": "5:00pm"}, {"days": "Sun", "time": "Closed"}], "id": "7822800073", "name": "USPS COLLECTION BOX - BLUE BOX", "address": {"city": "SAN ANTONIO", "state": "TX", "street": "4438 CENTERVIEW", "postcode": "78228"}}},
{"geometry": {"type": "Point", "coordinates": [-98.5772655355, 29.4865229671]}, "type": "Feature", "properties": {"collection_times": [{"days": "Mon-Fri", "time": "4:15pm"}, {"days": "Sat-Sun", "time": "Closed"}], "id": "7822800075", "name": "USPS COLLECTION BOX - BLUE BOX", "address": {"city": "SAN ANTONIO", "state": "TX", "street": "5835 CALLAGHAN RD", "postcode": "78228"}}},
{"geometry": {"type": "Point", "coordinates": [-98.5703267197, 29.4617523165]}, "type": "Feature", "properties": {"collection_times": [{"days": "Mon-Fri", "time": "4:15pm"}, {"days": "Sat-Sun", "time": "Closed"}], "id": "7822800076", "name": "USPS COLLECTION BOX - EXPRESS", "address": {"city": "SAN ANTONIO", "state": "TX", "street": "5835 CALLAGHAN RD", "postcode": "78228"}}},
{"geometry": {"type": "Point", "coordinates": [-98.5772655355, 29.4865229671]}, "type": "Feature", "properties": {"collection_times": [{"days": "Mon-Fri", "time": "4:15pm"}, {"days": "Sat-Sun", "time": "Closed"}], "id": "7822800113", "name": "USPS COLLECTION BOX - BLUE BOX", "address": {"city": "SAN ANTONIO", "state": "TX", "street": "5835 CALLAGHAN RD", "postcode": "78228"}}},
{"geometry": {"type": "Point", "coordinates": [-98.5727844869, 29.4865501752]}, "type": "Feature", "properties": {"collection_times": [{"days": "Mon-Fri", "time": "1:00pm"}, {"days": "Sat-Sun", "time": "Closed"}], "id": "7822800120", "name": "USPS COLLECTION BOX - BLUE BOX", "address": {"city": "SAN ANTONIO", "state": "TX", "street": "4415 W PIEDRAS DR", "postcode": "78228"}}},
{"geometry": {"type": "Point", "coordinates": [-98.5797532982, 29.5011502547]}, "type": "Feature", "properties": {"collection_times": [{"days": "Mon-Fri", "time": "1:15pm"}, {"days": "Sat-Sun", "time": "Closed"}], "id": "7822900003", "name": "USPS COLLECTION BOX - BLUE BOX", "address": {"city": "SAN ANTONIO", "state": "TX", "street": "2020 BABCOCK RD", "postcode": "78229"}}},
{"geometry": {"type": "Point", "coordinates": [-98.5918478707, 29.5138824421]}, "type": "Feature", "properties": {"collection_times": [{"days": "Mon-Fri", "time": "1:30pm"}, {"days": "Sat-Sun", "time": "Closed"}], "id": "7822900007", "name": "USPS COLLECTION BOX - BLUE BOX", "address": {"city": "SAN ANTONIO", "state": "TX", "street": "2833 BABCOCK RD", "postcode": "78229"}}},
{"geometry": {"type": "Point", "coordinates": [-98.5692296953, 29.5175484319]}, "type": "Feature", "properties": {"collection_times": [{"days": "Mon-Fri", "time": "3:15pm"}, {"days": "Sat-Sun", "time": "Closed"}], "id": "7822900014", "name": "USPS COLLECTION BOX - BLUE BOX", "address": {"city": "SAN ANTONIO", "state": "TX", "street": "8401 DATAPOINT DR", "postcode": "78229"}}},
{"geometry": {"type": "Point", "coordinates": [-98.5687257547, 29.5181079715]}, "type": "Feature", "properties": {"collection_times": [{"days": "Mon-Fri", "time": "3:15pm"}, {"days": "Sat-Sun", "time": "Closed"}], "id": "7822900015", "name": "USPS COLLECTION BOX - BLUE BOX", "address": {"city": "SAN ANTONIO", "state": "TX", "street": "8415 DATAPOINT DR", "postcode": "78229"}}},
{"geometry": {"type": "Point", "coordinates": [-98.5735143726, 29.5123670716]}, "type": "Feature", "properties": {"collection_times": [{"days": "Mon-Fri", "time": "1:45pm"}, {"days": "Sat-Sun", "time": "Closed"}], "id": "7822900017", "name": "USPS COLLECTION BOX - BLUE BOX", "address": {"city": "SAN ANTONIO", "state": "TX", "street": "7922 EWING HALSELL DR", "postcode": "78229"}}},
{"geometry": {"type": "Point", "coordinates": [-98.5752959088, 29.5123670716]}, "type": "Feature", "properties": {"collection_times": [{"days": "Mon-Fri", "time": "3:30pm"}, {"days": "Sat-Sun", "time": "Closed"}], "id": "7822900020", "name": "USPS COLLECTION BOX - BLUE BOX", "address": {"city": "SAN ANTONIO", "state": "TX", "street": "7930 FLOYD CURL DR", "postcode": "78229"}}},
{"geometry": {"type": "Point", "coordinates": [-98.5719823727, 29.5061647418]}, "type": "Feature", "properties": {"collection_times": [{"days": "Mon-Fri", "time": "1:45pm"}, {"days": "Sat-Sun", "time": "Closed"}], "id": "7822900022", "name": "USPS COLLECTION BOX - BLUE BOX", "address": {"city": "SAN ANTONIO", "state": "TX", "street": "7700 FLOYD CURL DR", "postcode": "78229"}}},
{"geometry": {"type": "Point", "coordinates": [-98.573271866, 29.5069574003]}, "type": "Feature", "properties": {"collection_times": [{"days": "Mon-Fri", "time": "1:30pm"}, {"days": "Sat-Sun", "time": "Closed"}], "id": "7822900031", "name": "USPS COLLECTION BOX - BLUE BOX", "address": {"city": "SAN ANTONIO", "state": "TX", "street": "7703 FLOYD CURL DR", "postcode": "78229"}}},
{"geometry": {"type": "Point", "coordinates": [-98.55499515, 29.4945162209]}, "type": "Feature", "properties": {"collection_times": [{"days": "Mon-Fri", "time": "2:15pm"}, {"days": "Sat-Sun", "time": "Closed"}], "id": "7822900032", "name": "USPS COLLECTION BOX - BLUE BOX", "address": {"city": "SAN ANTONIO", "state": "TX", "street": "4715 FREDERICKSBURG RD", "postcode": "78229"}}},
{"geometry": {"type": "Point", "coordinates": [-98.556087206, 29.4971277767]}, "type": "Feature", "properties": {"collection_times": [{"days": "Mon-Fri", "time": "2:00pm"}, {"days": "Sat-Sun", "time": "Closed"}], "id": "7822900037", "name": "USPS COLLECTION BOX - BLUE BOX", "address": {"city": "SAN ANTONIO", "state": "TX", "street": "4875 FREDERICKSBURG RD", "postcode": "78229"}}},
{"geometry": {"type": "Point", "coordinates": [-98.562746826, 29.5057588691]}, "type": "Feature", "properties": {"collection_times": [{"days": "Mon-Fri", "time": "2:30pm"}, {"days": "Sat-Sun", "time": "Closed"}], "id": "7822900044", "name": "USPS COLLECTION BOX - BLUE BOX", "address": {"city": "SAN ANTONIO", "state": "TX", "street": "5368 FREDERICKSBURG RD", "postcode": "78229"}}},
{"geometry": {"type": "Point", "coordinates": [-98.5640246758, 29.5072330297]}, "type": "Feature", "properties": {"collection_times": [{"days": "Mon-Fri", "time": "2:30pm"}, {"days": "Sat-Sun", "time": "Closed"}], "id": "7822900047", "name": "USPS COLLECTION BOX - BLUE BOX", "address": {"city": "SAN ANTONIO", "state": "TX", "street": "5430 FREDERICKSBURG RD", "postcode": "78229"}}},
{"geometry": {"type": "Point", "coordinates": [-98.5722384382, 29.5167479005]}, "type": "Feature", "properties": {"collection_times": [{"days": "Mon-Fri", "time": "2:00pm"}, {"days": "Sat-Sun", "time": "Closed"}], "id": "7822900051", "name": "USPS COLLECTION BOX - BLUE BOX", "address": {"city": "SAN ANTONIO", "state": "TX", "street": "8269 FREDERICKSBURG RD", "postcode": "78229"}}},
{"geometry": {"type": "Point", "coordinates": [-98.5728105795, 29.5188241378]}, "type": "Feature", "properties": {"collection_times": [{"days": "Mon-Fri", "time": "2:45pm"}, {"days": "Sat-Sun", "time": "Closed"}], "id": "7822900054", "name": "USPS COLLECTION BOX - BLUE BOX", "address": {"city": "SAN ANTONIO", "state": "TX", "street": "8452 FREDERICKSBURG RD", "postcode": "78229"}}},
{"geometry": {"type": "Point", "coordinates": [-98.5671502511, 29.5233138529]}, "type": "Feature", "properties": {"collection_times": [{"days": "Mon-Fri", "time": "3:00pm"}, {"days": "Sat-Sun", "time": "Closed"}], "id": "7822900057", "name": "USPS COLLECTION BOX - BLUE BOX", "address": {"city": "SAN ANTONIO", "state": "TX", "street": "4203 GARDENDALE ST", "postcode": "78229"}}},
{"geometry": {"type": "Point", "coordinates": [-98.5659114954, 29.4890024491]}, "type": "Feature", "properties": {"collection_times": [{"days": "Mon-Fri", "time": "1:15pm"}, {"days": "Sat-Sun", "time": "Closed"}], "id": "7822900066", "name": "USPS COLLECTION BOX - BLUE BOX", "address": {"city": "SAN ANTONIO", "state": "TX", "street": "4100 NW LOOP 410", "postcode": "78229"}}},
{"geometry": {"type": "Point", "coordinates": [-98.5809370848, 29.4894375143]}, "type": "Feature", "properties": {"collection_times": [{"days": "Mon-Fri", "time": "4:30pm"}, {"days": "Sat-Sun", "time": "Closed"}], "id": "7822900067", "name": "USPS COLLECTION BOX - BLUE BOX", "address": {"city": "SAN ANTONIO", "state": "TX", "street": "4801 NW LOOP 410", "postcode": "78229"}}},
{"geometry": {"type": "Point", "coordinates": [-98.580937085, 29.489437514]}, "type": "Feature", "properties": {"collection_times": [{"days": "Mon-Fri", "time": "4:30pm"}, {"days": "Sat-Sun", "time": "Closed"}], "id": "7822900068", "name": "USPS COLLECTION BOX - BLUE BOX", "address": {"city": "SAN ANTONIO", "state": "TX", "street": "4801 NW LOOP 410", "postcode": "78229"}}},
{"geometry": {"type": "Point", "coordinates": [-98.5701157315, 29.508147457]}, "type": "Feature", "properties": {"collection_times": [{"days": "Mon-Fri", "time": "4:15pm"}, {"days": "Sat-Sun", "time": "Closed"}], "id": "7822900072", "name": "USPS COLLECTION BOX - BLUE BOX", "address": {"city": "SAN ANTONIO", "state": "TX", "street": "7711 LOUIS PASTEUR DR", "postcode": "78229"}}},
{"geometry": {"type": "Point", "coordinates": [-98.5701157315, 29.508147457]}, "type": "Feature", "properties": {"collection_times": [{"days": "Mon-Fri", "time": "4:15pm"}, {"days": "Sat-Sun", "time": "Closed"}], "id": "7822900073", "name": "USPS COLLECTION BOX - BLUE BOX", "address": {"city": "SAN ANTONIO", "state": "TX", "street": "7711 LOUIS PASTEUR DR", "postcode": "78229"}}},
{"geometry": {"type": "Point", "coordinates": [-98.5701157315, 29.508147457]}, "type": "Feature", "properties": {"collection_times": [{"days": "Mon-Fri", "time": "4:15pm"}, {"days": "Sat-Sun", "time": "Closed"}], "id": "7822900074", "name": "USPS COLLECTION BOX - BLUE BOX", "address": {"city": "SAN ANTONIO", "state": "TX", "street": "7711 LOUIS PASTEUR DR", "postcode": "78229"}}},
{"geometry": {"type": "Point", "coordinates": [-98.5684146365, 29.5133098899]}, "type": "Feature", "properties": {"collection_times": [{"days": "Mon-Fri", "time": "2:30pm"}, {"days": "Sat-Sun", "time": "Closed"}], "id": "7822900079", "name": "USPS COLLECTION BOX - BLUE BOX", "address": {"city": "SAN ANTONIO", "state": "TX", "street": "4242 MEDICAL DR", "postcode": "78229"}}},
{"geometry": {"type": "Point", "coordinates": [-98.572032125, 29.5098591986]}, "type": "Feature", "properties": {"collection_times": [{"days": "Mon-Fri", "time": "4:00pm"}, {"days": "Sat-Sun", "time": "Closed"}], "id": "7822900081", "name": "USPS COLLECTION BOX - BLUE BOX", "address": {"city": "SAN ANTONIO", "state": "TX", "street": "4410 MEDICAL DR", "postcode": "78229"}}},
{"geometry": {"type": "Point", "coordinates": [-98.572032125, 29.5098591986]}, "type": "Feature", "properties": {"collection_times": [{"days": "Mon-Fri", "time": "4:00pm"}, {"days": "Sat-Sun", "time": "Closed"}], "id": "7822900082", "name": "USPS COLLECTION BOX - BLUE BOX", "address": {"city": "SAN ANTONIO", "state": "TX", "street": "4410 MEDICAL DR", "postcode": "78229"}}},
{"geometry": {"type": "Point", "coordinates": [-98.5732600364, 29.5093469774]}, "type": "Feature", "properties": {"collection_times": [{"days": "Mon-Fri", "time": "4:00pm"}, {"days": "Sat-Sun", "time": "Closed"}], "id": "7822900083", "name": "USPS COLLECTION BOX - BLUE BOX", "address": {"city": "SAN ANTONIO", "state": "TX", "street": "4499 MEDICAL DR", "postcode": "78229"}}},
{"geometry": {"type": "Point", "coordinates": [-98.5732600364, 29.5093469774]}, "type": "Feature", "properties": {"collection_times": [{"days": "Mon-Fri", "time": "4:00pm"}, {"days": "Sat-Sun", "time": "Closed"}], "id": "7822900085", "name": "USPS COLLECTION BOX - BLUE BOX", "address": {"city": "SAN ANTONIO", "state": "TX", "street": "4499 MEDICAL DR", "postcode": "78229"}}},
{"geometry": {"type": "Point", "coordinates": [-98.5755076585, 29.5091009219]}, "type": "Feature", "properties": {"collection_times": [{"days": "Mon-Fri", "time": "1:30pm"}, {"days": "Sat-Sun", "time": "Closed"}], "id": "7822900086", "name": "USPS COLLECTION BOX - BLUE BOX", "address": {"city": "SAN ANTONIO", "state": "TX", "street": "4502 MEDICAL DR", "postcode": "78229"}}},
{"geometry": {"type": "Point", "coordinates": [-98.5816058119, 29.5107215757]}, "type": "Feature", "properties": {"collection_times": [{"days": "Mon-Fri", "time": "5:00pm"}, {"days": "Sat", "time": "4:00pm"}, {"days": "Sun", "time": "Closed"}], "id": "7822900090", "name": "USPS COLLECTION BOX - BLUE BOX", "address": {"city": "SAN ANTONIO", "state": "TX", "street": "4835 MEDICAL DR", "postcode": "78229"}}},
{"geometry": {"type": "Point", "coordinates": [-98.5808280977, 29.5084178842]}, "type": "Feature", "properties": {"collection_times": [{"days": "Mon-Fri", "time": "1:15pm"}, {"days": "Sat-Sun", "time": "Closed"}], "id": "7822900095", "name": "USPS COLLECTION BOX - BLUE BOX", "address": {"city": "SAN ANTONIO", "state": "TX", "street": "7400 MERTON MINTER ST", "postcode": "78229"}}},
{"geometry": {"type": "Point", "coordinates": [-98.5708722183, 29.4900053179]}, "type": "Feature", "properties": {"collection_times": [{"days": "Mon-Fri", "time": "1:30pm"}, {"days": "Sat", "time": "3:15pm"}, {"days": "Sun", "time": "Closed"}], "id": "7822900097", "name": "USPS COLLECTION BOX - BLUE BOX", "address": {"city": "SAN ANTONIO", "state": "TX", "street": "6326 SOVEREIGN ST", "postcode": "78229"}}},
{"geometry": {"type": "Point", "coordinates": [-98.5816058119, 29.5107215757]}, "type": "Feature", "properties": {"collection_times": [{"days": "Mon-Fri", "time": "5:00pm"}, {"days": "Sat", "time": "4:00pm"}, {"days": "Sun", "time": "Closed"}], "id": "7822900105", "name": "USPS COLLECTION BOX - PO LOBBY", "address": {"city": "SAN ANTONIO", "state": "TX", "street": "4835 MEDICAL DR", "postcode": "78229"}}},
{"geometry": {"type": "Point", "coordinates": [-98.5692296953, 29.5175484319]}, "type": "Feature", "properties": {"collection_times": [{"days": "Mon-Fri", "time": "3:15pm"}, {"days": "Sat-Sun", "time": "Closed"}], "id": "7822900107", "name": "USPS COLLECTION BOX - BLUE BOX", "address": {"city": "SAN ANTONIO", "state": "TX", "street": "8401 DATAPOINT DR", "postcode": "78229"}}},
{"geometry": {"type": "Point", "coordinates": [-98.5584789642, 29.5050528364]}, "type": "Feature", "properties": {"collection_times": [{"days": "Mon-Fri", "time": "2:15pm"}, {"days": "Sat-Sun", "time": "Closed"}], "id": "7822900108", "name": "USPS COLLECTION BOX - BLUE BOX", "address": {"city": "SAN ANTONIO", "state": "TX", "street": "7551 CALLAGHAN RD", "postcode": "78229"}}},
{"geometry": {"type": "Point", "coordinates": [-98.5816058119, 29.5107215757]}, "type": "Feature", "properties": {"collection_times": [{"days": "Mon-Fri", "time": "5:00pm"}, {"days": "Sat", "time": "4:00pm"}, {"days": "Sun", "time": "Closed"}], "id": "7822900111", "name": "USPS COLLECTION BOX - PO LOBBY", "address": {"city": "SAN ANTONIO", "state": "TX", "street": "4835 MEDICAL DR", "postcode": "78229"}}},
{"geometry": {"type": "Point", "coordinates": [-98.5640246758, 29.5072330297]}, "type": "Feature", "properties": {"collection_times": [{"days": "Mon-Fri", "time": "2:30pm"}, {"days": "Sat-Sun", "time": "Closed"}], "id": "7822900118", "name": "USPS COLLECTION BOX - BLUE BOX", "address": {"city": "SAN ANTONIO", "state": "TX", "street": "5430 FREDERICKSBURG RD", "postcode": "78229"}}},
{"geometry": {"type": "Point", "coordinates": [-98.5609265063, 29.5274131267]}, "type": "Feature", "properties": {"collection_times": [{"days": "Mon-Fri", "time": "2:45pm"}, {"days": "Sat-Sun", "time": "Closed"}], "id": "7822900120", "name": "USPS COLLECTION BOX - BLUE BOX", "address": {"city": "SAN ANTONIO", "state": "TX", "street": "9501 CONSOLE DR", "postcode": "78229"}}},
{"geometry": {"type": "Point", "coordinates": [-98.5609265063, 29.5274131267]}, "type": "Feature", "properties": {"collection_times": [{"days": "Mon-Fri", "time": "2:45pm"}, {"days": "Sat-Sun", "time": "Closed"}], "id": "7822900121", "name": "USPS COLLECTION BOX - BLUE BOX", "address": {"city": "SAN ANTONIO", "state": "TX", "street": "9501 CONSOLE DR", "postcode": "78229"}}},
{"geometry": {"type": "Point", "coordinates": [-98.5609265063, 29.5274131267]}, "type": "Feature", "properties": {"collection_times": [{"days": "Mon-Fri", "time": "2:45pm"}, {"days": "Sat-Sun", "time": "Closed"}], "id": "7822900122", "name": "USPS COLLECTION BOX - BLUE BOX", "address": {"city": "SAN ANTONIO", "state": "TX", "street": "9501 CONSOLE DR", "postcode": "78229"}}},
{"geometry": {"type": "Point", "coordinates": [-98.5816058119, 29.5107215757]}, "type": "Feature", "properties": {"collection_times": [{"days": "Mon-Fri", "time": "5:00pm"}, {"days": "Sat", "time": "4:00pm"}, {"days": "Sun", "time": "Closed"}], "id": "7822900123", "name": "USPS COLLECTION BOX - APC", "address": {"city": "SAN ANTONIO", "state": "TX", "street": "4835 MEDICAL DR", "postcode": "78229"}}},
{"geometry": {"type": "Point", "coordinates": [-98.5887520671, 29.5097539153]}, "type": "Feature", "properties": {"collection_times": [{"days": "Mon-Fri", "time": "1:15pm"}, {"days": "Sat-Sun", "time": "Closed"}], "id": "7822900124", "name": "USPS COLLECTION BOX - BLUE BOX", "address": {"city": "SAN ANTONIO", "state": "TX", "street": "5282 MEDICAL DR", "postcode": "78229"}}},
{"geometry": {"type": "Point", "coordinates": [-98.5511977994, 29.5125729026]}, "type": "Feature", "properties": {"collection_times": [{"days": "Mon-Fri", "time": "1:30pm"}, {"days": "Sat", "time": "1:15pm"}, {"days": "Sun", "time": "Closed"}], "id": "7823000031", "name": "USPS COLLECTION BOX - BLUE BOX", "address": {"city": "SAN ANTONIO", "state": "TX", "street": "8101 CALLAGHAN RD", "postcode": "78230"}}},
{"geometry": {"type": "Point", "coordinates": [-98.5634470624, 29.5330959232]}, "type": "Feature", "properties": {"collection_times": [{"days": "Mon-Fri", "time": "4:30pm"}, {"days": "Sat", "time": "1:30pm"}, {"days": "Sun", "time": "Closed"}], "id": "7823000034", "name": "USPS COLLECTION BOX - BLUE BOX", "address": {"city": "SAN ANTONIO", "state": "TX", "street": "9901 IH 10 W", "postcode": "78230"}}},
{"geometry": {"type": "Point", "coordinates": [-98.5351273542, 29.5148986038]}, "type": "Feature", "properties": {"collection_times": [{"days": "Mon-Fri", "time": "1:15pm"}, {"days": "Sat", "time": "12:45pm"}, {"days": "Sun", "time": "Closed"}], "id": "7823000040", "name": "USPS COLLECTION BOX - BLUE BOX", "address": {"city": "SAN ANTONIO", "state": "TX", "street": "4402 VANCE JACKSON RD", "postcode": "78230"}}},
{"geometry": {"type": "Point", "coordinates": [-98.5517751357, 29.5080078679]}, "type": "Feature", "properties": {"collection_times": [{"days": "Mon-Fri", "time": "3:30pm"}, {"days": "Sat", "time": "3:00pm"}, {"days": "Sun", "time": "Closed"}], "id": "7823000043", "name": "USPS COLLECTION BOX - BLUE BOX", "address": {"city": "SAN ANTONIO", "state": "TX", "street": "7800 W IH 10", "postcode": "78230"}}},
{"geometry": {"type": "Point", "coordinates": [-98.5509044779, 29.5107097461]}, "type": "Feature", "properties": {"collection_times": [{"days": "Mon-Fri", "time": "1:30pm"}, {"days": "Sat", "time": "1:00pm"}, {"days": "Sun", "time": "Closed"}], "id": "7823000048", "name": "USPS COLLECTION BOX - BLUE BOX", "address": {"city": "SAN ANTONIO", "state": "TX", "street": "8023 VANTAGE DR", "postcode": "78230"}}},
{"geometry": {"type": "Point", "coordinates": [-98.557148318, 29.5413919223]}, "type": "Feature", "properties": {"collection_times": [{"days": "Mon-Fri", "time": "2:00pm"}, {"days": "Sat-Sun", "time": "Closed"}], "id": "7823000051", "name": "USPS COLLECTION BOX - EXPRESS", "address": {"city": "SAN ANTONIO", "state": "TX", "street": "10999 W IH 10", "postcode": "78230"}}},
{"geometry": {"type": "Point", "coordinates": [-98.5474561525, 29.5077464339]}, "type": "Feature", "properties": {"collection_times": [{"days": "Mon-Fri", "time": "1:15pm"}, {"days": "Sat", "time": "1:00pm"}, {"days": "Sun", "time": "Closed"}], "id": "7823000053", "name": "USPS COLLECTION BOX - BLUE BOX", "address": {"city": "SAN ANTONIO", "state": "TX", "street": "3201 CHERRY RIDGE ST", "postcode": "78230"}}},
{"geometry": {"type": "Point", "coordinates": [-98.5523762885, 29.5134421884]}, "type": "Feature", "properties": {"collection_times": [{"days": "Mon-Fri", "time": "1:45pm"}, {"days": "Sat", "time": "1:15pm"}, {"days": "Sun", "time": "Closed"}], "id": "7823000061", "name": "USPS COLLECTION BOX - BLUE BOX", "address": {"city": "SAN ANTONIO", "state": "TX", "street": "8131 IH 10 W", "postcode": "78230"}}},
{"geometry": {"type": "Point", "coordinates": [-98.551710073, 29.5153481282]}, "type": "Feature", "properties": {"collection_times": [{"days": "Mon-Fri", "time": "1:30pm"}, {"days": "Sat", "time": "1:00pm"}, {"days": "Sun", "time": "Closed"}], "id": "7823000068", "name": "USPS COLLECTION BOX - BLUE BOX", "address": {"city": "SAN ANTONIO", "state": "TX", "street": "8303 GREATVIEW ST", "postcode": "78230"}}},
{"geometry": {"type": "Point", "coordinates": [-98.5620645128, 29.5625505569]}, "type": "Feature", "properties": {"collection_times": [{"days": "Mon-Fri", "time": "5:00pm"}, {"days": "Sat", "time": "3:00pm"}, {"days": "Sun", "time": "Closed"}], "id": "7823000069", "name": "USPS COLLECTION BOX - BLUE BOX", "address": {"city": "SAN ANTONIO", "state": "TX", "street": "12951 HUEBNER RD", "postcode": "78230"}}},
{"geometry": {"type": "Point", "coordinates": [-98.5856748503, 29.5521844272]}, "type": "Feature", "properties": {"collection_times": [{"days": "Mon-Fri", "time": "2:15pm"}, {"days": "Sat", "time": "1:30pm"}, {"days": "Sun", "time": "Closed"}], "id": "7823000076", "name": "USPS COLLECTION BOX - BLUE BOX", "address": {"city": "SAN ANTONIO", "state": "TX", "street": "11835 W IH 10", "postcode": "78230"}}},
{"geometry": {"type": "Point", "coordinates": [-98.5517751357, 29.5080078679]}, "type": "Feature", "properties": {"collection_times": [{"days": "Mon-Fri", "time": "3:30pm"}, {"days": "Sat", "time": "3:00pm"}, {"days": "Sun", "time": "Closed"}], "id": "7823000077", "name": "USPS COLLECTION BOX - BLUE BOX", "address": {"city": "SAN ANTONIO", "state": "TX", "street": "7800 W IH 10", "postcode": "78230"}}},
{"geometry": {"type": "Point", "coordinates": [-98.5634470624, 29.5330959232]}, "type": "Feature", "properties": {"collection_times": [{"days": "Mon-Fri", "time": "4:30pm"}, {"days": "Sat", "time": "1:30pm"}, {"days": "Sun", "time": "Closed"}], "id": "7823000083", "name": "USPS COLLECTION BOX - BLUE BOX", "address": {"city": "SAN ANTONIO", "state": "TX", "street": "9901 IH 10 W", "postcode": "78230"}}},
{"geometry": {"type": "Point", "coordinates": [-98.5634470624, 29.5330959232]}, "type": "Feature", "properties": {"collection_times": [{"days": "Mon-Fri", "time": "4:30pm"}, {"days": "Sat", "time": "1:30pm"}, {"days": "Sun", "time": "Closed"}], "id": "7823000084", "name": "USPS COLLECTION BOX - BLUE BOX", "address": {"city": "SAN ANTONIO", "state": "TX", "street": "9901 IH 10 W", "postcode": "78230"}}},
{"geometry": {"type": "Point", "coordinates": [-98.5634470624, 29.5330959232]}, "type": "Feature", "properties": {"collection_times": [{"days": "Mon-Fri", "time": "4:30pm"}, {"days": "Sat", "time": "1:30pm"}, {"days": "Sun", "time": "Closed"}], "id": "7823000085", "name": "USPS COLLECTION BOX - BLUE BOX", "address": {"city": "SAN ANTONIO", "state": "TX", "street": "9901 IH 10 W", "postcode": "78230"}}},
{"geometry": {"type": "Point", "coordinates": [-98.557148318, 29.5413919223]}, "type": "Feature", "properties": {"collection_times": [{"days": "Mon-Fri", "time": "4:30pm"}, {"days": "Sat-Sun", "time": "Closed"}], "id": "7823000086", "name": "USPS COLLECTION BOX - EXPRESS", "address": {"city": "SAN ANTONIO", "state": "TX", "street": "9901 IH 10 W", "postcode": "78230"}}},
{"geometry": {"type": "Point", "coordinates": [-98.539341054, 29.511953036]}, "type": "Feature", "properties": {"collection_times": [{"days": "Mon-Fri", "time": "1:15pm"}, {"days": "Sat", "time": "12:45pm"}, {"days": "Sun", "time": "Closed"}], "id": "7823000087", "name": "USPS COLLECTION BOX - BLUE BOX", "address": {"city": "SAN ANTONIO", "state": "TX", "street": "2929 MOSSROCK", "postcode": "78230"}}},
{"geometry": {"type": "Point", "coordinates": [-98.5509044779, 29.5107097461]}, "type": "Feature", "properties": {"collection_times": [{"days": "Mon-Fri", "time": "1:30pm"}, {"days": "Sat", "time": "1:00pm"}, {"days": "Sun", "time": "Closed"}], "id": "7823000090", "name": "USPS COLLECTION BOX - BLUE BOX", "address": {"city": "SAN ANTONIO", "state": "TX", "street": "8023 VANTAGE DR", "postcode": "78230"}}},
{"geometry": {"type": "Point", "coordinates": [-98.5525640175, 29.5141062658]}, "type": "Feature", "properties": {"collection_times": [{"days": "Mon-Fri", "time": "3:15pm"}, {"days": "Sat", "time": "3:00pm"}, {"days": "Sun", "time": "Closed"}], "id": "7823000097", "name": "USPS COLLECTION BOX - BLUE BOX", "address": {"city": "SAN ANTONIO", "state": "TX", "street": "8200 W IH 10", "postcode": "78230"}}},
{"geometry": {"type": "Point", "coordinates": [-98.5902638886, 29.5624535542]}, "type": "Feature", "properties": {"collection_times": [{"days": "Mon-Fri", "time": "2:15pm"}, {"days": "Sat", "time": "2:00pm"}, {"days": "Sun", "time": "Closed"}], "id": "7823000098", "name": "USPS COLLECTION BOX - BLUE BOX", "address": {"city": "SAN ANTONIO", "state": "TX", "street": "12777 W IH 10", "postcode": "78230"}}},
{"geometry": {"type": "Point", "coordinates": [-98.5474561525, 29.5077464339]}, "type": "Feature", "properties": {"collection_times": [{"days": "Mon-Fri", "time": "1:15pm"}, {"days": "Sat", "time": "1:00pm"}, {"days": "Sun", "time": "Closed"}], "id": "7823000104", "name": "USPS COLLECTION BOX - BLUE BOX", "address": {"city": "SAN ANTONIO", "state": "TX", "street": "3201 CHERRY RIDGE ST", "postcode": "78230"}}},
{"geometry": {"type": "Point", "coordinates": [-98.5620645128, 29.5625505569]}, "type": "Feature", "properties": {"collection_times": [{"days": "Mon-Fri", "time": "5:00pm"}, {"days": "Sat", "time": "3:00pm"}, {"days": "Sun", "time": "Closed"}], "id": "7823000110", "name": "USPS COLLECTION BOX - PO LOBBY", "address": {"city": "SAN ANTONIO", "state": "TX", "street": "12951 HUEBNER RD", "postcode": "78230"}}},
{"geometry": {"type": "Point", "coordinates": [-98.5862832317, 29.5497615875]}, "type": "Feature", "properties": {"collection_times": [{"days": "Mon-Fri", "time": "2:15pm"}, {"days": "Sat-Sun", "time": "Closed"}], "id": "7823000114", "name": "USPS COLLECTION BOX - BLUE BOX", "address": {"city": "SAN ANTONIO", "state": "TX", "street": "11550 W IH 10", "postcode": "78230"}}},
{"geometry": {"type": "Point", "coordinates": [-98.5620645128, 29.5625505569]}, "type": "Feature", "properties": {"collection_times": [{"days": "Mon-Fri", "time": "5:00pm"}, {"days": "Sat", "time": "3:00pm"}, {"days": "Sun", "time": "Closed"}], "id": "7823000117", "name": "USPS COLLECTION BOX - PO LOBBY", "address": {"city": "SAN ANTONIO", "state": "TX", "street": "12951 HUEBNER RD", "postcode": "78230"}}},
{"geometry": {"type": "Point", "coordinates": [-98.5605008501, 29.5620715786]}, "type": "Feature", "properties": {"collection_times": [{"days": "Mon-Fri", "time": "5:00pm"}, {"days": "Sat", "time": "3:00pm"}, {"days": "Sun", "time": "Closed"}], "id": "7823000121", "name": "USPS COLLECTION BOX - BLUE BOX", "address": {"city": "SAN ANTONIO", "state": "TX", "street": "12951 HUEBNER RD", "postcode": "78230"}}},
{"geometry": {"type": "Point", "coordinates": [-98.5608180813, 29.532387045]}, "type": "Feature", "properties": {"collection_times": [{"days": "Mon-Fri", "time": "1:45pm"}, {"days": "Sat", "time": "1:15pm"}, {"days": "Sun", "time": "Closed"}], "id": "7823000122", "name": "USPS COLLECTION BOX - BLUE BOX", "address": {"city": "SAN ANTONIO", "state": "TX", "street": "9900 WURZBACH RD", "postcode": "78230"}}},
{"geometry": {"type": "Point", "coordinates": [-98.5493429693, 29.5435891437]}, "type": "Feature", "properties": {"collection_times": [{"days": "Mon-Fri", "time": "2:00pm"}, {"days": "Sat-Sun", "time": "Closed"}], "id": "7823000123", "name": "USPS COLLECTION BOX - BLUE BOX", "address": {"city": "SAN ANTONIO", "state": "TX", "street": "11118 WURZBACH RD", "postcode": "78230"}}},
{"geometry": {"type": "Point", "coordinates": [-98.5620645128, 29.5625505569]}, "type": "Feature", "properties": {"collection_times": [{"days": "Mon-Fri", "time": "5:00pm"}, {"days": "Sat", "time": "3:00pm"}, {"days": "Sun", "time": "Closed"}], "id": "7823000124", "name": "USPS COLLECTION BOX - APC", "address": {"city": "SAN ANTONIO", "state": "TX", "street": "12951 HUEBNER RD", "postcode": "78230"}}},
{"geometry": {"type": "Point", "coordinates": [-98.5649036143, 29.5332084427]}, "type": "Feature", "properties": {"collection_times": [{"days": "Mon-Fri", "time": "2:45pm"}, {"days": "Sat-Sun", "time": "Closed"}], "id": "7823000126", "name": "USPS COLLECTION BOX - BLUE BOX", "address": {"city": "SAN ANTONIO", "state": "TX", "street": "10000 W IH 10", "postcode": "78230"}}},
{"geometry": {"type": "Point", "coordinates": [-98.5548913351, 29.5859184847]}, "type": "Feature", "properties": {"collection_times": [{"days": "Mon-Fri", "time": "1:45pm"}, {"days": "Sat-Sun", "time": "Closed"}], "id": "7823100001", "name": "USPS COLLECTION BOX - BLUE BOX", "address": {"city": "SHAVANO PARK", "state": "TX", "street": "900 SADDLETREE CT", "postcode": "78231"}}},
{"geometry": {"type": "Point", "coordinates": [-98.4793319117, 29.5743789636]}, "type": "Feature", "properties": {"collection_times": [{"days": "Mon-Fri", "time": "3:00pm"}, {"days": "Sat", "time": "2:00pm"}, {"days": "Sun", "time": "Closed"}], "id": "7823200034", "name": "USPS COLLECTION BOX - BLUE BOX", "address": {"city": "SAN ANTONIO", "state": "TX", "street": "14615 SAN PEDRO AVE", "postcode": "78232"}}},
{"geometry": {"type": "Point", "coordinates": [-98.4794483459, 29.5639666704]}, "type": "Feature", "properties": {"collection_times": [{"days": "Mon-Fri", "time": "2:30pm"}, {"days": "Sat-Sun", "time": "Closed"}], "id": "7823200038", "name": "USPS COLLECTION BOX - BLUE BOX", "address": {"city": "SAN ANTONIO", "state": "TX", "street": "140 HEIMER RD", "postcode": "78232"}}},
{"geometry": {"type": "Point", "coordinates": [-98.5111795329, 29.5947577976]}, "type": "Feature", "properties": {"collection_times": [{"days": "Mon-Fri", "time": "1:15pm"}, {"days": "Sat-Sun", "time": "Closed"}], "id": "7823200039", "name": "USPS COLLECTION BOX - BLUE BOX", "address": {"city": "SAN ANTONIO", "state": "TX", "street": "16607 BLANCO RD", "postcode": "78232"}}},
{"geometry": {"type": "Point", "coordinates": [-98.4890286263, 29.6087947887]}, "type": "Feature", "properties": {"collection_times": [{"days": "Mon-Fri", "time": "3:00pm"}, {"days": "Sat-Sun", "time": "Closed"}], "id": "7823200044", "name": "USPS COLLECTION BOX - BLUE BOX", "address": {"city": "SAN ANTONIO", "state": "TX", "street": "400 N LOOP 1604 E", "postcode": "78232"}}},
{"geometry": {"type": "Point", "coordinates": [-98.5083427973, 29.6043326675]}, "type": "Feature", "properties": {"collection_times": [{"days": "Mon-Fri", "time": "1:30pm"}, {"days": "Sat-Sun", "time": "Closed"}], "id": "7823200050", "name": "USPS COLLECTION BOX - BLUE BOX", "address": {"city": "SAN ANTONIO", "state": "TX", "street": "17890 BLANCO RD", "postcode": "78232"}}},
{"geometry": {"type": "Point", "coordinates": [-98.4769730915, 29.5711861573]}, "type": "Feature", "properties": {"collection_times": [{"days": "Mon-Fri", "time": "2:45pm"}, {"days": "Sat-Sun", "time": "Closed"}], "id": "7823200051", "name": "USPS COLLECTION BOX - BLUE BOX", "address": {"city": "SAN ANTONIO", "state": "TX", "street": "1000 CENTRAL PKWY N", "postcode": "78232"}}},
{"geometry": {"type": "Point", "coordinates": [-98.4794483459, 29.5639666704]}, "type": "Feature", "properties": {"collection_times": [{"days": "Mon-Fri", "time": "2:30pm"}, {"days": "Sat-Sun", "time": "Closed"}], "id": "7823200053", "name": "USPS COLLECTION BOX - BLUE BOX", "address": {"city": "SAN ANTONIO", "state": "TX", "street": "140 HEIMER RD", "postcode": "78232"}}},
{"geometry": {"type": "Point", "coordinates": [-98.4794483459, 29.5639666704]}, "type": "Feature", "properties": {"collection_times": [{"days": "Mon-Fri", "time": "2:30pm"}, {"days": "Sat-Sun", "time": "Closed"}], "id": "7823200054", "name": "USPS COLLECTION BOX - BLUE BOX", "address": {"city": "SAN ANTONIO", "state": "TX", "street": "140 HEIMER RD", "postcode": "78232"}}},
{"geometry": {"type": "Point", "coordinates": [-98.452830082, 29.5844199192]}, "type": "Feature", "properties": {"collection_times": [{"days": "Mon-Fri", "time": "5:30pm"}, {"days": "Sat", "time": "3:30pm"}, {"days": "Sun", "time": "Closed"}], "id": "7823200057", "name": "USPS COLLECTION BOX - BLUE BOX", "address": {"city": "SAN ANTONIO", "state": "TX", "street": "15610 HENDERSON PASS", "postcode": "78232"}}},
{"geometry": {"type": "Point", "coordinates": [-98.4703698681, 29.5850635726]}, "type": "Feature", "properties": {"collection_times": [{"days": "Mon-Fri", "time": "2:30pm"}, {"days": "Sat-Sun", "time": "Closed"}], "id": "7823200061", "name": "USPS COLLECTION BOX - EXPRESS", "address": {"city": "SAN ANTONIO", "state": "TX", "street": "13750 SAN PEDRO AVE", "postcode": "78232"}}},
{"geometry": {"type": "Point", "coordinates": [-98.468484521, 29.6074088034]}, "type": "Feature", "properties": {"collection_times": [{"days": "Mon-Fri", "time": "1:30pm"}, {"days": "Sat", "time": "4:30pm"}, {"days": "Sun", "time": "Closed"}], "id": "7823200071", "name": "USPS COLLECTION BOX - BLUE BOX", "address": {"city": "SAN ANTONIO", "state": "TX", "street": "18140 SAN PEDRO AVE", "postcode": "78232"}}},
{"geometry": {"type": "Point", "coordinates": [-98.452830082, 29.5844199192]}, "type": "Feature", "properties": {"collection_times": [{"days": "Mon-Fri", "time": "5:30pm"}, {"days": "Sat", "time": "3:30pm"}, {"days": "Sun", "time": "Closed"}], "id": "7823200074", "name": "USPS COLLECTION BOX - PO LOBBY", "address": {"city": "SAN ANTONIO", "state": "TX", "street": "15610 HENDERSON PASS", "postcode": "78232"}}},
{"geometry": {"type": "Point", "coordinates": [-98.4708652071, 29.6102306428]}, "type": "Feature", "properties": {"collection_times": [{"days": "Mon-Fri", "time": "2:15pm"}, {"days": "Sat-Sun", "time": "Closed"}], "id": "7823200077", "name": "USPS COLLECTION BOX - BLUE BOX", "address": {"city": "SAN ANTONIO", "state": "TX", "street": "1515 N LOOP 1604 E", "postcode": "78232"}}},
{"geometry": {"type": "Point", "coordinates": [-98.452830082, 29.5844199192]}, "type": "Feature", "properties": {"collection_times": [{"days": "Mon-Fri", "time": "5:30pm"}, {"days": "Sat", "time": "3:30pm"}, {"days": "Sun", "time": "Closed"}], "id": "7823200081", "name": "USPS COLLECTION BOX - PO LOBBY", "address": {"city": "SAN ANTONIO", "state": "TX", "street": "15610 HENDERSON PASS", "postcode": "78232"}}},
{"geometry": {"type": "Point", "coordinates": [-98.4769730915, 29.5711861573]}, "type": "Feature", "properties": {"collection_times": [{"days": "Mon-Fri", "time": "2:45pm"}, {"days": "Sat-Sun", "time": "Closed"}], "id": "7823200086", "name": "USPS COLLECTION BOX - BLUE BOX", "address": {"city": "SAN ANTONIO", "state": "TX", "street": "1000 CENTRAL PKWY N", "postcode": "78232"}}},
{"geometry": {"type": "Point", "coordinates": [-98.4929820752, 29.6081796501]}, "type": "Feature", "properties": {"collection_times": [{"days": "Mon-Fri", "time": "3:00pm"}, {"days": "Sat", "time": "4:30pm"}, {"days": "Sun", "time": "Closed"}], "id": "7823200089", "name": "USPS COLLECTION BOX - BLUE BOX", "address": {"city": "SAN ANTONIO", "state": "TX", "street": "150 N LOOP 1604 E", "postcode": "78232"}}},
{"geometry": {"type": "Point", "coordinates": [-98.4741505514, 29.5970361766]}, "type": "Feature", "properties": {"collection_times": [{"days": "Mon-Fri", "time": "4:15pm"}, {"days": "Sat-Sun", "time": "Closed"}], "id": "7823200095", "name": "USPS COLLECTION BOX - BLUE BOX", "address": {"city": "SAN ANTONIO", "state": "TX", "street": "1370 PANTHEON WAY", "postcode": "78232"}}},
{"geometry": {"type": "Point", "coordinates": [-98.452830082, 29.5844199192]}, "type": "Feature", "properties": {"collection_times": [{"days": "Mon-Fri", "time": "5:30pm"}, {"days": "Sat", "time": "3:30pm"}, {"days": "Sun", "time": "Closed"}], "id": "7823200096", "name": "USPS COLLECTION BOX - APC", "address": {"city": "SAN ANTONIO", "state": "TX", "street": "15610 HENDERSON PASS", "postcode": "78232"}}},
{"geometry": {"type": "Point", "coordinates": [-98.4714072696, 29.6001035892]}, "type": "Feature", "properties": {"collection_times": [{"days": "Mon-Fri", "time": "4:00pm"}, {"days": "Sat-Sun", "time": "Closed"}], "id": "7823200097", "name": "USPS COLLECTION BOX - BLUE BOX", "address": {"city": "SAN ANTONIO", "state": "TX", "street": "17319 SAN PEDRO AVE", "postcode": "78232"}}},
{"geometry": {"type": "Point", "coordinates": [-98.3654292953, 29.5539924383]}, "type": "Feature", "properties": {"collection_times": [{"days": "Mon-Fri", "time": "1:30pm"}, {"days": "Sat-Sun", "time": "Closed"}], "id": "7823300019", "name": "USPS COLLECTION BOX - BLUE BOX", "address": {"city": "SAN ANTONIO", "state": "TX", "street": "12702 TOEPPERWEIN RD", "postcode": "78233"}}},
{"geometry": {"type": "Point", "coordinates": [-98.3654292953, 29.5539924383]}, "type": "Feature", "properties": {"collection_times": [{"days": "Mon-Fri", "time": "1:30pm"}, {"days": "Sat-Sun", "time": "Closed"}], "id": "7823300020", "name": "USPS COLLECTION BOX - BLUE BOX", "address": {"city": "SAN ANTONIO", "state": "TX", "street": "12709 TOEPPERWEIN RD", "postcode": "78233"}}},
{"geometry": {"type": "Point", "coordinates": [-98.3844457051, 29.5400217086]}, "type": "Feature", "properties": {"collection_times": [{"days": "Mon-Fri", "time": "2:00pm"}, {"days": "Sat-Sun", "time": "Closed"}], "id": "7823300023", "name": "USPS COLLECTION BOX - BLUE BOX", "address": {"city": "SAN ANTONIO", "state": "TX", "street": "5303 BREWSTER ST", "postcode": "78233"}}},
{"geometry": {"type": "Point", "coordinates": [-98.3720635898, 29.5398808372]}, "type": "Feature", "properties": {"collection_times": [{"days": "Mon-Fri", "time": "5:00pm"}, {"days": "Sat", "time": "3:00pm"}, {"days": "Sun", "time": "Closed"}], "id": "7823300025", "name": "USPS COLLECTION BOX - BLUE BOX", "address": {"city": "SAN ANTONIO", "state": "TX", "street": "11119 LANDMARK 35 DR", "postcode": "78233"}}},
{"geometry": {"type": "Point", "coordinates": [-98.3720635898, 29.5398808372]}, "type": "Feature", "properties": {"collection_times": [{"days": "Mon-Fri", "time": "5:00pm"}, {"days": "Sat", "time": "3:00pm"}, {"days": "Sun", "time": "Closed"}], "id": "7823300028", "name": "USPS COLLECTION BOX - BLUE BOX", "address": {"city": "SAN ANTONIO", "state": "TX", "street": "11119 LANDMARK 35 DR", "postcode": "78233"}}},
{"geometry": {"type": "Point", "coordinates": [-98.3654292953, 29.5539924383]}, "type": "Feature", "properties": {"collection_times": [{"days": "Mon-Fri", "time": "5:00pm"}, {"days": "Sat", "time": "3:00pm"}, {"days": "Sun", "time": "Closed"}], "id": "7823300029", "name": "USPS COLLECTION BOX - EXPRESS", "address": {"city": "SAN ANTONIO", "state": "TX", "street": "11119 LANDMARK 35 DR", "postcode": "78233"}}},
{"geometry": {"type": "Point", "coordinates": [-98.3720635897, 29.5398808368]}, "type": "Feature", "properties": {"collection_times": [{"days": "Mon-Fri", "time": "5:00pm"}, {"days": "Sat", "time": "3:00pm"}, {"days": "Sun", "time": "Closed"}], "id": "7823300035", "name": "USPS COLLECTION BOX - PO LOBBY", "address": {"city": "SAN ANTONIO", "state": "TX", "street": "11119 LANDMARK 35 DR", "postcode": "78233"}}},
{"geometry": {"type": "Point", "coordinates": [-98.3720635897, 29.5398808368]}, "type": "Feature", "properties": {"collection_times": [{"days": "Mon-Fri", "time": "5:00pm"}, {"days": "Sat", "time": "3:00pm"}, {"days": "Sun", "time": "Closed"}], "id": "7823300038", "name": "USPS COLLECTION BOX - PO LOBBY", "address": {"city": "SAN ANTONIO", "state": "TX", "street": "11119 LANDMARK 35 DR", "postcode": "78233"}}},
{"geometry": {"type": "Point", "coordinates": [-98.3680107412, 29.5465983552]}, "type": "Feature", "properties": {"collection_times": [{"days": "Mon-Fri", "time": "1:45pm"}, {"days": "Sat-Sun", "time": "Closed"}], "id": "7823300040", "name": "USPS COLLECTION BOX - BLUE BOX", "address": {"city": "SAN ANTONIO", "state": "TX", "street": "11711 N IH 35", "postcode": "78233"}}},
{"geometry": {"type": "Point", "coordinates": [-98.4484564217, 29.4630720422]}, "type": "Feature", "properties": {"collection_times": [{"days": "Mon-Fri", "time": "4:15pm"}, {"days": "Sat", "time": "12:45pm"}, {"days": "Sun", "time": "Closed"}], "id": "7823400001", "name": "USPS COLLECTION BOX - BLUE BOX", "address": {"city": "SAN ANTONIO", "state": "TX", "street": "2492 STANLEY RD", "postcode": "78234"}}},
{"geometry": {"type": "Point", "coordinates": [-99.3330489019, 31.4627353752]}, "type": "Feature", "properties": {"collection_times": [{"days": "Mon-Fri", "time": "4:15pm"}, {"days": "Sat", "time": "12:45pm"}, {"days": "Sun", "time": "Closed"}], "id": "7823400004", "name": "USPS COLLECTION BOX - BLUE BOX", "address": {"city": "SAN ANTONIO", "state": "TX", "street": "3288 CPL JOHNSON RD", "postcode": "78234"}}},
{"geometry": {"type": "Point", "coordinates": [-98.4484564217, 29.4630720422]}, "type": "Feature", "properties": {"collection_times": [{"days": "Mon-Fri", "time": "4:15pm"}, {"days": "Sat", "time": "12:45pm"}, {"days": "Sun", "time": "Closed"}], "id": "7823400016", "name": "USPS COLLECTION BOX - BLUE BOX", "address": {"city": "SAN ANTONIO", "state": "TX", "street": "2492 STANLEY RD", "postcode": "78234"}}},
{"geometry": {"type": "Point", "coordinates": [-98.4484564217, 29.4630720422]}, "type": "Feature", "properties": {"collection_times": [{"days": "Mon-Fri", "time": "4:15pm"}, {"days": "Sat", "time": "12:45pm"}, {"days": "Sun", "time": "Closed"}], "id": "7823400017", "name": "USPS COLLECTION BOX - BLUE BOX", "address": {"city": "SAN ANTONIO", "state": "TX", "street": "2492 STANLEY RD", "postcode": "78234"}}},
{"geometry": {"type": "Point", "coordinates": [-98.6151749048, 29.3796465714]}, "type": "Feature", "properties": {"collection_times": [{"days": "Mon-Fri", "time": "4:00pm"}, {"days": "Sat", "time": "12:30pm"}, {"days": "Sun", "time": "Closed"}], "id": "7823400019", "name": "USPS COLLECTION BOX - BLUE BOX", "address": {"city": "SAN ANTONIO", "state": "TX", "street": "2050 7TH ST", "postcode": "78234"}}},
{"geometry": {"type": "Point", "coordinates": [-98.4251935715, 29.4706593642]}, "type": "Feature", "properties": {"collection_times": [{"days": "Mon-Fri", "time": "1:15pm"}, {"days": "Sat-Sun", "time": "Closed"}], "id": "7823400027", "name": "USPS COLLECTION BOX - BLUE BOX", "address": {"city": "SAN ANTONIO", "state": "TX", "street": "3600 BLDG 3600 (FSH)", "postcode": "78234"}}},
{"geometry": {"type": "Point", "coordinates": [-98.4440869299, 29.4611005657]}, "type": "Feature", "properties": {"collection_times": [{"days": "Mon-Fri", "time": "1:15pm"}, {"days": "Sat-Sun", "time": "Closed"}], "id": "7823400028", "name": "USPS COLLECTION BOX - EXPRESS", "address": {"city": "SAN ANTONIO", "state": "TX", "street": "3600 BLDG 3600 (FSH)", "postcode": "78234"}}},
{"geometry": {"type": "Point", "coordinates": [-98.6252417744, 29.3981550721]}, "type": "Feature", "properties": {"collection_times": [{"days": "Mon-Fri", "time": "1:15pm"}, {"days": "Sat-Sun", "time": "Closed"}], "id": "7823600008", "name": "USPS COLLECTION BOX - BLUE BOX", "address": {"city": "SAN ANTONIO", "state": "TX", "street": "2200 BERGQUIST DR", "postcode": "78236"}}},
{"geometry": {"type": "Point", "coordinates": [-98.6210822708, 29.3746170343]}, "type": "Feature", "properties": {"collection_times": [{"days": "Mon-Fri", "time": "4:00pm"}, {"days": "Sat", "time": "2:15pm"}, {"days": "Sun", "time": "Closed"}], "id": "7823600018", "name": "USPS COLLECTION BOX - BLUE BOX", "address": {"city": "SAN ANTONIO", "state": "TX", "street": "2261 HUGHES AVE", "postcode": "78236"}}},
{"geometry": {"type": "Point", "coordinates": [-98.6262995404, 29.3812168236]}, "type": "Feature", "properties": {"collection_times": [{"days": "Mon-Fri", "time": "1:30pm"}, {"days": "Sat", "time": "2:15pm"}, {"days": "Sun", "time": "Closed"}], "id": "7823600020", "name": "USPS COLLECTION BOX - BLUE BOX", "address": {"city": "SAN ANTONIO", "state": "TX", "street": "2320 CARSWELL AVE", "postcode": "78236"}}},
{"geometry": {"type": "Point", "coordinates": [-98.6313213843, 29.3906616831]}, "type": "Feature", "properties": {"collection_times": [{"days": "Mon-Fri", "time": "1:30pm"}, {"days": "Sat", "time": "2:00pm"}, {"days": "Sun", "time": "Closed"}], "id": "7823600022", "name": "USPS COLLECTION BOX - BLUE BOX", "address": {"city": "SAN ANTONIO", "state": "TX", "street": "1550 CARSWELL AVE", "postcode": "78236"}}},
{"geometry": {"type": "Point", "coordinates": [-98.62602, 29.387104]}, "type": "Feature", "properties": {"collection_times": [{"days": "Mon-Fri", "time": "1:45pm"}, {"days": "Sat", "time": "2:00pm"}, {"days": "Sun", "time": "Closed"}], "id": "7823600023", "name": "USPS COLLECTION BOX - BLUE BOX", "address": {"city": "SAN ANTONIO", "state": "TX", "street": "1550 CONNALLY ST", "postcode": "78236"}}},
{"geometry": {"type": "Point", "coordinates": [-98.6226951915, 29.3867154592]}, "type": "Feature", "properties": {"collection_times": [{"days": "Mon-Fri", "time": "1:45pm"}, {"days": "Sat", "time": "2:00pm"}, {"days": "Sun", "time": "Closed"}], "id": "7823600024", "name": "USPS COLLECTION BOX - BLUE BOX", "address": {"city": "SAN ANTONIO", "state": "TX", "street": "1215 TRUEMPER ST", "postcode": "78236"}}},
{"geometry": {"type": "Point", "coordinates": [-98.6146113981, 29.3818866098]}, "type": "Feature", "properties": {"collection_times": [{"days": "Mon-Fri", "time": "1:00pm"}, {"days": "Sat", "time": "1:45pm"}, {"days": "Sun", "time": "Closed"}], "id": "7823600029", "name": "USPS COLLECTION BOX - BLUE BOX", "address": {"city": "SAN ANTONIO", "state": "TX", "street": "2180 REESE ST", "postcode": "78236"}}},
{"geometry": {"type": "Point", "coordinates": [-98.6258898039, 29.3890567848]}, "type": "Feature", "properties": {"collection_times": [{"days": "Mon-Fri", "time": "1:45pm"}, {"days": "Sat", "time": "2:00pm"}, {"days": "Sun", "time": "Closed"}], "id": "7823600035", "name": "USPS COLLECTION BOX - BLUE BOX", "address": {"city": "SAN ANTONIO", "state": "TX", "street": "1780 CONNALLY ST", "postcode": "78236"}}},
{"geometry": {"type": "Point", "coordinates": [-98.6228673903, 29.3842514821]}, "type": "Feature", "properties": {"collection_times": [{"days": "Mon-Fri", "time": "1:00pm"}, {"days": "Sat", "time": "1:45pm"}, {"days": "Sun", "time": "Closed"}], "id": "7823600036", "name": "USPS COLLECTION BOX - BLUE BOX", "address": {"city": "SAN ANTONIO", "state": "TX", "street": "2141 KELLY DR", "postcode": "78236"}}},
{"geometry": {"type": "Point", "coordinates": [-98.6269828268, 29.3905397965]}, "type": "Feature", "properties": {"collection_times": [{"days": "Mon-Fri", "time": "1:45pm"}, {"days": "Sat-Sun", "time": "Closed"}], "id": "7823600037", "name": "USPS COLLECTION BOX - BLUE BOX", "address": {"city": "SAN ANTONIO", "state": "TX", "street": "1551 LUKE BLVD", "postcode": "78236"}}},
{"geometry": {"type": "Point", "coordinates": [-98.6261453026, 29.390829889]}, "type": "Feature", "properties": {"collection_times": [{"days": "Mon-Fri", "time": "1:45pm"}, {"days": "Sat-Sun", "time": "Closed"}], "id": "7823600038", "name": "USPS COLLECTION BOX - BLUE BOX", "address": {"city": "SAN ANTONIO", "state": "TX", "street": "1610 LUKE BLVD", "postcode": "78236"}}},
{"geometry": {"type": "Point", "coordinates": [-98.5693483213, 29.4262765357]}, "type": "Feature", "properties": {"collection_times": [{"days": "Mon-Fri", "time": "5:00pm"}, {"days": "Sat", "time": "3:30pm"}, {"days": "Sun", "time": "Closed"}], "id": "7823700009", "name": "USPS COLLECTION BOX - BLUE BOX", "address": {"city": "SAN ANTONIO", "state": "TX", "street": "5555 SAN FERNANDO ST", "postcode": "78237"}}},
{"geometry": {"type": "Point", "coordinates": [-98.566498243, 29.4319885589]}, "type": "Feature", "properties": {"collection_times": [{"days": "Mon-Fri", "time": "2:15pm"}, {"days": "Sat-Sun", "time": "Closed"}], "id": "7823700013", "name": "USPS COLLECTION BOX - BLUE BOX", "address": {"city": "SAN ANTONIO", "state": "TX", "street": "5358 W COMMERCE ST", "postcode": "78237"}}},
{"geometry": {"type": "Point", "coordinates": [-98.5667577486, 29.4203720995]}, "type": "Feature", "properties": {"collection_times": [{"days": "Mon-Fri", "time": "2:30pm"}, {"days": "Sat-Sun", "time": "Closed"}], "id": "7823700020", "name": "USPS COLLECTION BOX - BLUE BOX", "address": {"city": "SAN ANTONIO", "state": "TX", "street": "1302 S GEN MCMULLEN DR", "postcode": "78237"}}},
{"geometry": {"type": "Point", "coordinates": [-98.5693483213, 29.4262765357]}, "type": "Feature", "properties": {"collection_times": [{"days": "Mon-Fri", "time": "5:00pm"}, {"days": "Sat", "time": "3:30pm"}, {"days": "Sun", "time": "Closed"}], "id": "7823700022", "name": "USPS COLLECTION BOX - PO LOBBY", "address": {"city": "SAN ANTONIO", "state": "TX", "street": "5555 SAN FERNANDO ST", "postcode": "78237"}}},
{"geometry": {"type": "Point", "coordinates": [-98.5512120974, 29.4172876858]}, "type": "Feature", "properties": {"collection_times": [{"days": "Mon-Fri", "time": "2:45pm"}, {"days": "Sat", "time": "1:15pm"}, {"days": "Sun", "time": "Closed"}], "id": "7823700023", "name": "USPS COLLECTION BOX - BLUE BOX", "address": {"city": "SAN ANTONIO", "state": "TX", "street": "721 CASTROVILLE RD", "postcode": "78237"}}},
{"geometry": {"type": "Point", "coordinates": [-98.6144676305, 29.4799318195]}, "type": "Feature", "properties": {"collection_times": [{"days": "Mon-Fri", "time": "4:00pm"}, {"days": "Sat-Sun", "time": "Closed"}], "id": "7823800001", "name": "USPS COLLECTION BOX - BLUE BOX", "address": {"city": "SAN ANTONIO", "state": "TX", "street": "6100 BANDERA RD", "postcode": "78238"}}},
{"geometry": {"type": "Point", "coordinates": [-98.592477547, 29.4798213424]}, "type": "Feature", "properties": {"collection_times": [{"days": "Mon-Fri", "time": "1:30pm"}, {"days": "Sat-Sun", "time": "Closed"}], "id": "7823800002", "name": "USPS COLLECTION BOX - BLUE BOX", "address": {"city": "SAN ANTONIO", "state": "TX", "street": "5409 BANDERA RD", "postcode": "78238"}}},
{"geometry": {"type": "Point", "coordinates": [-98.6144676305, 29.4799318195]}, "type": "Feature", "properties": {"collection_times": [{"days": "Mon-Fri", "time": "4:00pm"}, {"days": "Sat-Sun", "time": "Closed"}], "id": "7823800004", "name": "USPS COLLECTION BOX - EXPRESS", "address": {"city": "SAN ANTONIO", "state": "TX", "street": "6100 BANDERA RD", "postcode": "78238"}}},
{"geometry": {"type": "Point", "coordinates": [-98.6208717689, 29.458188734]}, "type": "Feature", "properties": {"collection_times": [{"days": "Mon-Fri", "time": "2:15pm"}, {"days": "Sat", "time": "4:45pm"}, {"days": "Sun", "time": "Closed"}], "id": "7823800008", "name": "USPS COLLECTION BOX - BLUE BOX", "address": {"city": "SAN ANTONIO", "state": "TX", "street": "1840 GRANDSTAND DR", "postcode": "78238"}}},
{"geometry": {"type": "Point", "coordinates": [-98.6255625293, 29.4969698095]}, "type": "Feature", "properties": {"collection_times": [{"days": "Mon-Fri", "time": "5:00pm"}, {"days": "Sat", "time": "4:30pm"}, {"days": "Sun", "time": "Closed"}], "id": "7823800015", "name": "USPS COLLECTION BOX - BLUE BOX", "address": {"city": "SAN ANTONIO", "state": "TX", "street": "6825 HUEBNER RD", "postcode": "78238"}}},
{"geometry": {"type": "Point", "coordinates": [-98.617648342, 29.4681570263]}, "type": "Feature", "properties": {"collection_times": [{"days": "Mon-Fri", "time": "1:45pm"}, {"days": "Sat", "time": "4:45pm"}, {"days": "Sun", "time": "Closed"}], "id": "7823800022", "name": "USPS COLLECTION BOX - BLUE BOX", "address": {"city": "SAN ANTONIO", "state": "TX", "street": "6301 NW LOOP 410", "postcode": "78238"}}},
{"geometry": {"type": "Point", "coordinates": [-98.6207440093, 29.4648310486]}, "type": "Feature", "properties": {"collection_times": [{"days": "Mon-Fri", "time": "2:00pm"}, {"days": "Sat", "time": "4:45pm"}, {"days": "Sun", "time": "Closed"}], "id": "7823800025", "name": "USPS COLLECTION BOX - BLUE BOX", "address": {"city": "SAN ANTONIO", "state": "TX", "street": "6401 NW LOOP 410", "postcode": "78238"}}},
{"geometry": {"type": "Point", "coordinates": [-98.6255740308, 29.4969117128]}, "type": "Feature", "properties": {"collection_times": [{"days": "Mon-Fri", "time": "5:00pm"}, {"days": "Sat", "time": "4:00pm"}, {"days": "Sun", "time": "Closed"}], "id": "7823800029", "name": "USPS COLLECTION BOX - PO LOBBY", "address": {"city": "SAN ANTONIO", "state": "TX", "street": "6825 HUEBNER RD", "postcode": "78238"}}},
{"geometry": {"type": "Point", "coordinates": [-98.6255740308, 29.4969117128]}, "type": "Feature", "properties": {"collection_times": [{"days": "Mon-Fri", "time": "5:00pm"}, {"days": "Sat", "time": "4:00pm"}, {"days": "Sun", "time": "Closed"}], "id": "7823800034", "name": "USPS COLLECTION BOX - APC", "address": {"city": "SAN ANTONIO", "state": "TX", "street": "6825 HUEBNER RD", "postcode": "78238"}}},
{"geometry": {"type": "Point", "coordinates": [-98.62554, 29.49695]}, "type": "Feature", "properties": {"collection_times": [{"days": "Mon-Fri", "time": "5:00pm"}, {"days": "Sat", "time": "4:00pm"}, {"days": "Sun", "time": "Closed"}], "id": "7823800036", "name": "USPS COLLECTION BOX - PO LOBBY", "address": {"city": "SAN ANTONIO", "state": "TX", "street": "6825 HUEBNER RD", "postcode": "78238"}}},
{"geometry": {"type": "Point", "coordinates": [-98.3888390997, 29.5238571521]}, "type": "Feature", "properties": {"collection_times": [{"days": "Mon-Fri", "time": "2:15pm"}, {"days": "Sat-Sun", "time": "Closed"}], "id": "7823900010", "name": "USPS COLLECTION BOX - BLUE BOX", "address": {"city": "SAN ANTONIO", "state": "TX", "street": "5121 CRESTWAY DR", "postcode": "78239"}}},
{"geometry": {"type": "Point", "coordinates": [-98.3813296762, 29.5169368421]}, "type": "Feature", "properties": {"collection_times": [{"days": "Mon-Fri", "time": "3:15pm"}, {"days": "Sat-Sun", "time": "Closed"}], "id": "7823900012", "name": "USPS COLLECTION BOX - BLUE BOX", "address": {"city": "SAN ANTONIO", "state": "TX", "street": "8601 MIDCROWN DR", "postcode": "78239"}}},
{"geometry": {"type": "Point", "coordinates": [-98.3706806796, 29.5107203928]}, "type": "Feature", "properties": {"collection_times": [{"days": "Mon-Fri", "time": "3:00pm"}, {"days": "Sat", "time": "1:45pm"}, {"days": "Sun", "time": "Closed"}], "id": "7823900016", "name": "USPS COLLECTION BOX - BLUE BOX", "address": {"city": "SAN ANTONIO", "state": "TX", "street": "6030 MONTGOMERY RD", "postcode": "78239"}}},
{"geometry": {"type": "Point", "coordinates": [-98.3893442232, 29.5114822183]}, "type": "Feature", "properties": {"collection_times": [{"days": "Mon-Fri", "time": "3:15pm"}, {"days": "Sat-Sun", "time": "Closed"}], "id": "7823900018", "name": "USPS COLLECTION BOX - BLUE BOX", "address": {"city": "SAN ANTONIO", "state": "TX", "street": "8209 ROUGHRIDER DR", "postcode": "78239"}}},
{"geometry": {"type": "Point", "coordinates": [-98.583736321, 29.5264596618]}, "type": "Feature", "properties": {"collection_times": [{"days": "Mon-Fri", "time": "3:15pm"}, {"days": "Sat-Sun", "time": "Closed"}], "id": "7824000015", "name": "USPS COLLECTION BOX - BLUE BOX", "address": {"city": "SAN ANTONIO", "state": "TX", "street": "9119 CINNAMON HL", "postcode": "78240"}}},
{"geometry": {"type": "Point", "coordinates": [-98.5797556641, 29.5227593662]}, "type": "Feature", "properties": {"collection_times": [{"days": "Mon-Fri", "time": "3:15pm"}, {"days": "Sat-Sun", "time": "Closed"}], "id": "7824000020", "name": "USPS COLLECTION BOX - BLUE BOX", "address": {"city": "SAN ANTONIO", "state": "TX", "street": "8627 CINNAMON CREEK DR", "postcode": "78240"}}},
{"geometry": {"type": "Point", "coordinates": [-98.5716953758, 29.5216440748]}, "type": "Feature", "properties": {"collection_times": [{"days": "Mon-Fri", "time": "3:00pm"}, {"days": "Sat-Sun", "time": "Closed"}], "id": "7824000025", "name": "USPS COLLECTION BOX - BLUE BOX", "address": {"city": "SAN ANTONIO", "state": "TX", "street": "8600 WURZBACH RD", "postcode": "78240"}}},
{"geometry": {"type": "Point", "coordinates": [-98.601956641, 29.5277802915]}, "type": "Feature", "properties": {"collection_times": [{"days": "Mon-Sat", "time": "2:45pm"}, {"days": "Sun", "time": "Closed"}], "id": "7824000028", "name": "USPS COLLECTION BOX - BLUE BOX", "address": {"city": "SAN ANTONIO", "state": "TX", "street": "5910 BABCOCK RD", "postcode": "78240"}}},
{"geometry": {"type": "Point", "coordinates": [-98.5805296536, 29.538328053]}, "type": "Feature", "properties": {"collection_times": [{"days": "Mon-Fri", "time": "2:30pm"}, {"days": "Sat-Sun", "time": "Closed"}], "id": "7824000036", "name": "USPS COLLECTION BOX - BLUE BOX", "address": {"city": "SAN ANTONIO", "state": "TX", "street": "4774 RESEARCH DR", "postcode": "78240"}}},
{"geometry": {"type": "Point", "coordinates": [-98.597520552, 29.5163992307]}, "type": "Feature", "properties": {"collection_times": [{"days": "Mon-Fri", "time": "3:00pm"}, {"days": "Sat-Sun", "time": "Closed"}], "id": "7824000041", "name": "USPS COLLECTION BOX - BLUE BOX", "address": {"city": "SAN ANTONIO", "state": "TX", "street": "5788 ECKHERT RD", "postcode": "78240"}}},
{"geometry": {"type": "Point", "coordinates": [-98.49377008, 29.4250482821]}, "type": "Feature", "properties": {"collection_times": [{"days": "Mon-Fri", "time": "2:00pm"}, {"days": "Sat-Sun", "time": "Closed"}], "id": "7824100004", "name": "USPS COLLECTION BOX - BLUE BOX", "address": {"city": "SAN ANTONIO", "state": "TX", "street": "106 GENERAL HUDNELL", "postcode": "78241"}}},
{"geometry": {"type": "Point", "coordinates": [-98.6107483057, 29.3561209341]}, "type": "Feature", "properties": {"collection_times": [{"days": "Mon-Fri", "time": "2:00pm"}, {"days": "Sat-Sun", "time": "Closed"}], "id": "7824200002", "name": "USPS COLLECTION BOX - BLUE BOX", "address": {"city": "SAN ANTONIO", "state": "TX", "street": "7239 SW LOOP 410", "postcode": "78242"}}},
{"geometry": {"type": "Point", "coordinates": [-98.5953134983, 29.378376876]}, "type": "Feature", "properties": {"collection_times": [{"days": "Mon-Fri", "time": "1:00pm"}, {"days": "Sat-Sun", "time": "Closed"}], "id": "7824300002", "name": "USPS COLLECTION BOX - BLUE BOX", "address": {"city": "SAN ANTONIO", "state": "TX", "street": "250 HALL BLVD", "postcode": "78243"}}},
{"geometry": {"type": "Point", "coordinates": [-98.5966493061, 29.3829672635]}, "type": "Feature", "properties": {"collection_times": [{"days": "Mon-Fri", "time": "1:00pm"}, {"days": "Sat-Sun", "time": "Closed"}], "id": "7824300004", "name": "USPS COLLECTION BOX - BLUE BOX", "address": {"city": "SAN ANTONIO", "state": "TX", "street": "103 HALL BLVD", "postcode": "78243"}}},
{"geometry": {"type": "Point", "coordinates": [-98.3607260799, 29.4463910843]}, "type": "Feature", "properties": {"collection_times": [{"days": "Mon-Fri", "time": "2:30pm"}, {"days": "Sat-Sun", "time": "Closed"}], "id": "7824400005", "name": "USPS COLLECTION BOX - BLUE BOX", "address": {"city": "SAN ANTONIO", "state": "TX", "street": "1815 N FOSTER RD", "postcode": "78244"}}},
{"geometry": {"type": "Point", "coordinates": [-98.3587675248, 29.4812995154]}, "type": "Feature", "properties": {"collection_times": [{"days": "Mon-Fri", "time": "2:45pm"}, {"days": "Sat", "time": "4:30pm"}, {"days": "Sun", "time": "Closed"}], "id": "7824400007", "name": "USPS COLLECTION BOX - BLUE BOX", "address": {"city": "SAN ANTONIO", "state": "TX", "street": "6580 FM 78", "postcode": "78244"}}},
{"geometry": {"type": "Point", "coordinates": [-98.657862595, 29.442913437]}, "type": "Feature", "properties": {"collection_times": [{"days": "Mon-Fri", "time": "5:00pm"}, {"days": "Sat", "time": "4:00pm"}, {"days": "Sun", "time": "Closed"}], "id": "7824500018", "name": "USPS COLLECTION BOX - BLUE BOX", "address": {"city": "SAN ANTONIO", "state": "TX", "street": "702 RICHLAND HILLS DR", "postcode": "78245"}}},
{"geometry": {"type": "Point", "coordinates": [-98.6574240179, 29.4425594802]}, "type": "Feature", "properties": {"collection_times": [{"days": "Mon-Fri", "time": "5:00pm"}, {"days": "Sat", "time": "4:00pm"}, {"days": "Sun", "time": "Closed"}], "id": "7824500036", "name": "USPS COLLECTION BOX - PO LOBBY", "address": {"city": "SAN ANTONIO", "state": "TX", "street": "702 RICHLAND HILLS DR", "postcode": "78245"}}},
{"geometry": {"type": "Point", "coordinates": [-98.6574240179, 29.4425594802]}, "type": "Feature", "properties": {"collection_times": [{"days": "Mon-Fri", "time": "5:00pm"}, {"days": "Sat", "time": "4:00pm"}, {"days": "Sun", "time": "Closed"}], "id": "7824500038", "name": "USPS COLLECTION BOX - PO LOBBY", "address": {"city": "SAN ANTONIO", "state": "TX", "street": "702 RICHLAND HILLS DR", "postcode": "78245"}}},
{"geometry": {"type": "Point", "coordinates": [-98.6574240179, 29.4425594802]}, "type": "Feature", "properties": {"collection_times": [{"days": "Mon-Fri", "time": "5:00pm"}, {"days": "Sat", "time": "4:00pm"}, {"days": "Sun", "time": "Closed"}], "id": "7824500042", "name": "USPS COLLECTION BOX - APC", "address": {"city": "SAN ANTONIO", "state": "TX", "street": "702 RICHLAND HILLS DR", "postcode": "78245"}}},
{"geometry": {"type": "Point", "coordinates": [-98.6463160059, 29.4481547117]}, "type": "Feature", "properties": {"collection_times": [{"days": "Mon-Sat", "time": "3:00pm"}, {"days": "Sun", "time": "Closed"}], "id": "7824500043", "name": "USPS COLLECTION BOX - BLUE BOX", "address": {"city": "SAN ANTONIO", "state": "TX", "street": "8923 W MILITARY DR", "postcode": "78245"}}},
{"geometry": {"type": "Point", "coordinates": [-98.657862595, 29.442913437]}, "type": "Feature", "properties": {"collection_times": [{"days": "Mon-Fri", "time": "5:00pm"}, {"days": "Sat", "time": "4:00pm"}, {"days": "Sun", "time": "Closed"}], "id": "7824500047", "name": "USPS COLLECTION BOX - BLUE BOX", "address": {"city": "SAN ANTONIO", "state": "TX", "street": "702 RICHLAND HILLS DR", "postcode": "78245"}}},
{"geometry": {"type": "Point", "coordinates": [-98.4806378984, 29.5299683181]}, "type": "Feature", "properties": {"collection_times": [{"days": "Mon-Sat", "time": "6:45pm"}, {"days": "Sun", "time": "Closed"}], "id": "7824600006", "name": "USPS COLLECTION BOX - APC", "address": {"city": "SAN ANTONIO", "state": "TX", "street": "10250 JOHN SAUNDERS RD", "postcode": "78246"}}},
{"geometry": {"type": "Point", "coordinates": [-98.4806378984, 29.5299683181]}, "type": "Feature", "properties": {"collection_times": [{"days": "Mon-Sat", "time": "6:45pm"}, {"days": "Sun", "time": "Closed"}], "id": "7824600007", "name": "USPS COLLECTION BOX - PO LOBBY", "address": {"city": "SAN ANTONIO", "state": "TX", "street": "10250 JOHN SAUNDERS RD", "postcode": "78246"}}},
{"geometry": {"type": "Point", "coordinates": [-98.4806378984, 29.5299683181]}, "type": "Feature", "properties": {"collection_times": [{"days": "Mon-Sat", "time": "6:45pm"}, {"days": "Sun", "time": "Closed"}], "id": "7824600008", "name": "USPS COLLECTION BOX - PO LOBBY", "address": {"city": "SAN ANTONIO", "state": "TX", "street": "10250 JOHN SAUNDERS RD", "postcode": "78246"}}},
{"geometry": {"type": "Point", "coordinates": [-98.4806378984, 29.5299683181]}, "type": "Feature", "properties": {"collection_times": [{"days": "Mon-Sat", "time": "6:45pm"}, {"days": "Sun", "time": "Closed"}], "id": "7824600009", "name": "USPS COLLECTION BOX - BLUE BOX", "address": {"city": "SAN ANTONIO", "state": "TX", "street": "10250 JOHN SAUNDERS RD", "postcode": "78246"}}},
{"geometry": {"type": "Point", "coordinates": [-98.4806378984, 29.5299683181]}, "type": "Feature", "properties": {"collection_times": [{"days": "Mon-Sat", "time": "6:45pm"}, {"days": "Sun", "time": "Closed"}], "id": "7824600010", "name": "USPS COLLECTION BOX - BLUE BOX", "address": {"city": "SAN ANTONIO", "state": "TX", "street": "10250 JOHN SAUNDERS RD", "postcode": "78246"}}},
{"geometry": {"type": "Point", "coordinates": [-98.4807370513, 29.5325020411]}, "type": "Feature", "properties": {"collection_times": [{"days": "Mon-Sat", "time": "6:00pm"}, {"days": "Sun", "time": "Closed"}], "id": "7824600011", "name": "USPS COLLECTION BOX - EXPRESS", "address": {"city": "SAN ANTONIO", "state": "TX", "street": "10250 JOHN SAUNDERS RD", "postcode": "78246"}}},
{"geometry": {"type": "Point", "coordinates": [-98.4629942041, 29.5489172673]}, "type": "Feature", "properties": {"collection_times": [{"days": "Mon-Fri", "time": "1:00pm"}, {"days": "Sat", "time": "1:15pm"}, {"days": "Sun", "time": "Closed"}], "id": "7824700013", "name": "USPS COLLECTION BOX - BLUE BOX", "address": {"city": "SAN ANTONIO", "state": "TX", "street": "11975 STARCREST DR", "postcode": "78247"}}},
{"geometry": {"type": "Point", "coordinates": [-98.4280837634, 29.5585083861]}, "type": "Feature", "properties": {"collection_times": [{"days": "Mon-Fri", "time": "1:00pm"}, {"days": "Sat", "time": "1:15pm"}, {"days": "Sun", "time": "Closed"}], "id": "7824700020", "name": "USPS COLLECTION BOX - BLUE BOX", "address": {"city": "SAN ANTONIO", "state": "TX", "street": "12907 AGENCY", "postcode": "78247"}}},
{"geometry": {"type": "Point", "coordinates": [-98.4116471188, 29.5791239501]}, "type": "Feature", "properties": {"collection_times": [{"days": "Mon-Fri", "time": "1:00pm"}, {"days": "Sat", "time": "1:15pm"}, {"days": "Sun", "time": "Closed"}], "id": "7824700023", "name": "USPS COLLECTION BOX - EXPRESS", "address": {"city": "SAN ANTONIO", "state": "TX", "street": "11975 STARCREST DR", "postcode": "78247"}}},
{"geometry": {"type": "Point", "coordinates": [-98.3543582118, 29.5905571104]}, "type": "Feature", "properties": {"collection_times": [{"days": "Mon-Fri", "time": "1:15pm"}, {"days": "Sat", "time": "12:30pm"}, {"days": "Sun", "time": "Closed"}], "id": "7824700026", "name": "USPS COLLECTION BOX - BLUE BOX", "address": {"city": "SAN ANTONIO", "state": "TX", "street": "16503 NACOGDOCHES RD", "postcode": "78247"}}},
{"geometry": {"type": "Point", "coordinates": [-98.4405320406, 29.5765839991]}, "type": "Feature", "properties": {"collection_times": [{"days": "Mon-Fri", "time": "1:15pm"}, {"days": "Sat", "time": "12:45pm"}, {"days": "Sun", "time": "Closed"}], "id": "7824700028", "name": "USPS COLLECTION BOX - BLUE BOX", "address": {"city": "SAN ANTONIO", "state": "TX", "street": "2929 THOUSAND OAKS DR", "postcode": "78247"}}},
{"geometry": {"type": "Point", "coordinates": [-98.4197014126, 29.5776335]}, "type": "Feature", "properties": {"collection_times": [{"days": "Mon-Fri", "time": "4:30pm"}, {"days": "Sat-Sun", "time": "Closed"}], "id": "7824700029", "name": "USPS COLLECTION BOX - BLUE BOX", "address": {"city": "SAN ANTONIO", "state": "TX", "street": "14955 BULVERDE RD", "postcode": "78247"}}},
{"geometry": {"type": "Point", "coordinates": [-98.53612597, 29.5866192768]}, "type": "Feature", "properties": {"collection_times": [{"days": "Mon-Fri", "time": "1:45pm"}, {"days": "Sat", "time": "4:00pm"}, {"days": "Sun", "time": "Closed"}], "id": "7824800001", "name": "USPS COLLECTION BOX - BLUE BOX", "address": {"city": "SAN ANTONIO", "state": "TX", "street": "50 ROGERS WOOD", "postcode": "78248"}}},
{"geometry": {"type": "Point", "coordinates": [-98.5095872702, 29.6081950285]}, "type": "Feature", "properties": {"collection_times": [{"days": "Mon-Fri", "time": "1:30pm"}, {"days": "Sat", "time": "4:30pm"}, {"days": "Sun", "time": "Closed"}], "id": "7824800002", "name": "USPS COLLECTION BOX - BLUE BOX", "address": {"city": "SAN ANTONIO", "state": "TX", "street": "1150 N LOOP 1604 W", "postcode": "78248"}}},
{"geometry": {"type": "Point", "coordinates": [-98.6118997323, 29.5649027471]}, "type": "Feature", "properties": {"collection_times": [{"days": "Mon-Fri", "time": "3:45pm"}, {"days": "Sat", "time": "2:00pm"}, {"days": "Sun", "time": "Closed"}], "id": "7824900012", "name": "USPS COLLECTION BOX - BLUE BOX", "address": {"city": "SAN ANTONIO", "state": "TX", "street": "16161 UNIVERSITY OAK", "postcode": "78249"}}},
{"geometry": {"type": "Point", "coordinates": [-98.6136948023, 29.567656357]}, "type": "Feature", "properties": {"collection_times": [{"days": "Mon-Fri", "time": "3:30pm"}, {"days": "Sat-Sun", "time": "Closed"}], "id": "7824900017", "name": "USPS COLLECTION BOX - BLUE BOX", "address": {"city": "SAN ANTONIO", "state": "TX", "street": "15750 W INTERSTATE 10", "postcode": "78249"}}},
{"geometry": {"type": "Point", "coordinates": [-98.586388515, 29.5452107444]}, "type": "Feature", "properties": {"collection_times": [{"days": "Mon-Fri", "time": "2:30pm"}, {"days": "Sat-Sun", "time": "Closed"}], "id": "7824900018", "name": "USPS COLLECTION BOX - BLUE BOX", "address": {"city": "SAN ANTONIO", "state": "TX", "street": "10940 LAUREATE DR", "postcode": "78249"}}},
{"geometry": {"type": "Point", "coordinates": [-98.5990970432, 29.5630817054]}, "type": "Feature", "properties": {"collection_times": [{"days": "Mon-Fri", "time": "6:00pm"}, {"days": "Sat", "time": "4:45pm"}, {"days": "Sun", "time": "Closed"}], "id": "7824900024", "name": "USPS COLLECTION BOX - BLUE BOX", "address": {"city": "SAN ANTONIO", "state": "TX", "street": "5837 DE ZAVALA RD", "postcode": "78249"}}},
{"geometry": {"type": "Point", "coordinates": [-98.586388515, 29.5452107444]}, "type": "Feature", "properties": {"collection_times": [{"days": "Mon-Fri", "time": "2:30pm"}, {"days": "Sat-Sun", "time": "Closed"}], "id": "7824900032", "name": "USPS COLLECTION BOX - BLUE BOX", "address": {"city": "SAN ANTONIO", "state": "TX", "street": "10940 LAUREATE DR", "postcode": "78249"}}},
{"geometry": {"type": "Point", "coordinates": [-98.6257442681, 29.5871814177]}, "type": "Feature", "properties": {"collection_times": [{"days": "Mon-Fri", "time": "4:30pm"}, {"days": "Sat-Sun", "time": "Closed"}], "id": "7824900034", "name": "USPS COLLECTION BOX - BLUE BOX", "address": {"city": "SAN ANTONIO", "state": "TX", "street": "6900 N LOOP 1604 W", "postcode": "78249"}}},
{"geometry": {"type": "Point", "coordinates": [-98.5990970432, 29.5630817054]}, "type": "Feature", "properties": {"collection_times": [{"days": "Mon-Fri", "time": "6:00pm"}, {"days": "Sat", "time": "4:45pm"}, {"days": "Sun", "time": "Closed"}], "id": "7824900038", "name": "USPS COLLECTION BOX - PO LOBBY", "address": {"city": "SAN ANTONIO", "state": "TX", "street": "5837 DE ZAVALA RD", "postcode": "78249"}}},
{"geometry": {"type": "Point", "coordinates": [-98.5990970432, 29.5630817054]}, "type": "Feature", "properties": {"collection_times": [{"days": "Mon-Fri", "time": "6:00pm"}, {"days": "Sat", "time": "4:45pm"}, {"days": "Sun", "time": "Closed"}], "id": "7824900042", "name": "USPS COLLECTION BOX - PO LOBBY", "address": {"city": "SAN ANTONIO", "state": "TX", "street": "5837 DE ZAVALA RD", "postcode": "78249"}}},
{"geometry": {"type": "Point", "coordinates": [-98.6118997323, 29.5649027471]}, "type": "Feature", "properties": {"collection_times": [{"days": "Mon-Fri", "time": "3:45pm"}, {"days": "Sat", "time": "2:00pm"}, {"days": "Sun", "time": "Closed"}], "id": "7824900045", "name": "USPS COLLECTION BOX - BLUE BOX", "address": {"city": "SAN ANTONIO", "state": "TX", "street": "16161 UNIVERSITY OAK", "postcode": "78249"}}},
{"geometry": {"type": "Point", "coordinates": [-98.5892600394, 29.5489790493]}, "type": "Feature", "properties": {"collection_times": [{"days": "Mon-Fri", "time": "3:15pm"}, {"days": "Sat", "time": "2:30pm"}, {"days": "Sun", "time": "Closed"}], "id": "7824900047", "name": "USPS COLLECTION BOX - BLUE BOX", "address": {"city": "SAN ANTONIO", "state": "TX", "street": "12001 NETWORK BLVD", "postcode": "78249"}}},
{"geometry": {"type": "Point", "coordinates": [-98.5901030062, 29.5524043178]}, "type": "Feature", "properties": {"collection_times": [{"days": "Mon-Fri", "time": "3:30pm"}, {"days": "Sat", "time": "2:30pm"}, {"days": "Sun", "time": "Closed"}], "id": "7824900048", "name": "USPS COLLECTION BOX - BLUE BOX", "address": {"city": "SAN ANTONIO", "state": "TX", "street": "12500 NETWORK BLVD", "postcode": "78249"}}},
{"geometry": {"type": "Point", "coordinates": [-98.5990970432, 29.5630817054]}, "type": "Feature", "properties": {"collection_times": [{"days": "Mon-Fri", "time": "6:00pm"}, {"days": "Sat", "time": "4:45pm"}, {"days": "Sun", "time": "Closed"}], "id": "7824900049", "name": "USPS COLLECTION BOX - APC", "address": {"city": "SAN ANTONIO", "state": "TX", "street": "5837 DEZAVALA RD", "postcode": "78249"}}},
{"geometry": {"type": "Point", "coordinates": [-98.6118997323, 29.5649027471]}, "type": "Feature", "properties": {"collection_times": [{"days": "Mon-Fri", "time": "3:15pm"}, {"days": "Sat", "time": "4:00pm"}, {"days": "Sun", "time": "Closed"}], "id": "7824900055", "name": "USPS COLLECTION BOX - BLUE BOX", "address": {"city": "SAN ANTONIO", "state": "TX", "street": "9238 N LOOP 1604 W", "postcode": "78249"}}},
{"geometry": {"type": "Point", "coordinates": [-98.6655272868, 29.4895383295]}, "type": "Feature", "properties": {"collection_times": [{"days": "Mon-Fri", "time": "2:45pm"}, {"days": "Sat", "time": "3:30pm"}, {"days": "Sun", "time": "Closed"}], "id": "7825000010", "name": "USPS COLLECTION BOX - BLUE BOX", "address": {"city": "SAN ANTONIO", "state": "TX", "street": "6025 TEZEL RD", "postcode": "78250"}}},
{"geometry": {"type": "Point", "coordinates": [-98.6417572105, 29.5191679101]}, "type": "Feature", "properties": {"collection_times": [{"days": "Mon-Fri", "time": "3:30pm"}, {"days": "Sat", "time": "4:15pm"}, {"days": "Sun", "time": "Closed"}], "id": "7825000012", "name": "USPS COLLECTION BOX - BLUE BOX", "address": {"city": "SAN ANTONIO", "state": "TX", "street": "7951 GUILBEAU RD", "postcode": "78250"}}},
{"geometry": {"type": "Point", "coordinates": [-98.6624586274, 29.5125582751]}, "type": "Feature", "properties": {"collection_times": [{"days": "Mon-Fri", "time": "3:45pm"}, {"days": "Sat", "time": "4:15pm"}, {"days": "Sun", "time": "Closed"}], "id": "7825000018", "name": "USPS COLLECTION BOX - BLUE BOX", "address": {"city": "SAN ANTONIO", "state": "TX", "street": "7729 TEZEL RD", "postcode": "78250"}}},
{"geometry": {"type": "Point", "coordinates": [-98.6624586274, 29.5125582751]}, "type": "Feature", "properties": {"collection_times": [{"days": "Mon-Fri", "time": "3:45pm"}, {"days": "Sat", "time": "4:15pm"}, {"days": "Sun", "time": "Closed"}], "id": "7825000019", "name": "USPS COLLECTION BOX - BLUE BOX", "address": {"city": "SAN ANTONIO", "state": "TX", "street": "7729 TEZEL RD", "postcode": "78250"}}},
{"geometry": {"type": "Point", "coordinates": [-98.6512158493, 29.5392853029]}, "type": "Feature", "properties": {"collection_times": [{"days": "Mon-Fri", "time": "3:30pm"}, {"days": "Sat-Sun", "time": "Closed"}], "id": "7825000023", "name": "USPS COLLECTION BOX - BLUE BOX", "address": {"city": "SAN ANTONIO", "state": "TX", "street": "10350 BANDERA RD", "postcode": "78250"}}},
{"geometry": {"type": "Point", "coordinates": [-98.6489388092, 29.4684480038]}, "type": "Feature", "properties": {"collection_times": [{"days": "Mon-Fri", "time": "2:15pm"}, {"days": "Sat-Sun", "time": "Closed"}], "id": "7825100010", "name": "USPS COLLECTION BOX - BLUE BOX", "address": {"city": "SAN ANTONIO", "state": "TX", "street": "8333 CULEBRA RD STE 204A", "postcode": "78251"}}},
{"geometry": {"type": "Point", "coordinates": [-98.6655994473, 29.4841156456]}, "type": "Feature", "properties": {"collection_times": [{"days": "Mon-Fri", "time": "2:45pm"}, {"days": "Sat", "time": "3:15pm"}, {"days": "Sun", "time": "Closed"}], "id": "7825100015", "name": "USPS COLLECTION BOX - BLUE BOX", "address": {"city": "SAN ANTONIO", "state": "TX", "street": "9255 GRISSOM RD", "postcode": "78251"}}},
{"geometry": {"type": "Point", "coordinates": [-98.687163434, 29.4660395261]}, "type": "Feature", "properties": {"collection_times": [{"days": "Mon-Fri", "time": "2:30pm"}, {"days": "Sat", "time": "3:15pm"}, {"days": "Sun", "time": "Closed"}], "id": "7825100022", "name": "USPS COLLECTION BOX - BLUE BOX", "address": {"city": "SAN ANTONIO", "state": "TX", "street": "9855 WESTOVER HILLS BLVD", "postcode": "78251"}}},
{"geometry": {"type": "Point", "coordinates": [-98.7005908766, 29.4356322291]}, "type": "Feature", "properties": {"collection_times": [{"days": "Mon-Fri", "time": "2:30pm"}, {"days": "Sat", "time": "2:45pm"}, {"days": "Sun", "time": "Closed"}], "id": "7825100024", "name": "USPS COLLECTION BOX - BLUE BOX", "address": {"city": "SAN ANTONIO", "state": "TX", "street": "10718 POTRANCO RD", "postcode": "78251"}}},
{"geometry": {"type": "Point", "coordinates": [-98.7025361581, 29.4999743935]}, "type": "Feature", "properties": {"collection_times": [{"days": "Mon-Fri", "time": "3:00pm"}, {"days": "Sat", "time": "3:45pm"}, {"days": "Sun", "time": "Closed"}], "id": "7825400000", "name": "USPS COLLECTION BOX - BLUE BOX", "address": {"city": "SAN ANTONIO", "state": "TX", "street": "6703 LESLIE RD", "postcode": "78254"}}},
{"geometry": {"type": "Point", "coordinates": [-98.6303460872, 29.6665432965]}, "type": "Feature", "properties": {"collection_times": [{"days": "Mon-Fri", "time": "4:00pm"}, {"days": "Sat", "time": "2:15pm"}, {"days": "Sun", "time": "Closed"}], "id": "7825700002", "name": "USPS COLLECTION BOX - BLUE BOX", "address": {"city": "SAN ANTONIO", "state": "TX", "street": "24164 W IH 10", "postcode": "78257"}}},
{"geometry": {"type": "Point", "coordinates": [-98.6172459996, 29.6504171999]}, "type": "Feature", "properties": {"collection_times": [{"days": "Mon-Fri", "time": "4:00pm"}, {"days": "Sat", "time": "2:15pm"}, {"days": "Sun", "time": "Closed"}], "id": "7825700003", "name": "USPS COLLECTION BOX - BLUE BOX", "address": {"city": "SAN ANTONIO", "state": "TX", "street": "10 DOMINION DR", "postcode": "78257"}}},
{"geometry": {"type": "Point", "coordinates": [-98.6303460872, 29.6665432965]}, "type": "Feature", "properties": {"collection_times": [{"days": "Mon-Fri", "time": "4:00pm"}, {"days": "Sat", "time": "2:15pm"}, {"days": "Sun", "time": "Closed"}], "id": "7825700004", "name": "USPS COLLECTION BOX - BLUE BOX", "address": {"city": "SAN ANTONIO", "state": "TX", "street": "24164 W IH 10", "postcode": "78257"}}},
{"geometry": {"type": "Point", "coordinates": [-98.4928909873, 29.6210502436]}, "type": "Feature", "properties": {"collection_times": [{"days": "Mon-Fri", "time": "2:30pm"}, {"days": "Sat-Sun", "time": "Closed"}], "id": "7825800019", "name": "USPS COLLECTION BOX - BLUE BOX", "address": {"city": "SAN ANTONIO", "state": "TX", "street": "540 MADISON OAK DR", "postcode": "78258"}}},
{"geometry": {"type": "Point", "coordinates": [-98.4926922502, 29.6188960753]}, "type": "Feature", "properties": {"collection_times": [{"days": "Mon-Fri", "time": "2:30pm"}, {"days": "Sat-Sun", "time": "Closed"}], "id": "7825800020", "name": "USPS COLLECTION BOX - BLUE BOX", "address": {"city": "SAN ANTONIO", "state": "TX", "street": "540 OAK CENTRE DR", "postcode": "78258"}}},
{"geometry": {"type": "Point", "coordinates": [-98.4930760076, 29.6273505251]}, "type": "Feature", "properties": {"collection_times": [{"days": "Mon-Fri", "time": "2:45pm"}, {"days": "Sat-Sun", "time": "Closed"}], "id": "7825800022", "name": "USPS COLLECTION BOX - BLUE BOX", "address": {"city": "SAN ANTONIO", "state": "TX", "street": "19234 STONEHUE", "postcode": "78258"}}},
{"geometry": {"type": "Point", "coordinates": [-98.4833385937, 29.6128002878]}, "type": "Feature", "properties": {"collection_times": [{"days": "Mon-Fri", "time": "3:30pm"}, {"days": "Sat-Sun", "time": "Closed"}], "id": "7825800024", "name": "USPS COLLECTION BOX - BLUE BOX", "address": {"city": "SAN ANTONIO", "state": "TX", "street": "18585 SIGMA RD", "postcode": "78258"}}},
{"geometry": {"type": "Point", "coordinates": [-98.4821219585, 29.6149550523]}, "type": "Feature", "properties": {"collection_times": [{"days": "Mon-Fri", "time": "3:30pm"}, {"days": "Sat-Sun", "time": "Closed"}], "id": "7825800025", "name": "USPS COLLECTION BOX - BLUE BOX", "address": {"city": "SAN ANTONIO", "state": "TX", "street": "800 E SONTERRA BLVD", "postcode": "78258"}}},
{"geometry": {"type": "Point", "coordinates": [-98.4772962201, 29.6144622488]}, "type": "Feature", "properties": {"collection_times": [{"days": "Mon-Fri", "time": "3:45pm"}, {"days": "Sat-Sun", "time": "Closed"}], "id": "7825800026", "name": "USPS COLLECTION BOX - BLUE BOX", "address": {"city": "SAN ANTONIO", "state": "TX", "street": "1162 E SONTERRA BLVD", "postcode": "78258"}}},
{"geometry": {"type": "Point", "coordinates": [-98.4766921762, 29.6142993333]}, "type": "Feature", "properties": {"collection_times": [{"days": "Mon-Fri", "time": "3:45pm"}, {"days": "Sat-Sun", "time": "Closed"}], "id": "7825800027", "name": "USPS COLLECTION BOX - BLUE BOX", "address": {"city": "SAN ANTONIO", "state": "TX", "street": "1314 E SONTERRA BLVD", "postcode": "78258"}}},
{"geometry": {"type": "Point", "coordinates": [-98.5123731385, 29.6219847812]}, "type": "Feature", "properties": {"collection_times": [{"days": "Mon-Fri", "time": "2:45pm"}, {"days": "Sat-Sun", "time": "Closed"}], "id": "7825800028", "name": "USPS COLLECTION BOX - BLUE BOX", "address": {"city": "SAN ANTONIO", "state": "TX", "street": "19206 HUEBNER RD", "postcode": "78258"}}},
{"geometry": {"type": "Point", "coordinates": [-98.4552974845, 29.6395250702]}, "type": "Feature", "properties": {"collection_times": [{"days": "Mon-Fri", "time": "1:45pm"}, {"days": "Sat", "time": "1:30pm"}, {"days": "Sun", "time": "Closed"}], "id": "7825800030", "name": "USPS COLLECTION BOX - BLUE BOX", "address": {"city": "SAN ANTONIO", "state": "TX", "street": "20935 N HIGHWAY 281", "postcode": "78258"}}},
{"geometry": {"type": "Point", "coordinates": [-98.4177799153, 29.625085908]}, "type": "Feature", "properties": {"collection_times": [{"days": "Mon-Fri", "time": "5:30pm"}, {"days": "Sat", "time": "4:45pm"}, {"days": "Sun", "time": "Closed"}], "id": "7825900001", "name": "USPS COLLECTION BOX - BLUE BOX", "address": {"city": "SAN ANTONIO", "state": "TX", "street": "20403 ENCINO LEDGE", "postcode": "78259"}}},
{"geometry": {"type": "Point", "coordinates": [-98.4383862826, 29.6333322387]}, "type": "Feature", "properties": {"collection_times": [{"days": "Mon-Fri", "time": "5:30pm"}, {"days": "Sat", "time": "1:30pm"}, {"days": "Sun", "time": "Closed"}], "id": "7825900005", "name": "USPS COLLECTION BOX - EXPRESS", "address": {"city": "SAN ANTONIO", "state": "TX", "street": "20403 ENCINO LEDGE", "postcode": "78259"}}},
{"geometry": {"type": "Point", "coordinates": [-98.4177799153, 29.625085908]}, "type": "Feature", "properties": {"collection_times": [{"days": "Mon-Fri", "time": "5:30pm"}, {"days": "Sat", "time": "5:00pm"}, {"days": "Sun", "time": "Closed"}], "id": "7825900007", "name": "USPS COLLECTION BOX - APC", "address": {"city": "SAN ANTONIO", "state": "TX", "street": "20403 ENCINO LEDGE", "postcode": "78259"}}},
{"geometry": {"type": "Point", "coordinates": [-98.4544441861, 29.6295586592]}, "type": "Feature", "properties": {"collection_times": [{"days": "Mon-Fri", "time": "5:30pm"}, {"days": "Sat", "time": "4:45pm"}, {"days": "Sun", "time": "Closed"}], "id": "7825900008", "name": "USPS COLLECTION BOX - BLUE BOX", "address": {"city": "SAN ANTONIO", "state": "TX", "street": "20403 ENCINO LEDGE", "postcode": "78259"}}},
{"geometry": {"type": "Point", "coordinates": [-98.4153574908, 29.2187282655]}, "type": "Feature", "properties": {"collection_times": [{"days": "Mon-Sat", "time": "12:00pm"}, {"days": "Sun", "time": "Closed"}], "id": "7826400003", "name": "USPS COLLECTION BOX - BLUE BOX", "address": {"city": "SAN ANTONIO", "state": "TX", "street": "4150 LOOP 1604 E S", "postcode": "78264"}}},
{"geometry": {"type": "Point", "coordinates": [-98.4110633498, 29.5329635702]}, "type": "Feature", "properties": {"collection_times": [{"days": "Mon-Sat", "time": "8:00pm"}, {"days": "Sun", "time": "Closed"}], "id": "7828400009", "name": "USPS COLLECTION BOX - BLUE BOX", "address": {"city": "SAN ANTONIO", "state": "TX", "street": "10410 PERRIN BEITEL RD", "postcode": "78284"}}},
{"geometry": {"type": "Point", "coordinates": [-98.4110633498, 29.5329635702]}, "type": "Feature", "properties": {"collection_times": [{"days": "Mon-Sat", "time": "8:00pm"}, {"days": "Sun", "time": "Closed"}], "id": "7828400010", "name": "USPS COLLECTION BOX - BLUE BOX", "address": {"city": "SAN ANTONIO", "state": "TX", "street": "10410 PERRIN BEITEL RD", "postcode": "78284"}}},
{"geometry": {"type": "Point", "coordinates": [-98.4109084679, 29.5342704583]}, "type": "Feature", "properties": {"collection_times": [{"days": "Mon-Sat", "time": "5:00pm"}, {"days": "Sun", "time": "Closed"}], "id": "7828400011", "name": "USPS COLLECTION BOX - EXPRESS", "address": {"city": "SAN ANTONIO", "state": "TX", "street": "10410 PERRIN BEITEL RD", "postcode": "78284"}}},
{"geometry": {"type": "Point", "coordinates": [-98.4110633498, 29.5329635702]}, "type": "Feature", "properties": {"collection_times": [{"days": "Mon-Sat", "time": "8:00pm"}, {"days": "Sun", "time": "Closed"}], "id": "7828400012", "name": "USPS COLLECTION BOX - PO LOBBY", "address": {"city": "SAN ANTONIO", "state": "TX", "street": "10410 PERRIN BEITEL RD", "postcode": "78284"}}},
{"geometry": {"type": "Point", "coordinates": [-98.4110633498, 29.5329635702]}, "type": "Feature", "properties": {"collection_times": [{"days": "Mon-Sat", "time": "8:00pm"}, {"days": "Sun", "time": "Closed"}], "id": "7828400013", "name": "USPS COLLECTION BOX - PO LOBBY", "address": {"city": "SAN ANTONIO", "state": "TX", "street": "10410 PERRIN BEITEL RD", "postcode": "78284"}}},
{"geometry": {"type": "Point", "coordinates": [-98.4110633498, 29.5329635702]}, "type": "Feature", "properties": {"collection_times": [{"days": "Mon-Sat", "time": "8:00pm"}, {"days": "Sun", "time": "Closed"}], "id": "7828400014", "name": "USPS COLLECTION BOX - APC", "address": {"city": "SAN ANTONIO", "state": "TX", "street": "10410 PERRIN BEITEL RD", "postcode": "78284"}}}
]}
