{"type": "FeatureCollection", "features": [
{"geometry": {"type": "Point", "coordinates": [-97.9114746688, 27.7816139564]}, "type": "Feature", "properties": {"collection_times": [{"days": "Mon-Sat", "time": "6:15pm"}, {"days": "Sun", "time": "Closed"}], "id": "7833000000", "name": "USPS COLLECTION BOX - BLUE BOX", "address": {"city": "AGUA DULCE", "state": "TX", "street": "1518 2ND ST", "postcode": "78330"}}},
{"geometry": {"type": "Point", "coordinates": [-97.9089371294, 27.7811627031]}, "type": "Feature", "properties": {"collection_times": [{"days": "Mon-Fri", "time": "3:00pm"}, {"days": "Sat", "time": "10:00am"}, {"days": "Sun", "time": "Closed"}], "id": "7833000001", "name": "USPS COLLECTION BOX - PO LOBBY", "address": {"city": "AGUA DULCE", "state": "TX", "street": "1518 2ND ST", "postcode": "78330"}}},
{"geometry": {"type": "Point", "coordinates": [-98.0733042723, 27.7521673467]}, "type": "Feature", "properties": {"collection_times": [{"days": "Mon-Fri", "time": "5:00pm"}, {"days": "Sat", "time": "12:30pm"}, {"days": "Sun", "time": "Closed"}], "id": "7833200003", "name": "USPS COLLECTION BOX - PO LOBBY", "address": {"city": "ALICE", "state": "TX", "street": "401 E 2ND ST", "postcode": "78332"}}},
{"geometry": {"type": "Point", "coordinates": [-98.055838399, 27.7568830091]}, "type": "Feature", "properties": {"collection_times": [{"days": "Mon-Fri", "time": "2:30pm"}, {"days": "Sat", "time": "12:00pm"}, {"days": "Sun", "time": "Closed"}], "id": "7833200007", "name": "USPS COLLECTION BOX - BLUE BOX", "address": {"city": "ALICE", "state": "TX", "street": "1600 E MAIN ST", "postcode": "78332"}}},
{"geometry": {"type": "Point", "coordinates": [-98.0732755162, 27.7521435197]}, "type": "Feature", "properties": {"collection_times": [{"days": "Mon-Sat", "time": "6:00pm"}, {"days": "Sun", "time": "Closed"}], "id": "7833200027", "name": "USPS COLLECTION BOX - BLUE BOX", "address": {"city": "ALICE", "state": "TX", "street": "200 N REYNOLDS ST", "postcode": "78332"}}},
{"geometry": {"type": "Point", "coordinates": [-98.0732755162, 27.7521435197]}, "type": "Feature", "properties": {"collection_times": [{"days": "Mon-Sat", "time": "6:00pm"}, {"days": "Sun", "time": "Closed"}], "id": "7833200028", "name": "USPS COLLECTION BOX - BLUE BOX", "address": {"city": "ALICE", "state": "TX", "street": "200 N REYNOLDS ST", "postcode": "78332"}}},
{"geometry": {"type": "Point", "coordinates": [-98.0733042723, 27.7521673467]}, "type": "Feature", "properties": {"collection_times": [{"days": "Mon-Fri", "time": "5:00pm"}, {"days": "Sat", "time": "12:30pm"}, {"days": "Sun", "time": "Closed"}], "id": "7833200032", "name": "USPS COLLECTION BOX - PO LOBBY", "address": {"city": "ALICE", "state": "TX", "street": "401 E 2ND ST", "postcode": "78332"}}},
{"geometry": {"type": "Point", "coordinates": [-98.0733042723, 27.7521673467]}, "type": "Feature", "properties": {"collection_times": [{"days": "Mon-Fri", "time": "5:00pm"}, {"days": "Sat", "time": "12:30pm"}, {"days": "Sun", "time": "Closed"}], "id": "7833200037", "name": "USPS COLLECTION BOX - PO LOBBY", "address": {"city": "ALICE", "state": "TX", "street": "401 E 2ND ST", "postcode": "78332"}}},
{"geometry": {"type": "Point", "coordinates": [-98.0447646032, 27.7647004988]}, "type": "Feature", "properties": {"collection_times": [{"days": "Mon-Sat", "time": "9:30am"}, {"days": "Sun", "time": "Closed"}], "id": "7833200039", "name": "USPS COLLECTION BOX - BLUE BOX", "address": {"city": "ALICE", "state": "TX", "street": "2500 E MAIN ST", "postcode": "78332"}}},
{"geometry": {"type": "Point", "coordinates": [-97.1429751088, 27.9111493054]}, "type": "Feature", "properties": {"collection_times": [{"days": "Mon-Fri", "time": "1:30pm"}, {"days": "Sat", "time": "12:30pm"}, {"days": "Sun", "time": "Closed"}], "id": "7833600002", "name": "USPS COLLECTION BOX - BLUE BOX", "address": {"city": "ARANSAS PASS", "state": "TX", "street": "235 W CLEVELAND BLVD", "postcode": "78336"}}},
{"geometry": {"type": "Point", "coordinates": [-97.1478082954, 27.8999118796]}, "type": "Feature", "properties": {"collection_times": [{"days": "Mon-Fri", "time": "5:45pm"}, {"days": "Sat", "time": "5:00pm"}, {"days": "Sun", "time": "Closed"}], "id": "7833600007", "name": "USPS COLLECTION BOX - BLUE BOX", "address": {"city": "ARANSAS PASS", "state": "TX", "street": "634 S COMMERCIAL ST", "postcode": "78336"}}},
{"geometry": {"type": "Point", "coordinates": [-97.1635726882, 27.9168368723]}, "type": "Feature", "properties": {"collection_times": [{"days": "Mon-Fri", "time": "1:45pm"}, {"days": "Sat", "time": "1:00pm"}, {"days": "Sun", "time": "Closed"}], "id": "7833600010", "name": "USPS COLLECTION BOX - BLUE BOX", "address": {"city": "ARANSAS PASS", "state": "TX", "street": "1913 W WHEELER AVE", "postcode": "78336"}}},
{"geometry": {"type": "Point", "coordinates": [-97.1478082954, 27.8999118796]}, "type": "Feature", "properties": {"collection_times": [{"days": "Mon-Fri", "time": "5:45pm"}, {"days": "Sat", "time": "5:00pm"}, {"days": "Sun", "time": "Closed"}], "id": "7833600012", "name": "USPS COLLECTION BOX - BLUE BOX", "address": {"city": "ARANSAS PASS", "state": "TX", "street": "634 S COMMERCIAL ST", "postcode": "78336"}}},
{"geometry": {"type": "Point", "coordinates": [-97.1478082954, 27.8999118796]}, "type": "Feature", "properties": {"collection_times": [{"days": "Mon-Fri", "time": "5:45pm"}, {"days": "Sat", "time": "5:00pm"}, {"days": "Sun", "time": "Closed"}], "id": "7833600013", "name": "USPS COLLECTION BOX - BLUE BOX", "address": {"city": "ARANSAS PASS", "state": "TX", "street": "634 S COMMERCIAL ST", "postcode": "78336"}}},
{"geometry": {"type": "Point", "coordinates": [-97.1478082954, 27.8999118796]}, "type": "Feature", "properties": {"collection_times": [{"days": "Mon-Fri", "time": "4:00pm"}, {"days": "Sat", "time": "1:00pm"}, {"days": "Sun", "time": "Closed"}], "id": "7833600014", "name": "USPS COLLECTION BOX - PO LOBBY", "address": {"city": "ARANSAS PASS", "state": "TX", "street": "634 S COMMERCIAL ST", "postcode": "78336"}}},
{"geometry": {"type": "Point", "coordinates": [-97.1478082954, 27.8999118796]}, "type": "Feature", "properties": {"collection_times": [{"days": "Mon-Fri", "time": "4:00pm"}, {"days": "Sat", "time": "1:00pm"}, {"days": "Sun", "time": "Closed"}], "id": "7833600016", "name": "USPS COLLECTION BOX - PO LOBBY", "address": {"city": "ARANSAS PASS", "state": "TX", "street": "634 S COMMERCIAL ST", "postcode": "78336"}}},
{"geometry": {"type": "Point", "coordinates": [-97.1478082954, 27.8999118796]}, "type": "Feature", "properties": {"collection_times": [{"days": "Mon-Fri", "time": "4:00pm"}, {"days": "Sat", "time": "1:00pm"}, {"days": "Sun", "time": "Closed"}], "id": "7833600017", "name": "USPS COLLECTION BOX - PO LOBBY", "address": {"city": "ARANSAS PASS", "state": "TX", "street": "634 S COMMERCIAL ST", "postcode": "78336"}}},
{"geometry": {"type": "Point", "coordinates": [-97.1747153321, 27.9234359828]}, "type": "Feature", "properties": {"collection_times": [{"days": "Mon-Sat", "time": "12:00pm"}, {"days": "Sun", "time": "Closed"}], "id": "7833600019", "name": "USPS COLLECTION BOX - BLUE BOX", "address": {"city": "ARANSAS PASS", "state": "TX", "street": "2501 W WHEELER AVE", "postcode": "78336"}}},
{"geometry": {"type": "Point", "coordinates": [-97.794761425, 27.8082556525]}, "type": "Feature", "properties": {"collection_times": [{"days": "Mon-Sat", "time": "6:15pm"}, {"days": "Sun", "time": "Closed"}], "id": "7833900000", "name": "USPS COLLECTION BOX - BLUE BOX", "address": {"city": "BANQUETE", "state": "TX", "street": "4376 ELIA ST", "postcode": "78339"}}},
{"geometry": {"type": "Point", "coordinates": [-97.794761425, 27.8082556525]}, "type": "Feature", "properties": {"collection_times": [{"days": "Mon-Fri", "time": "3:00pm"}, {"days": "Sat", "time": "10:00am"}, {"days": "Sun", "time": "Closed"}], "id": "7833900001", "name": "USPS COLLECTION BOX - PO LOBBY", "address": {"city": "BANQUETE", "state": "TX", "street": "4376 ELIA ST", "postcode": "78339"}}},
{"geometry": {"type": "Point", "coordinates": [-97.2269319077, 28.1058220239]}, "type": "Feature", "properties": {"collection_times": [{"days": "Mon-Sat", "time": "10:30am"}, {"days": "Sun", "time": "Closed"}], "id": "7834000000", "name": "USPS COLLECTION BOX - BLUE BOX", "address": {"city": "BAYSIDE", "state": "TX", "street": "715 THIRD ST", "postcode": "78340"}}},
{"geometry": {"type": "Point", "coordinates": [-97.2269319077, 28.1058220239]}, "type": "Feature", "properties": {"collection_times": [{"days": "Mon-Sat", "time": "10:30am"}, {"days": "Sun", "time": "Closed"}], "id": "7834000001", "name": "USPS COLLECTION BOX - PO LOBBY", "address": {"city": "BAYSIDE", "state": "TX", "street": "715 THIRD ST", "postcode": "78340"}}},
{"geometry": {"type": "Point", "coordinates": [-98.4102896815, 27.5985148598]}, "type": "Feature", "properties": {"collection_times": [{"days": "Mon-Sat", "time": "5:00pm"}, {"days": "Sun", "time": "Closed"}], "id": "7834100000", "name": "USPS COLLECTION BOX - BLUE BOX", "address": {"city": "BENAVIDES", "state": "TX", "street": "404 E MAIN", "postcode": "78341"}}},
{"geometry": {"type": "Point", "coordinates": [-98.4102896815, 27.5985148598]}, "type": "Feature", "properties": {"collection_times": [{"days": "Mon-Fri", "time": "4:30pm"}, {"days": "Sat", "time": "9:30am"}, {"days": "Sun", "time": "Closed"}], "id": "7834100001", "name": "USPS COLLECTION BOX - PO LOBBY", "address": {"city": "BENAVIDES", "state": "TX", "street": "404 E MAIN", "postcode": "78341"}}},
{"geometry": {"type": "Point", "coordinates": [-98.0812570396, 27.647522244]}, "type": "Feature", "properties": {"collection_times": [{"days": "Mon-Fri", "time": "3:30pm"}, {"days": "Sat", "time": "12:30pm"}, {"days": "Sun", "time": "Closed"}], "id": "7834200001", "name": "USPS COLLECTION BOX - BLUE BOX", "address": {"city": "BEN BOLT", "state": "TX", "street": "307 SALAZAR AVE", "postcode": "78342"}}},
{"geometry": {"type": "Point", "coordinates": [-97.8004953382, 27.5838154466]}, "type": "Feature", "properties": {"collection_times": [{"days": "Mon-Fri", "time": "6:00pm"}, {"days": "Sat", "time": "5:00pm"}, {"days": "Sun", "time": "Closed"}], "id": "7834300000", "name": "USPS COLLECTION BOX - BLUE BOX", "address": {"city": "BISHOP", "state": "TX", "street": "201 S ASH AVE", "postcode": "78343"}}},
{"geometry": {"type": "Point", "coordinates": [-97.8004953382, 27.5838154466]}, "type": "Feature", "properties": {"collection_times": [{"days": "Mon-Fri", "time": "3:30pm"}, {"days": "Sat", "time": "12:00pm"}, {"days": "Sun", "time": "Closed"}], "id": "7834300002", "name": "USPS COLLECTION BOX - PO LOBBY", "address": {"city": "BISHOP", "state": "TX", "street": "201 S ASH AVE", "postcode": "78343"}}},
{"geometry": {"type": "Point", "coordinates": [-98.8685978414, 27.4345067887]}, "type": "Feature", "properties": {"collection_times": [{"days": "Mon-Sat", "time": "3:00pm"}, {"days": "Sun", "time": "Closed"}], "id": "7834400001", "name": "USPS COLLECTION BOX - BLUE BOX", "address": {"city": "BRUNI", "state": "TX", "street": "204 E 3RD ST", "postcode": "78344"}}},
{"geometry": {"type": "Point", "coordinates": [-98.8685978414, 27.4345067887]}, "type": "Feature", "properties": {"collection_times": [{"days": "Mon-Fri", "time": "1:00pm"}, {"days": "Sat", "time": "10:00am"}, {"days": "Sun", "time": "Closed"}], "id": "7834400002", "name": "USPS COLLECTION BOX - PO LOBBY", "address": {"city": "BRUNI", "state": "TX", "street": "204 E 3RD ST", "postcode": "78344"}}},
{"geometry": {"type": "Point", "coordinates": [-98.4012629602, 27.4030085939]}, "type": "Feature", "properties": {"collection_times": [{"days": "Mon-Sat", "time": "10:30am"}, {"days": "Sun", "time": "Closed"}], "id": "7834900000", "name": "USPS COLLECTION BOX - BLUE BOX", "address": {"city": "CONCEPCION", "state": "TX", "street": "2239 FM 716", "postcode": "78349"}}},
{"geometry": {"type": "Point", "coordinates": [-98.4012629602, 27.4030085939]}, "type": "Feature", "properties": {"collection_times": [{"days": "Mon-Sat", "time": "10:30am"}, {"days": "Sun", "time": "Closed"}], "id": "7834900001", "name": "USPS COLLECTION BOX - PO LOBBY", "address": {"city": "CONCEPCION", "state": "TX", "street": "2239 FM 716", "postcode": "78349"}}},
{"geometry": {"type": "Point", "coordinates": [-97.7482321366, 27.6744731149]}, "type": "Feature", "properties": {"collection_times": [{"days": "Mon-Fri", "time": "11:30am"}, {"days": "Sat", "time": "9:45am"}, {"days": "Sun", "time": "Closed"}], "id": "7835100000", "name": "USPS COLLECTION BOX - PO LOBBY", "address": {"city": "DRISCOLL", "state": "TX", "street": "201 W MAIN", "postcode": "78351"}}},
{"geometry": {"type": "Point", "coordinates": [-97.7482321366, 27.6744731149]}, "type": "Feature", "properties": {"collection_times": [{"days": "Mon-Fri", "time": "6:00pm"}, {"days": "Sat", "time": "5:00pm"}, {"days": "Sun", "time": "Closed"}], "id": "7835100001", "name": "USPS COLLECTION BOX - BLUE BOX", "address": {"city": "DRISCOLL", "state": "TX", "street": "201 W MAIN", "postcode": "78351"}}},
{"geometry": {"type": "Point", "coordinates": [-97.6768732094, 27.9735824589]}, "type": "Feature", "properties": {"collection_times": [{"days": "Mon-Fri", "time": "5:45pm"}, {"days": "Sat", "time": "3:45pm"}, {"days": "Sun", "time": "Closed"}], "id": "7835200000", "name": "USPS COLLECTION BOX - BLUE BOX", "address": {"city": "EDROY", "state": "TX", "street": "17916 HIGHWAY 234", "postcode": "78352"}}},
{"geometry": {"type": "Point", "coordinates": [-97.6768732094, 27.9735824589]}, "type": "Feature", "properties": {"collection_times": [{"days": "Mon-Fri", "time": "12:00pm"}, {"days": "Sat", "time": "9:00am"}, {"days": "Sun", "time": "Closed"}], "id": "7835200001", "name": "USPS COLLECTION BOX - PO LOBBY", "address": {"city": "EDROY", "state": "TX", "street": "17916 HIGHWAY 234", "postcode": "78352"}}},
{"geometry": {"type": "Point", "coordinates": [-98.2119820478, 26.9826630558]}, "type": "Feature", "properties": {"collection_times": [{"days": "Mon-Fri", "time": "4:00pm"}, {"days": "Sat", "time": "3:00pm"}, {"days": "Sun", "time": "Closed"}], "id": "7835300000", "name": "USPS COLLECTION BOX - BLUE BOX", "address": {"city": "ENCINO", "state": "TX", "street": "291 S BUSINESS HIGHWAY 281", "postcode": "78353"}}},
{"geometry": {"type": "Point", "coordinates": [-98.2119820478, 26.9826630558]}, "type": "Feature", "properties": {"collection_times": [{"days": "Mon-Fri", "time": "11:45am"}, {"days": "Sat", "time": "9:45am"}, {"days": "Sun", "time": "Closed"}], "id": "7835300001", "name": "USPS COLLECTION BOX - PO LOBBY", "address": {"city": "ENCINO", "state": "TX", "street": "291 S BUSINESS HIGHWAY 281", "postcode": "78353"}}},
{"geometry": {"type": "Point", "coordinates": [-98.1423452294, 27.2277337489]}, "type": "Feature", "properties": {"collection_times": [{"days": "Mon-Fri", "time": "4:15pm"}, {"days": "Sat", "time": "3:30pm"}, {"days": "Sun", "time": "Closed"}], "id": "7835500000", "name": "USPS COLLECTION BOX - BLUE BOX", "address": {"city": "FALFURRIAS", "state": "TX", "street": "218 E CHAPOTE ST", "postcode": "78355"}}},
{"geometry": {"type": "Point", "coordinates": [-98.1423452294, 27.2277337489]}, "type": "Feature", "properties": {"collection_times": [{"days": "Mon-Fri", "time": "4:15pm"}, {"days": "Sat", "time": "3:30pm"}, {"days": "Sun", "time": "Closed"}], "id": "7835500001", "name": "USPS COLLECTION BOX - BLUE BOX", "address": {"city": "FALFURRIAS", "state": "TX", "street": "218 E CHAPOTE ST", "postcode": "78355"}}},
{"geometry": {"type": "Point", "coordinates": [-98.1423452294, 27.2277337489]}, "type": "Feature", "properties": {"collection_times": [{"days": "Mon-Fri", "time": "4:15pm"}, {"days": "Sat", "time": "1:00pm"}, {"days": "Sun", "time": "Closed"}], "id": "7835500005", "name": "USPS COLLECTION BOX - PO LOBBY", "address": {"city": "FALFURRIAS", "state": "TX", "street": "218 E CHAPOTE ST", "postcode": "78355"}}},
{"geometry": {"type": "Point", "coordinates": [-98.1423452294, 27.2277337489]}, "type": "Feature", "properties": {"collection_times": [{"days": "Mon-Fri", "time": "4:15pm"}, {"days": "Sat", "time": "1:00pm"}, {"days": "Sun", "time": "Closed"}], "id": "7835500006", "name": "USPS COLLECTION BOX - PO LOBBY", "address": {"city": "FALFURRIAS", "state": "TX", "street": "218 E CHAPOTE ST", "postcode": "78355"}}},
{"geometry": {"type": "Point", "coordinates": [-98.6357382817, 27.9022945709]}, "type": "Feature", "properties": {"collection_times": [{"days": "Mon-Fri", "time": "4:30pm"}, {"days": "Sat", "time": "11:00am"}, {"days": "Sun", "time": "Closed"}], "id": "7835700000", "name": "USPS COLLECTION BOX - BLUE BOX", "address": {"city": "FREER", "state": "TX", "street": "320 S MAIN ST", "postcode": "78357"}}},
{"geometry": {"type": "Point", "coordinates": [-98.6357382817, 27.9022945709]}, "type": "Feature", "properties": {"collection_times": [{"days": "Mon-Fri", "time": "4:30pm"}, {"days": "Sat-Sun", "time": "Closed"}], "id": "7835700004", "name": "USPS COLLECTION BOX - PO LOBBY", "address": {"city": "FREER", "state": "TX", "street": "320 S MAIN ST", "postcode": "78357"}}},
{"geometry": {"type": "Point", "coordinates": [-97.0364676473, 28.0629106886]}, "type": "Feature", "properties": {"collection_times": [{"days": "Mon-Fri", "time": "5:00pm"}, {"days": "Sat", "time": "4:30pm"}, {"days": "Sun", "time": "Closed"}], "id": "7835800000", "name": "USPS COLLECTION BOX - BLUE BOX", "address": {"city": "FULTON", "state": "TX", "street": "301 CACTUS ST", "postcode": "78358"}}},
{"geometry": {"type": "Point", "coordinates": [-97.0364676473, 28.0629106886]}, "type": "Feature", "properties": {"collection_times": [{"days": "Mon-Fri", "time": "4:30pm"}, {"days": "Sat", "time": "10:00am"}, {"days": "Sun", "time": "Closed"}], "id": "7835800001", "name": "USPS COLLECTION BOX - PO LOBBY", "address": {"city": "FULTON", "state": "TX", "street": "301 CACTUS ST", "postcode": "78358"}}},
{"geometry": {"type": "Point", "coordinates": [-97.0364676473, 28.0629106886]}, "type": "Feature", "properties": {"collection_times": [{"days": "Mon-Fri", "time": "5:00pm"}, {"days": "Sat", "time": "4:30pm"}, {"days": "Sun", "time": "Closed"}], "id": "7835800002", "name": "USPS COLLECTION BOX - BLUE BOX", "address": {"city": "FULTON", "state": "TX", "street": "301 CACTUS ST", "postcode": "78358"}}},
{"geometry": {"type": "Point", "coordinates": [-97.2902823736, 27.922400742]}, "type": "Feature", "properties": {"collection_times": [{"days": "Mon-Sat", "time": "4:45pm"}, {"days": "Sun", "time": "Closed"}], "id": "7835900000", "name": "USPS COLLECTION BOX - BLUE BOX", "address": {"city": "GREGORY", "state": "TX", "street": "102 W 4TH ST", "postcode": "78359"}}},
{"geometry": {"type": "Point", "coordinates": [-97.2902823736, 27.922400742]}, "type": "Feature", "properties": {"collection_times": [{"days": "Mon-Fri", "time": "4:45pm"}, {"days": "Sat", "time": "10:30am"}, {"days": "Sun", "time": "Closed"}], "id": "7835900002", "name": "USPS COLLECTION BOX - PO LOBBY", "address": {"city": "GREGORY", "state": "TX", "street": "102 W 4TH ST", "postcode": "78359"}}},
{"geometry": {"type": "Point", "coordinates": [-98.6780575511, 27.310669005]}, "type": "Feature", "properties": {"collection_times": [{"days": "Mon-Sat", "time": "4:15pm"}, {"days": "Sun", "time": "Closed"}], "id": "7836100000", "name": "USPS COLLECTION BOX - BLUE BOX", "address": {"city": "HEBBRONVILLE", "state": "TX", "street": "502 N SMITH AVE", "postcode": "78361"}}},
{"geometry": {"type": "Point", "coordinates": [-98.6780575511, 27.310669005]}, "type": "Feature", "properties": {"collection_times": [{"days": "Mon-Sat", "time": "4:15pm"}, {"days": "Sun", "time": "Closed"}], "id": "7836100002", "name": "USPS COLLECTION BOX - BLUE BOX", "address": {"city": "HEBBRONVILLE", "state": "TX", "street": "502 N SMITH AVE", "postcode": "78361"}}},
{"geometry": {"type": "Point", "coordinates": [-98.6780575511, 27.310669005]}, "type": "Feature", "properties": {"collection_times": [{"days": "Mon-Sat", "time": "4:15pm"}, {"days": "Sun", "time": "Closed"}], "id": "7836100004", "name": "USPS COLLECTION BOX - PO LOBBY", "address": {"city": "HEBBRONVILLE", "state": "TX", "street": "502 N SMITH AVE", "postcode": "78361"}}},
{"geometry": {"type": "Point", "coordinates": [-97.1991112083, 27.8766211397]}, "type": "Feature", "properties": {"collection_times": [{"days": "Mon-Fri", "time": "5:30pm"}, {"days": "Sat", "time": "5:15pm"}, {"days": "Sun", "time": "Closed"}], "id": "7836200001", "name": "USPS COLLECTION BOX - BLUE BOX", "address": {"city": "INGLESIDE", "state": "TX", "street": "2230 STATE HIGHWAY 361", "postcode": "78362"}}},
{"geometry": {"type": "Point", "coordinates": [-97.1991112083, 27.8766211397]}, "type": "Feature", "properties": {"collection_times": [{"days": "Mon-Fri", "time": "5:30pm"}, {"days": "Sat", "time": "5:15pm"}, {"days": "Sun", "time": "Closed"}], "id": "7836200002", "name": "USPS COLLECTION BOX - BLUE BOX", "address": {"city": "INGLESIDE", "state": "TX", "street": "2230 STATE HIGHWAY 361", "postcode": "78362"}}},
{"geometry": {"type": "Point", "coordinates": [-97.1991112083, 27.8766211397]}, "type": "Feature", "properties": {"collection_times": [{"days": "Mon-Fri", "time": "4:15pm"}, {"days": "Sat", "time": "12:00pm"}, {"days": "Sun", "time": "Closed"}], "id": "7836200003", "name": "USPS COLLECTION BOX - PO LOBBY", "address": {"city": "INGLESIDE", "state": "TX", "street": "2230 STATE HIGHWAY 361", "postcode": "78362"}}},
{"geometry": {"type": "Point", "coordinates": [-97.8524283989, 27.4913287282]}, "type": "Feature", "properties": {"collection_times": [{"days": "Mon-Sat", "time": "1:15pm"}, {"days": "Sun", "time": "Closed"}], "id": "7836300000", "name": "USPS COLLECTION BOX - BLUE BOX", "address": {"city": "KINGSVILLE", "state": "TX", "street": "1311 GENERAL CAVAZOS BLVD", "postcode": "78363"}}},
{"geometry": {"type": "Point", "coordinates": [-97.869161253, 27.5165059158]}, "type": "Feature", "properties": {"collection_times": [{"days": "Mon-Fri", "time": "5:00pm"}, {"days": "Sat", "time": "4:45pm"}, {"days": "Sun", "time": "Closed"}], "id": "7836300008", "name": "USPS COLLECTION BOX - BLUE BOX", "address": {"city": "KINGSVILLE", "state": "TX", "street": "103 E KLEBERG AVE", "postcode": "78363"}}},
{"geometry": {"type": "Point", "coordinates": [-97.869161253, 27.5165059158]}, "type": "Feature", "properties": {"collection_times": [{"days": "Mon-Fri", "time": "5:00pm"}, {"days": "Sat", "time": "3:00pm"}, {"days": "Sun", "time": "Closed"}], "id": "7836300009", "name": "USPS COLLECTION BOX - BLUE BOX", "address": {"city": "KINGSVILLE", "state": "TX", "street": "103 E KLEBERG AVE", "postcode": "78363"}}},
{"geometry": {"type": "Point", "coordinates": [-97.8645677355, 27.5165622001]}, "type": "Feature", "properties": {"collection_times": [{"days": "Mon-Sat", "time": "1:00pm"}, {"days": "Sun", "time": "Closed"}], "id": "7836300010", "name": "USPS COLLECTION BOX - BLUE BOX", "address": {"city": "KINGSVILLE", "state": "TX", "street": "409 E KLEBERG AVE", "postcode": "78363"}}},
{"geometry": {"type": "Point", "coordinates": [-97.8603871446, 27.5171910725]}, "type": "Feature", "properties": {"collection_times": [{"days": "Mon-Sat", "time": "1:00pm"}, {"days": "Sun", "time": "Closed"}], "id": "7836300011", "name": "USPS COLLECTION BOX - BLUE BOX", "address": {"city": "KINGSVILLE", "state": "TX", "street": "700 E KLEBERG AVE", "postcode": "78363"}}},
{"geometry": {"type": "Point", "coordinates": [-97.869161253, 27.5165059158]}, "type": "Feature", "properties": {"collection_times": [{"days": "Mon-Fri", "time": "5:00pm"}, {"days": "Sat", "time": "3:00pm"}, {"days": "Sun", "time": "Closed"}], "id": "7836300029", "name": "USPS COLLECTION BOX - PO LOBBY", "address": {"city": "KINGSVILLE", "state": "TX", "street": "103 E KLEBERG AVE", "postcode": "78363"}}},
{"geometry": {"type": "Point", "coordinates": [-97.869161253, 27.5165059158]}, "type": "Feature", "properties": {"collection_times": [{"days": "Mon-Fri", "time": "5:00pm"}, {"days": "Sat", "time": "3:00pm"}, {"days": "Sun", "time": "Closed"}], "id": "7836300030", "name": "USPS COLLECTION BOX - PO LOBBY", "address": {"city": "KINGSVILLE", "state": "TX", "street": "103 E KLEBERG AVE", "postcode": "78363"}}},
{"geometry": {"type": "Point", "coordinates": [-97.8542265274, 27.4913061102]}, "type": "Feature", "properties": {"collection_times": [{"days": "Mon-Sat", "time": "1:15pm"}, {"days": "Sun", "time": "Closed"}], "id": "7836300033", "name": "USPS COLLECTION BOX - BLUE BOX", "address": {"city": "KINGSVILLE", "state": "TX", "street": "1133 GENERAL CAVAZOS BLVD", "postcode": "78363"}}},
{"geometry": {"type": "Point", "coordinates": [-97.819633976, 27.4953635578]}, "type": "Feature", "properties": {"collection_times": [{"days": "Mon-Fri", "time": "1:15pm"}, {"days": "Sat-Sun", "time": "Closed"}], "id": "7836300036", "name": "USPS COLLECTION BOX - BLUE BOX", "address": {"city": "KINGSVILLE", "state": "TX", "street": "554 MCCAIN ST", "postcode": "78363"}}},
{"geometry": {"type": "Point", "coordinates": [-97.8764743196, 27.5226122324]}, "type": "Feature", "properties": {"collection_times": [{"days": "Mon-Sat", "time": "1:00pm"}, {"days": "Sun", "time": "Closed"}], "id": "7836300039", "name": "USPS COLLECTION BOX - BLUE BOX", "address": {"city": "KINGSVILLE", "state": "TX", "street": "702 W SANTA GERTRUDIS ST", "postcode": "78363"}}},
{"geometry": {"type": "Point", "coordinates": [-97.8559495566, 27.4959925689]}, "type": "Feature", "properties": {"collection_times": [{"days": "Mon-Sat", "time": "1:15pm"}, {"days": "Sun", "time": "Closed"}], "id": "7836300040", "name": "USPS COLLECTION BOX - BLUE BOX", "address": {"city": "KINGSVILLE", "state": "TX", "street": "2215 S BRAHMA BLVD", "postcode": "78363"}}},
{"geometry": {"type": "Point", "coordinates": [-97.8481898508, 27.5158085605]}, "type": "Feature", "properties": {"collection_times": [{"days": "Mon-Sat", "time": "1:00pm"}, {"days": "Sun", "time": "Closed"}], "id": "7836300042", "name": "USPS COLLECTION BOX - BLUE BOX", "address": {"city": "KINGSVILLE", "state": "TX", "street": "1500 E KING AVE", "postcode": "78363"}}},
{"geometry": {"type": "Point", "coordinates": [-97.8234675216, 28.0906337544]}, "type": "Feature", "properties": {"collection_times": [{"days": "Mon-Fri", "time": "1:30pm"}, {"days": "Sat", "time": "12:00pm"}, {"days": "Sun", "time": "Closed"}], "id": "7836800001", "name": "USPS COLLECTION BOX - BLUE BOX", "address": {"city": "MATHIS", "state": "TX", "street": "601 E SAN PATRICIO AVE", "postcode": "78368"}}},
{"geometry": {"type": "Point", "coordinates": [-97.8238791913, 28.0991344975]}, "type": "Feature", "properties": {"collection_times": [{"days": "Mon-Fri", "time": "1:30pm"}, {"days": "Sat", "time": "12:00pm"}, {"days": "Sun", "time": "Closed"}], "id": "7836800002", "name": "USPS COLLECTION BOX - BLUE BOX", "address": {"city": "MATHIS", "state": "TX", "street": "703 N FRONT ST", "postcode": "78368"}}},
{"geometry": {"type": "Point", "coordinates": [-97.8272603839, 28.0931541082]}, "type": "Feature", "properties": {"collection_times": [{"days": "Mon-Fri", "time": "4:00pm"}, {"days": "Sat", "time": "10:00am"}, {"days": "Sun", "time": "Closed"}], "id": "7836800003", "name": "USPS COLLECTION BOX - PO LOBBY", "address": {"city": "MATHIS", "state": "TX", "street": "121 S BEE ST", "postcode": "78368"}}},
{"geometry": {"type": "Point", "coordinates": [-97.8272603839, 28.0931541082]}, "type": "Feature", "properties": {"collection_times": [{"days": "Mon-Fri", "time": "5:30pm"}, {"days": "Sat", "time": "3:30pm"}, {"days": "Sun", "time": "Closed"}], "id": "7836800004", "name": "USPS COLLECTION BOX - BLUE BOX", "address": {"city": "MATHIS", "state": "TX", "street": "121 S BEE ST", "postcode": "78368"}}},
{"geometry": {"type": "Point", "coordinates": [-97.8272603839, 28.0931541082]}, "type": "Feature", "properties": {"collection_times": [{"days": "Mon-Fri", "time": "5:30pm"}, {"days": "Sat", "time": "3:30pm"}, {"days": "Sun", "time": "Closed"}], "id": "7836800007", "name": "USPS COLLECTION BOX - BLUE BOX", "address": {"city": "MATHIS", "state": "TX", "street": "121 S BEE ST", "postcode": "78368"}}},
{"geometry": {"type": "Point", "coordinates": [-99.0009993198, 27.437370804]}, "type": "Feature", "properties": {"collection_times": [{"days": "Mon-Sat", "time": "3:00pm"}, {"days": "Sun", "time": "Closed"}], "id": "7836900000", "name": "USPS COLLECTION BOX - BLUE BOX", "address": {"city": "MIRANDO CITY", "state": "TX", "street": "103 N MAIN ST", "postcode": "78369"}}},
{"geometry": {"type": "Point", "coordinates": [-97.583059503, 27.9509511427]}, "type": "Feature", "properties": {"collection_times": [{"days": "Mon-Fri", "time": "6:00pm"}, {"days": "Sat", "time": "4:00pm"}, {"days": "Sun", "time": "Closed"}], "id": "7837000000", "name": "USPS COLLECTION BOX - BLUE BOX", "address": {"city": "ODEM", "state": "TX", "street": "223 MAIN ST", "postcode": "78370"}}},
{"geometry": {"type": "Point", "coordinates": [-97.583059503, 27.9509511427]}, "type": "Feature", "properties": {"collection_times": [{"days": "Mon-Fri", "time": "4:30pm"}, {"days": "Sat", "time": "10:00am"}, {"days": "Sun", "time": "Closed"}], "id": "7837000001", "name": "USPS COLLECTION BOX - PO LOBBY", "address": {"city": "ODEM", "state": "TX", "street": "223 MAIN ST", "postcode": "78370"}}},
{"geometry": {"type": "Point", "coordinates": [-97.583059503, 27.9509511427]}, "type": "Feature", "properties": {"collection_times": [{"days": "Mon-Fri", "time": "4:30pm"}, {"days": "Sat", "time": "10:00am"}, {"days": "Sun", "time": "Closed"}], "id": "7837000002", "name": "USPS COLLECTION BOX - PO LOBBY", "address": {"city": "ODEM", "state": "TX", "street": "223 MAIN ST", "postcode": "78370"}}},
{"geometry": {"type": "Point", "coordinates": [-98.9764183744, 27.466061003]}, "type": "Feature", "properties": {"collection_times": [{"days": "Mon-Sat", "time": "3:15pm"}, {"days": "Sun", "time": "Closed"}], "id": "7837100000", "name": "USPS COLLECTION BOX - BLUE BOX", "address": {"city": "OILTON", "state": "TX", "street": "118 W LAREDO AVE", "postcode": "78371"}}},
{"geometry": {"type": "Point", "coordinates": [-98.9764183744, 27.466061003]}, "type": "Feature", "properties": {"collection_times": [{"days": "Mon-Fri", "time": "11:45am"}, {"days": "Sat", "time": "10:45am"}, {"days": "Sun", "time": "Closed"}], "id": "7837100001", "name": "USPS COLLECTION BOX - PO LOBBY", "address": {"city": "OILTON", "state": "TX", "street": "118 W LAREDO AVE", "postcode": "78371"}}},
{"geometry": {"type": "Point", "coordinates": [-97.9390518184, 27.956621496]}, "type": "Feature", "properties": {"collection_times": [{"days": "Mon-Fri", "time": "5:00pm"}, {"days": "Sat", "time": "3:00pm"}, {"days": "Sun", "time": "Closed"}], "id": "7837200001", "name": "USPS COLLECTION BOX - BLUE BOX", "address": {"city": "ORANGE GROVE", "state": "TX", "street": "214 S EUGENIA ST", "postcode": "78372"}}},
{"geometry": {"type": "Point", "coordinates": [-97.9390518184, 27.956621496]}, "type": "Feature", "properties": {"collection_times": [{"days": "Mon-Fri", "time": "4:30pm"}, {"days": "Sat", "time": "10:15am"}, {"days": "Sun", "time": "Closed"}], "id": "7837200002", "name": "USPS COLLECTION BOX - PO LOBBY", "address": {"city": "ORANGE GROVE", "state": "TX", "street": "214 S EUGENIA ST", "postcode": "78372"}}},
{"geometry": {"type": "Point", "coordinates": [-97.0702703448, 27.8242182481]}, "type": "Feature", "properties": {"collection_times": [{"days": "Mon-Sat", "time": "4:30pm"}, {"days": "Sun", "time": "Closed"}], "id": "7837300000", "name": "USPS COLLECTION BOX - BLUE BOX", "address": {"city": "PORT ARANSAS", "state": "TX", "street": "1211 HIGHWAY 361", "postcode": "78373"}}},
{"geometry": {"type": "Point", "coordinates": [-97.0702703448, 27.8242182481]}, "type": "Feature", "properties": {"collection_times": [{"days": "Mon-Fri", "time": "4:00pm"}, {"days": "Sat", "time": "10:00am"}, {"days": "Sun", "time": "Closed"}], "id": "7837300003", "name": "USPS COLLECTION BOX - PO LOBBY", "address": {"city": "PORT ARANSAS", "state": "TX", "street": "1211 HIGHWAY 361", "postcode": "78373"}}},
{"geometry": {"type": "Point", "coordinates": [-97.0702703448, 27.8242182481]}, "type": "Feature", "properties": {"collection_times": [{"days": "Mon-Sat", "time": "4:30pm"}, {"days": "Sun", "time": "Closed"}], "id": "7837300006", "name": "USPS COLLECTION BOX - BLUE BOX", "address": {"city": "PORT ARANSAS", "state": "TX", "street": "1211 HIGHWAY 361", "postcode": "78373"}}},
{"geometry": {"type": "Point", "coordinates": [-97.0652617004, 27.8302366747]}, "type": "Feature", "properties": {"collection_times": [{"days": "Mon-Sat", "time": "4:30pm"}, {"days": "Sun", "time": "Closed"}], "id": "7837300007", "name": "USPS COLLECTION BOX - BLUE BOX", "address": {"city": "PORT ARANSAS", "state": "TX", "street": "416 S ALISTER ST", "postcode": "78373"}}},
{"geometry": {"type": "Point", "coordinates": [-97.0702703448, 27.8242182481]}, "type": "Feature", "properties": {"collection_times": [{"days": "Mon-Fri", "time": "4:00pm"}, {"days": "Sat", "time": "10:00am"}, {"days": "Sun", "time": "Closed"}], "id": "7837300008", "name": "USPS COLLECTION BOX - PO LOBBY", "address": {"city": "PORT ARANSAS", "state": "TX", "street": "1211 HIGHWAY 361", "postcode": "78373"}}},
{"geometry": {"type": "Point", "coordinates": [-97.3252118781, 27.8773962792]}, "type": "Feature", "properties": {"collection_times": [{"days": "Mon-Fri", "time": "3:30pm"}, {"days": "Sat", "time": "2:15pm"}, {"days": "Sun", "time": "Closed"}], "id": "7837400000", "name": "USPS COLLECTION BOX - BLUE BOX", "address": {"city": "PORTLAND", "state": "TX", "street": "609 8TH ST", "postcode": "78374"}}},
{"geometry": {"type": "Point", "coordinates": [-97.3266285423, 27.8784133606]}, "type": "Feature", "properties": {"collection_times": [{"days": "Mon-Fri", "time": "3:30pm"}, {"days": "Sat", "time": "2:15pm"}, {"days": "Sun", "time": "Closed"}], "id": "7837400001", "name": "USPS COLLECTION BOX - BLUE BOX", "address": {"city": "PORTLAND", "state": "TX", "street": "801 W BROADWAY ST", "postcode": "78374"}}},
{"geometry": {"type": "Point", "coordinates": [-97.3219432284, 27.8877833234]}, "type": "Feature", "properties": {"collection_times": [{"days": "Mon-Fri", "time": "5:30pm"}, {"days": "Sat", "time": "5:15pm"}, {"days": "Sun", "time": "Closed"}], "id": "7837400008", "name": "USPS COLLECTION BOX - BLUE BOX", "address": {"city": "PORTLAND", "state": "TX", "street": "120 LANG RD", "postcode": "78374"}}},
{"geometry": {"type": "Point", "coordinates": [-97.3192122138, 27.8786762635]}, "type": "Feature", "properties": {"collection_times": [{"days": "Mon-Fri", "time": "3:30pm"}, {"days": "Sat", "time": "2:15pm"}, {"days": "Sun", "time": "Closed"}], "id": "7837400012", "name": "USPS COLLECTION BOX - BLUE BOX", "address": {"city": "PORTLAND", "state": "TX", "street": "1001 WILDCAT DR", "postcode": "78374"}}},
{"geometry": {"type": "Point", "coordinates": [-97.3219432284, 27.8877833234]}, "type": "Feature", "properties": {"collection_times": [{"days": "Mon-Fri", "time": "3:45pm"}, {"days": "Sat", "time": "12:30pm"}, {"days": "Sun", "time": "Closed"}], "id": "7837400016", "name": "USPS COLLECTION BOX - PO LOBBY", "address": {"city": "PORTLAND", "state": "TX", "street": "120 LANG RD", "postcode": "78374"}}},
{"geometry": {"type": "Point", "coordinates": [-97.3219432284, 27.8877833234]}, "type": "Feature", "properties": {"collection_times": [{"days": "Mon-Fri", "time": "3:45pm"}, {"days": "Sat", "time": "12:30pm"}, {"days": "Sun", "time": "Closed"}], "id": "7837400017", "name": "USPS COLLECTION BOX - PO LOBBY", "address": {"city": "PORTLAND", "state": "TX", "street": "120 LANG RD", "postcode": "78374"}}},
{"geometry": {"type": "Point", "coordinates": [-97.2867426943, 27.938720657]}, "type": "Feature", "properties": {"collection_times": [{"days": "Mon-Fri", "time": "3:30pm"}, {"days": "Sat", "time": "2:15pm"}, {"days": "Sun", "time": "Closed"}], "id": "7837400020", "name": "USPS COLLECTION BOX - BLUE BOX", "address": {"city": "PORTLAND", "state": "TX", "street": "2000 US HIGHWAY 181", "postcode": "78374"}}},
{"geometry": {"type": "Point", "coordinates": [-98.1246823279, 27.3585222294]}, "type": "Feature", "properties": {"collection_times": [{"days": "Mon-Fri", "time": "4:30pm"}, {"days": "Sat", "time": "3:45pm"}, {"days": "Sun", "time": "Closed"}], "id": "7837500000", "name": "USPS COLLECTION BOX - BLUE BOX", "address": {"city": "PREMONT", "state": "TX", "street": "305 S AGNES", "postcode": "78375"}}},
{"geometry": {"type": "Point", "coordinates": [-98.1246823279, 27.3585222294]}, "type": "Feature", "properties": {"collection_times": [{"days": "Mon-Fri", "time": "4:30pm"}, {"days": "Sat", "time": "11:00am"}, {"days": "Sun", "time": "Closed"}], "id": "7837500001", "name": "USPS COLLECTION BOX - PO LOBBY", "address": {"city": "PREMONT", "state": "TX", "street": "305 S AGNES", "postcode": "78375"}}},
{"geometry": {"type": "Point", "coordinates": [-98.6389961418, 27.5170586602]}, "type": "Feature", "properties": {"collection_times": [{"days": "Mon-Sat", "time": "4:45pm"}, {"days": "Sun", "time": "Closed"}], "id": "7837600000", "name": "USPS COLLECTION BOX - BLUE BOX", "address": {"city": "REALITOS", "state": "TX", "street": "6417 HIGHWAY 359", "postcode": "78376"}}},
{"geometry": {"type": "Point", "coordinates": [-98.6389961418, 27.5170586602]}, "type": "Feature", "properties": {"collection_times": [{"days": "Mon-Fri", "time": "11:45am"}, {"days": "Sat", "time": "8:30am"}, {"days": "Sun", "time": "Closed"}], "id": "7837600001", "name": "USPS COLLECTION BOX - PO LOBBY", "address": {"city": "REALITOS", "state": "TX", "street": "6417 HIGHWAY 359", "postcode": "78376"}}},
{"geometry": {"type": "Point", "coordinates": [-97.2735493876, 28.3002631913]}, "type": "Feature", "properties": {"collection_times": [{"days": "Mon-Fri", "time": "4:30pm"}, {"days": "Sat", "time": "3:45pm"}, {"days": "Sun", "time": "Closed"}], "id": "7837700000", "name": "USPS COLLECTION BOX - BLUE BOX", "address": {"city": "REFUGIO", "state": "TX", "street": "507 OSAGE ST", "postcode": "78377"}}},
{"geometry": {"type": "Point", "coordinates": [-97.2735493876, 28.3002631913]}, "type": "Feature", "properties": {"collection_times": [{"days": "Mon-Fri", "time": "4:30pm"}, {"days": "Sat", "time": "3:45pm"}, {"days": "Sun", "time": "Closed"}], "id": "7837700003", "name": "USPS COLLECTION BOX - BLUE BOX", "address": {"city": "REFUGIO", "state": "TX", "street": "507 OSAGE ST", "postcode": "78377"}}},
{"geometry": {"type": "Point", "coordinates": [-97.2735493876, 28.3002631913]}, "type": "Feature", "properties": {"collection_times": [{"days": "Mon-Fri", "time": "4:30pm"}, {"days": "Sat", "time": "12:00pm"}, {"days": "Sun", "time": "Closed"}], "id": "7837700005", "name": "USPS COLLECTION BOX - PO LOBBY", "address": {"city": "REFUGIO", "state": "TX", "street": "507 OSAGE ST", "postcode": "78377"}}},
{"geometry": {"type": "Point", "coordinates": [-97.2735493876, 28.3002631913]}, "type": "Feature", "properties": {"collection_times": [{"days": "Mon-Fri", "time": "4:30pm"}, {"days": "Sat", "time": "12:00pm"}, {"days": "Sun", "time": "Closed"}], "id": "7837700006", "name": "USPS COLLECTION BOX - PO LOBBY", "address": {"city": "REFUGIO", "state": "TX", "street": "507 OSAGE ST", "postcode": "78377"}}},
{"geometry": {"type": "Point", "coordinates": [-97.8840591838, 27.3189245071]}, "type": "Feature", "properties": {"collection_times": [{"days": "Mon-Fri", "time": "4:30pm"}, {"days": "Sat", "time": "10:00am"}, {"days": "Sun", "time": "Closed"}], "id": "7837900000", "name": "USPS COLLECTION BOX - PO LOBBY", "address": {"city": "RIVIERA", "state": "TX", "street": "120 S 7TH ST", "postcode": "78379"}}},
{"geometry": {"type": "Point", "coordinates": [-97.8840591838, 27.3189245071]}, "type": "Feature", "properties": {"collection_times": [{"days": "Mon-Fri", "time": "4:30pm"}, {"days": "Sat", "time": "10:00am"}, {"days": "Sun", "time": "Closed"}], "id": "7837900001", "name": "USPS COLLECTION BOX - BLUE BOX", "address": {"city": "RIVIERA", "state": "TX", "street": "120 S 7TH ST", "postcode": "78379"}}},
{"geometry": {"type": "Point", "coordinates": [-97.6661273056, 27.7897927623]}, "type": "Feature", "properties": {"collection_times": [{"days": "Mon-Sat", "time": "5:00pm"}, {"days": "Sun", "time": "Closed"}], "id": "7838000006", "name": "USPS COLLECTION BOX - BLUE BOX", "address": {"city": "ROBSTOWN", "state": "TX", "street": "313 E MAIN AVE", "postcode": "78380"}}},
{"geometry": {"type": "Point", "coordinates": [-97.6661273056, 27.7897927623]}, "type": "Feature", "properties": {"collection_times": [{"days": "Mon-Fri", "time": "3:00pm"}, {"days": "Sat", "time": "12:00pm"}, {"days": "Sun", "time": "Closed"}], "id": "7838000010", "name": "USPS COLLECTION BOX - PO LOBBY", "address": {"city": "ROBSTOWN", "state": "TX", "street": "313 E MAIN AVE", "postcode": "78380"}}},
{"geometry": {"type": "Point", "coordinates": [-97.6661273056, 27.7897927623]}, "type": "Feature", "properties": {"collection_times": [{"days": "Mon-Fri", "time": "3:00pm"}, {"days": "Sat", "time": "12:00pm"}, {"days": "Sun", "time": "Closed"}], "id": "7838000011", "name": "USPS COLLECTION BOX - PO LOBBY", "address": {"city": "ROBSTOWN", "state": "TX", "street": "313 E MAIN AVE", "postcode": "78380"}}},
{"geometry": {"type": "Point", "coordinates": [-97.6661273056, 27.7897927623]}, "type": "Feature", "properties": {"collection_times": [{"days": "Mon-Sat", "time": "5:00pm"}, {"days": "Sun", "time": "Closed"}], "id": "7838000012", "name": "USPS COLLECTION BOX - BLUE BOX", "address": {"city": "ROBSTOWN", "state": "TX", "street": "313 E MAIN AVE", "postcode": "78380"}}},
{"geometry": {"type": "Point", "coordinates": [-97.6661273056, 27.7897927623]}, "type": "Feature", "properties": {"collection_times": [{"days": "Mon-Sat", "time": "5:00pm"}, {"days": "Sun", "time": "Closed"}], "id": "7838000013", "name": "USPS COLLECTION BOX - BLUE BOX", "address": {"city": "ROBSTOWN", "state": "TX", "street": "313 E MAIN AVE", "postcode": "78380"}}},
{"geometry": {"type": "Point", "coordinates": [-97.0425823047, 28.0379928402]}, "type": "Feature", "properties": {"collection_times": [{"days": "Mon-Sat", "time": "9:00am"}, {"days": "Sun", "time": "Closed"}], "id": "7838200000", "name": "USPS COLLECTION BOX - BLUE BOX", "address": {"city": "ROCKPORT", "state": "TX", "street": "1409 HIGHWAY 35 N", "postcode": "78382"}}},
{"geometry": {"type": "Point", "coordinates": [-97.0580945547, 28.0215487363]}, "type": "Feature", "properties": {"collection_times": [{"days": "Mon-Sat", "time": "2:00pm"}, {"days": "Sun", "time": "Closed"}], "id": "7838200002", "name": "USPS COLLECTION BOX - BLUE BOX", "address": {"city": "ROCKPORT", "state": "TX", "street": "622 E MARKET ST", "postcode": "78382"}}},
{"geometry": {"type": "Point", "coordinates": [-97.0563354611, 28.0380920709]}, "type": "Feature", "properties": {"collection_times": [{"days": "Mon-Fri", "time": "5:00pm"}, {"days": "Sat", "time": "4:15pm"}, {"days": "Sun", "time": "Closed"}], "id": "7838200003", "name": "USPS COLLECTION BOX - BLUE BOX", "address": {"city": "ROCKPORT", "state": "TX", "street": "1550 FM 2165", "postcode": "78382"}}},
{"geometry": {"type": "Point", "coordinates": [-96.874045851, 28.2410622869]}, "type": "Feature", "properties": {"collection_times": [{"days": "Mon-Sat", "time": "11:00am"}, {"days": "Sun", "time": "Closed"}], "id": "7838200005", "name": "USPS COLLECTION BOX - BLUE BOX", "address": {"city": "ROCKPORT", "state": "TX", "street": "100 HOLIDAY BLVD", "postcode": "78382"}}},
{"geometry": {"type": "Point", "coordinates": [-97.0563354611, 28.0380920709]}, "type": "Feature", "properties": {"collection_times": [{"days": "Mon-Fri", "time": "4:45pm"}, {"days": "Sat", "time": "4:00pm"}, {"days": "Sun", "time": "Closed"}], "id": "7838200008", "name": "USPS COLLECTION BOX - PO LOBBY", "address": {"city": "ROCKPORT", "state": "TX", "street": "1550 FM 2165", "postcode": "78382"}}},
{"geometry": {"type": "Point", "coordinates": [-97.0563354611, 28.0380920709]}, "type": "Feature", "properties": {"collection_times": [{"days": "Mon-Fri", "time": "4:45pm"}, {"days": "Sat", "time": "4:00pm"}, {"days": "Sun", "time": "Closed"}], "id": "7838200009", "name": "USPS COLLECTION BOX - PO LOBBY", "address": {"city": "ROCKPORT", "state": "TX", "street": "1550 FM 2165", "postcode": "78382"}}},
{"geometry": {"type": "Point", "coordinates": [-97.0338058633, 28.0565164693]}, "type": "Feature", "properties": {"collection_times": [{"days": "Mon-Sat", "time": "1:00pm"}, {"days": "Sun", "time": "Closed"}], "id": "7838200010", "name": "USPS COLLECTION BOX - BLUE BOX", "address": {"city": "ROCKPORT", "state": "TX", "street": "630 S FULTON BEACH RD", "postcode": "78382"}}},
{"geometry": {"type": "Point", "coordinates": [-97.0574870497, 28.0446809128]}, "type": "Feature", "properties": {"collection_times": [{"days": "Mon-Sat", "time": "2:00pm"}, {"days": "Sun", "time": "Closed"}], "id": "7838200011", "name": "USPS COLLECTION BOX - BLUE BOX", "address": {"city": "ROCKPORT", "state": "TX", "street": "2401 HIGHWAY 35 N", "postcode": "78382"}}},
{"geometry": {"type": "Point", "coordinates": [-96.874045851, 28.2410622869]}, "type": "Feature", "properties": {"collection_times": [{"days": "Mon-Sat", "time": "11:00am"}, {"days": "Sun", "time": "Closed"}], "id": "7838200014", "name": "USPS COLLECTION BOX - BLUE BOX", "address": {"city": "ROCKPORT", "state": "TX", "street": "100 HOLIDAY BLVD", "postcode": "78382"}}},
{"geometry": {"type": "Point", "coordinates": [-97.0563354611, 28.0380920709]}, "type": "Feature", "properties": {"collection_times": [{"days": "Mon-Fri", "time": "5:00pm"}, {"days": "Sat", "time": "4:15pm"}, {"days": "Sun", "time": "Closed"}], "id": "7838200015", "name": "USPS COLLECTION BOX - BLUE BOX", "address": {"city": "ROCKPORT", "state": "TX", "street": "1550 FM 2165", "postcode": "78382"}}},
{"geometry": {"type": "Point", "coordinates": [-97.8796205437, 28.022161389]}, "type": "Feature", "properties": {"collection_times": [{"days": "Mon-Fri", "time": "5:25pm"}, {"days": "Sat", "time": "4:10pm"}, {"days": "Sun", "time": "Closed"}], "id": "7838300001", "name": "USPS COLLECTION BOX - BLUE BOX", "address": {"city": "SANDIA", "state": "TX", "street": "12140 HIGHWAY 359", "postcode": "78383"}}},
{"geometry": {"type": "Point", "coordinates": [-97.8801111479, 28.0217486665]}, "type": "Feature", "properties": {"collection_times": [{"days": "Mon-Fri", "time": "2:00pm"}, {"days": "Sat", "time": "9:00am"}, {"days": "Sun", "time": "Closed"}], "id": "7838300002", "name": "USPS COLLECTION BOX - PO LOBBY", "address": {"city": "SANDIA", "state": "TX", "street": "12140 HIGHWAY 359", "postcode": "78383"}}},
{"geometry": {"type": "Point", "coordinates": [-98.2367825417, 27.76375756]}, "type": "Feature", "properties": {"collection_times": [{"days": "Mon-Fri", "time": "4:30pm"}, {"days": "Sat", "time": "11:30am"}, {"days": "Sun", "time": "Closed"}], "id": "7838400000", "name": "USPS COLLECTION BOX - PO LOBBY", "address": {"city": "SAN DIEGO", "state": "TX", "street": "111 N VICTORIA ST", "postcode": "78384"}}},
{"geometry": {"type": "Point", "coordinates": [-98.2367825417, 27.76375756]}, "type": "Feature", "properties": {"collection_times": [{"days": "Mon-Sat", "time": "5:30pm"}, {"days": "Sun", "time": "Closed"}], "id": "7838400001", "name": "USPS COLLECTION BOX - BLUE BOX", "address": {"city": "SAN DIEGO", "state": "TX", "street": "111 N VICTORIA ST", "postcode": "78384"}}},
{"geometry": {"type": "Point", "coordinates": [-98.2367825417, 27.76375756]}, "type": "Feature", "properties": {"collection_times": [{"days": "Mon-Sat", "time": "5:30pm"}, {"days": "Sun", "time": "Closed"}], "id": "7838400003", "name": "USPS COLLECTION BOX - BLUE BOX", "address": {"city": "SAN DIEGO", "state": "TX", "street": "111 N VICTORIA ST", "postcode": "78384"}}},
{"geometry": {"type": "Point", "coordinates": [-97.697758749, 27.1577009278]}, "type": "Feature", "properties": {"collection_times": [{"days": "Mon-Fri", "time": "4:00pm"}, {"days": "Sat", "time": "11:00am"}, {"days": "Sun", "time": "Closed"}], "id": "7838500000", "name": "USPS COLLECTION BOX - BLUE BOX", "address": {"city": "SARITA", "state": "TX", "street": "103 W MALLORY ST", "postcode": "78385"}}},
{"geometry": {"type": "Point", "coordinates": [-97.697758749, 27.1577009278]}, "type": "Feature", "properties": {"collection_times": [{"days": "Mon-Sat", "time": "11:30am"}, {"days": "Sun", "time": "Closed"}], "id": "7838500001", "name": "USPS COLLECTION BOX - PO LOBBY", "address": {"city": "SARITA", "state": "TX", "street": "103 W MALLORY ST", "postcode": "78385"}}},
{"geometry": {"type": "Point", "coordinates": [-97.5165801271, 28.0366214151]}, "type": "Feature", "properties": {"collection_times": [{"days": "Mon-Fri", "time": "5:45pm"}, {"days": "Sat", "time": "4:45pm"}, {"days": "Sun", "time": "Closed"}], "id": "7838700002", "name": "USPS COLLECTION BOX - BLUE BOX", "address": {"city": "SINTON", "state": "TX", "street": "104 S SAN PATRICIO ST", "postcode": "78387"}}},
{"geometry": {"type": "Point", "coordinates": [-97.5165801271, 28.0366214151]}, "type": "Feature", "properties": {"collection_times": [{"days": "Mon-Fri", "time": "5:45pm"}, {"days": "Sat", "time": "4:45pm"}, {"days": "Sun", "time": "Closed"}], "id": "7838700003", "name": "USPS COLLECTION BOX - BLUE BOX", "address": {"city": "SINTON", "state": "TX", "street": "104 S SAN PATRICIO ST", "postcode": "78387"}}},
{"geometry": {"type": "Point", "coordinates": [-97.5165801271, 28.0366214151]}, "type": "Feature", "properties": {"collection_times": [{"days": "Mon-Fri", "time": "4:15pm"}, {"days": "Sat", "time": "12:00pm"}, {"days": "Sun", "time": "Closed"}], "id": "7838700004", "name": "USPS COLLECTION BOX - PO LOBBY", "address": {"city": "SINTON", "state": "TX", "street": "104 S SAN PATRICIO ST", "postcode": "78387"}}},
{"geometry": {"type": "Point", "coordinates": [-97.5165801271, 28.0366214151]}, "type": "Feature", "properties": {"collection_times": [{"days": "Mon-Fri", "time": "4:15pm"}, {"days": "Sat", "time": "12:00pm"}, {"days": "Sun", "time": "Closed"}], "id": "7838700006", "name": "USPS COLLECTION BOX - PO LOBBY", "address": {"city": "SINTON", "state": "TX", "street": "104 S SAN PATRICIO ST", "postcode": "78387"}}},
{"geometry": {"type": "Point", "coordinates": [-97.5146309839, 28.0366588278]}, "type": "Feature", "properties": {"collection_times": [{"days": "Mon-Fri", "time": "3:00pm"}, {"days": "Sat", "time": "12:00pm"}, {"days": "Sun", "time": "Closed"}], "id": "7838700007", "name": "USPS COLLECTION BOX - BLUE BOX", "address": {"city": "SINTON", "state": "TX", "street": "400 W SINTON ST", "postcode": "78387"}}},
{"geometry": {"type": "Point", "coordinates": [-97.5146309839, 28.0366588278]}, "type": "Feature", "properties": {"collection_times": [{"days": "Mon-Fri", "time": "3:00pm"}, {"days": "Sat", "time": "12:00pm"}, {"days": "Sun", "time": "Closed"}], "id": "7838700009", "name": "USPS COLLECTION BOX - BLUE BOX", "address": {"city": "SINTON", "state": "TX", "street": "400 W SINTON ST", "postcode": "78387"}}},
{"geometry": {"type": "Point", "coordinates": [-97.6848649406, 28.2521121996]}, "type": "Feature", "properties": {"collection_times": [{"days": "Mon-Fri", "time": "4:00pm"}, {"days": "Sat", "time": "3:15pm"}, {"days": "Sun", "time": "Closed"}], "id": "7838900000", "name": "USPS COLLECTION BOX - BLUE BOX", "address": {"city": "SKIDMORE", "state": "TX", "street": "122 E PATRICIO ST", "postcode": "78389"}}},
{"geometry": {"type": "Point", "coordinates": [-97.6848649406, 28.2521121996]}, "type": "Feature", "properties": {"collection_times": [{"days": "Mon-Fri", "time": "2:30pm"}, {"days": "Sat", "time": "9:30am"}, {"days": "Sun", "time": "Closed"}], "id": "7838900001", "name": "USPS COLLECTION BOX - PO LOBBY", "address": {"city": "SKIDMORE", "state": "TX", "street": "122 E PATRICIO ST", "postcode": "78389"}}},
{"geometry": {"type": "Point", "coordinates": [-97.3966440974, 27.9788429492]}, "type": "Feature", "properties": {"collection_times": [{"days": "Mon-Fri", "time": "3:45pm"}, {"days": "Sat", "time": "10:45am"}, {"days": "Sun", "time": "Closed"}], "id": "7839000005", "name": "USPS COLLECTION BOX - PO LOBBY", "address": {"city": "TAFT", "state": "TX", "street": "110 VICTORIA AVE", "postcode": "78390"}}},
{"geometry": {"type": "Point", "coordinates": [-97.3966440974, 27.9788429492]}, "type": "Feature", "properties": {"collection_times": [{"days": "Mon-Fri", "time": "5:15pm"}, {"days": "Sat", "time": "4:45pm"}, {"days": "Sun", "time": "Closed"}], "id": "7839000007", "name": "USPS COLLECTION BOX - BLUE BOX", "address": {"city": "TAFT", "state": "TX", "street": "110 VICTORIA AVE", "postcode": "78390"}}},
{"geometry": {"type": "Point", "coordinates": [-97.7578906127, 28.1687436739]}, "type": "Feature", "properties": {"collection_times": [{"days": "Mon-Fri", "time": "11:30am"}, {"days": "Sat", "time": "9:00am"}, {"days": "Sun", "time": "Closed"}], "id": "7839100000", "name": "USPS COLLECTION BOX - PO LOBBY", "address": {"city": "TYNAN", "state": "TX", "street": "504 HIGHWAY 359", "postcode": "78391"}}},
{"geometry": {"type": "Point", "coordinates": [-97.7578906127, 28.1687436739]}, "type": "Feature", "properties": {"collection_times": [{"days": "Mon-Fri", "time": "4:30pm"}, {"days": "Sat", "time": "3:00pm"}, {"days": "Sun", "time": "Closed"}], "id": "7839100001", "name": "USPS COLLECTION BOX - BLUE BOX", "address": {"city": "TYNAN", "state": "TX", "street": "504 HIGHWAY 359", "postcode": "78391"}}},
{"geometry": {"type": "Point", "coordinates": [-97.3290688675, 28.2409164395]}, "type": "Feature", "properties": {"collection_times": [{"days": "Mon-Fri", "time": "4:00pm"}, {"days": "Sat", "time": "8:45am"}, {"days": "Sun", "time": "Closed"}], "id": "7839300000", "name": "USPS COLLECTION BOX - PO LOBBY", "address": {"city": "WOODSBORO", "state": "TX", "street": "501 FIRST ST", "postcode": "78393"}}},
{"geometry": {"type": "Point", "coordinates": [-97.3300434005, 28.2411188783]}, "type": "Feature", "properties": {"collection_times": [{"days": "Mon-Fri", "time": "5:00pm"}, {"days": "Sat", "time": "4:00pm"}, {"days": "Sun", "time": "Closed"}], "id": "7839300001", "name": "USPS COLLECTION BOX - BLUE BOX", "address": {"city": "WOODSBORO", "state": "TX", "street": "1 PUGH ST", "postcode": "78393"}}},
{"geometry": {"type": "Point", "coordinates": [-97.3290688675, 28.2409164395]}, "type": "Feature", "properties": {"collection_times": [{"days": "Mon-Fri", "time": "4:00pm"}, {"days": "Sat", "time": "8:45am"}, {"days": "Sun", "time": "Closed"}], "id": "7839300003", "name": "USPS COLLECTION BOX - PO LOBBY", "address": {"city": "WOODSBORO", "state": "TX", "street": "501 FIRST ST", "postcode": "78393"}}}
]}
