{"type": "FeatureCollection", "features": [
{"geometry": {"type": "Point", "coordinates": [-97.3996840169, 27.7962764436]}, "type": "Feature", "properties": {"collection_times": [{"days": "Mon-Fri", "time": "4:30pm"}, {"days": "Sat", "time": "1:00pm"}, {"days": "Sun", "time": "Closed"}], "id": "7840100000", "name": "USPS COLLECTION BOX - BLUE BOX", "address": {"city": "CORPUS CHRISTI", "state": "TX", "street": "901 LEOPARD ST", "postcode": "78401"}}},
{"geometry": {"type": "Point", "coordinates": [-97.3937826028, 27.7930633471]}, "type": "Feature", "properties": {"collection_times": [{"days": "Mon-Fri", "time": "3:45pm"}, {"days": "Sat", "time": "1:00pm"}, {"days": "Sun", "time": "Closed"}], "id": "7840100002", "name": "USPS COLLECTION BOX - BLUE BOX", "address": {"city": "CORPUS CHRISTI", "state": "TX", "street": "209 N WATER ST", "postcode": "78401"}}},
{"geometry": {"type": "Point", "coordinates": [-97.3929002124, 27.7967418432]}, "type": "Feature", "properties": {"collection_times": [{"days": "Mon-Fri", "time": "4:15pm"}, {"days": "Sat", "time": "1:00pm"}, {"days": "Sun", "time": "Closed"}], "id": "7840100003", "name": "USPS COLLECTION BOX - BLUE BOX", "address": {"city": "CORPUS CHRISTI", "state": "TX", "street": "317 PEOPLES ST", "postcode": "78401"}}},
{"geometry": {"type": "Point", "coordinates": [-97.3938566757, 27.7968632766]}, "type": "Feature", "properties": {"collection_times": [{"days": "Mon-Fri", "time": "4:15pm"}, {"days": "Sat", "time": "1:00pm"}, {"days": "Sun", "time": "Closed"}], "id": "7840100007", "name": "USPS COLLECTION BOX - BLUE BOX", "address": {"city": "CORPUS CHRISTI", "state": "TX", "street": "402 PEOPLES ST", "postcode": "78401"}}},
{"geometry": {"type": "Point", "coordinates": [-97.3948040347, 27.7858771689]}, "type": "Feature", "properties": {"collection_times": [{"days": "Mon-Fri", "time": "4:00pm"}, {"days": "Sat", "time": "1:00pm"}, {"days": "Sun", "time": "Closed"}], "id": "7840100012", "name": "USPS COLLECTION BOX - BLUE BOX", "address": {"city": "CORPUS CHRISTI", "state": "TX", "street": "719 S SHORELINE BLVD", "postcode": "78401"}}},
{"geometry": {"type": "Point", "coordinates": [-97.4036949209, 27.7877621352]}, "type": "Feature", "properties": {"collection_times": [{"days": "Mon-Fri", "time": "4:15pm"}, {"days": "Sat", "time": "1:00pm"}, {"days": "Sun", "time": "Closed"}], "id": "7840100016", "name": "USPS COLLECTION BOX - BLUE BOX", "address": {"city": "CORPUS CHRISTI", "state": "TX", "street": "1201 AGNES ST", "postcode": "78401"}}},
{"geometry": {"type": "Point", "coordinates": [-97.392122306, 27.8029042739]}, "type": "Feature", "properties": {"collection_times": [{"days": "Mon-Fri", "time": "4:45pm"}, {"days": "Sat", "time": "1:00pm"}, {"days": "Sun", "time": "Closed"}], "id": "7840100019", "name": "USPS COLLECTION BOX - BLUE BOX", "address": {"city": "CORPUS CHRISTI", "state": "TX", "street": "1201 N SHORELINE BLVD", "postcode": "78401"}}},
{"geometry": {"type": "Point", "coordinates": [-97.3963537135, 27.7974811656]}, "type": "Feature", "properties": {"collection_times": [{"days": "Mon-Fri", "time": "4:45pm"}, {"days": "Sat", "time": "1:00pm"}, {"days": "Sun", "time": "Closed"}], "id": "7840100022", "name": "USPS COLLECTION BOX - BLUE BOX", "address": {"city": "CORPUS CHRISTI", "state": "TX", "street": "723 N UPPER BROADWAY ST", "postcode": "78401"}}},
{"geometry": {"type": "Point", "coordinates": [-97.4030477799, 27.796448478]}, "type": "Feature", "properties": {"collection_times": [{"days": "Mon-Fri", "time": "4:30pm"}, {"days": "Sat", "time": "1:00pm"}, {"days": "Sun", "time": "Closed"}], "id": "7840100025", "name": "USPS COLLECTION BOX - BLUE BOX", "address": {"city": "CORPUS CHRISTI", "state": "TX", "street": "1200 LEOPARD ST", "postcode": "78401"}}},
{"geometry": {"type": "Point", "coordinates": [-97.3975377023, 27.7916136358]}, "type": "Feature", "properties": {"collection_times": [{"days": "Mon-Fri", "time": "5:00pm"}, {"days": "Sat", "time": "1:00pm"}, {"days": "Sun", "time": "Closed"}], "id": "7840100026", "name": "USPS COLLECTION BOX - BLUE BOX", "address": {"city": "CORPUS CHRISTI", "state": "TX", "street": "210 S CARANCAHUA ST", "postcode": "78401"}}},
{"geometry": {"type": "Point", "coordinates": [-97.3975377023, 27.7916136358]}, "type": "Feature", "properties": {"collection_times": [{"days": "Mon-Fri", "time": "5:00pm"}, {"days": "Sat", "time": "1:00pm"}, {"days": "Sun", "time": "Closed"}], "id": "7840100027", "name": "USPS COLLECTION BOX - BLUE BOX", "address": {"city": "CORPUS CHRISTI", "state": "TX", "street": "210 S CARANCAHUA ST", "postcode": "78401"}}},
{"geometry": {"type": "Point", "coordinates": [-97.3951883207, 27.7978756483]}, "type": "Feature", "properties": {"collection_times": [{"days": "Mon-Fri", "time": "4:15pm"}, {"days": "Sat", "time": "1:00pm"}, {"days": "Sun", "time": "Closed"}], "id": "7840100030", "name": "USPS COLLECTION BOX - BLUE BOX", "address": {"city": "CORPUS CHRISTI", "state": "TX", "street": "520 STARR ST", "postcode": "78401"}}},
{"geometry": {"type": "Point", "coordinates": [-97.3940560612, 27.8006245636]}, "type": "Feature", "properties": {"collection_times": [{"days": "Mon-Fri", "time": "4:45pm"}, {"days": "Sat", "time": "1:00pm"}, {"days": "Sun", "time": "Closed"}], "id": "7840100032", "name": "USPS COLLECTION BOX - BLUE BOX", "address": {"city": "CORPUS CHRISTI", "state": "TX", "street": "400 MANN ST", "postcode": "78401"}}},
{"geometry": {"type": "Point", "coordinates": [-97.3996840169, 27.7962764436]}, "type": "Feature", "properties": {"collection_times": [{"days": "Mon-Fri", "time": "4:30pm"}, {"days": "Sat", "time": "1:00pm"}, {"days": "Sun", "time": "Closed"}], "id": "7840100033", "name": "USPS COLLECTION BOX - BLUE BOX", "address": {"city": "CORPUS CHRISTI", "state": "TX", "street": "901 LEOPARD ST", "postcode": "78401"}}},
{"geometry": {"type": "Point", "coordinates": [-97.3973260147, 27.7973115669]}, "type": "Feature", "properties": {"collection_times": [{"days": "Mon-Fri", "time": "5:15pm"}, {"days": "Sat-Sun", "time": "Closed"}], "id": "7840100044", "name": "USPS COLLECTION BOX - BLUE BOX", "address": {"city": "CORPUS CHRISTI", "state": "TX", "street": "802 N CARANCAHUA ST", "postcode": "78401"}}},
{"geometry": {"type": "Point", "coordinates": [-97.3963642196, 27.7962577023]}, "type": "Feature", "properties": {"collection_times": [{"days": "Mon-Fri", "time": "5:15pm"}, {"days": "Sat-Sun", "time": "Closed"}], "id": "7840100047", "name": "USPS COLLECTION BOX - BLUE BOX", "address": {"city": "CORPUS CHRISTI", "state": "TX", "street": "600 LEOPARD ST", "postcode": "78401"}}},
{"geometry": {"type": "Point", "coordinates": [-97.3963642196, 27.7962577023]}, "type": "Feature", "properties": {"collection_times": [{"days": "Mon-Fri", "time": "5:15pm"}, {"days": "Sat-Sun", "time": "Closed"}], "id": "7840100048", "name": "USPS COLLECTION BOX - BLUE BOX", "address": {"city": "CORPUS CHRISTI", "state": "TX", "street": "600 LEOPARD ST", "postcode": "78401"}}},
{"geometry": {"type": "Point", "coordinates": [-97.3991935657, 27.7969319959]}, "type": "Feature", "properties": {"collection_times": [{"days": "Mon-Fri", "time": "5:15pm"}, {"days": "Sat-Sun", "time": "Closed"}], "id": "7840100049", "name": "USPS COLLECTION BOX - BLUE BOX", "address": {"city": "CORPUS CHRISTI", "state": "TX", "street": "545 N UPPER BROADWAY ST", "postcode": "78401"}}},
{"geometry": {"type": "Point", "coordinates": [-97.3940560612, 27.8006245636]}, "type": "Feature", "properties": {"collection_times": [{"days": "Mon-Fri", "time": "4:45pm"}, {"days": "Sat", "time": "1:00pm"}, {"days": "Sun", "time": "Closed"}], "id": "7840100054", "name": "USPS COLLECTION BOX - BLUE BOX", "address": {"city": "CORPUS CHRISTI", "state": "TX", "street": "400 MANN ST", "postcode": "78401"}}},
{"geometry": {"type": "Point", "coordinates": [-97.3930558922, 27.7914732078]}, "type": "Feature", "properties": {"collection_times": [{"days": "Mon-Fri", "time": "5:00pm"}, {"days": "Sat", "time": "1:00pm"}, {"days": "Sun", "time": "Closed"}], "id": "7840100055", "name": "USPS COLLECTION BOX - BLUE BOX", "address": {"city": "CORPUS CHRISTI", "state": "TX", "street": "101 N SHORELINE BLVD", "postcode": "78401"}}},
{"geometry": {"type": "Point", "coordinates": [-97.3984449837, 27.797341304]}, "type": "Feature", "properties": {"collection_times": [{"days": "Mon-Fri", "time": "5:00pm"}, {"days": "Sat-Sun", "time": "Closed"}], "id": "7840100058", "name": "USPS COLLECTION BOX - PO LOBBY", "address": {"city": "CORPUS CHRISTI", "state": "TX", "street": "802 N TANCAHUA ST", "postcode": "78401"}}},
{"geometry": {"type": "Point", "coordinates": [-97.3984449837, 27.797341304]}, "type": "Feature", "properties": {"collection_times": [{"days": "Mon-Fri", "time": "5:00pm"}, {"days": "Sat-Sun", "time": "Closed"}], "id": "7840100059", "name": "USPS COLLECTION BOX - PO LOBBY", "address": {"city": "CORPUS CHRISTI", "state": "TX", "street": "802 N TANCAHUA ST", "postcode": "78401"}}},
{"geometry": {"type": "Point", "coordinates": [-97.3984449837, 27.797341304]}, "type": "Feature", "properties": {"collection_times": [{"days": "Mon-Fri", "time": "5:15pm"}, {"days": "Sat", "time": "1:00pm"}, {"days": "Sun", "time": "Closed"}], "id": "7840100060", "name": "USPS COLLECTION BOX - BLUE BOX", "address": {"city": "CORPUS CHRISTI", "state": "TX", "street": "802 N TANCAHUA ST", "postcode": "78401"}}},
{"geometry": {"type": "Point", "coordinates": [-97.3984449837, 27.797341304]}, "type": "Feature", "properties": {"collection_times": [{"days": "Mon-Fri", "time": "5:15pm"}, {"days": "Sat", "time": "1:00pm"}, {"days": "Sun", "time": "Closed"}], "id": "7840100061", "name": "USPS COLLECTION BOX - BLUE BOX", "address": {"city": "CORPUS CHRISTI", "state": "TX", "street": "802 N TANCAHUA ST", "postcode": "78401"}}},
{"geometry": {"type": "Point", "coordinates": [-97.3975614454, 27.7872073439]}, "type": "Feature", "properties": {"collection_times": [{"days": "Mon-Fri", "time": "5:00pm"}, {"days": "Sat-Sun", "time": "Closed"}], "id": "7840100064", "name": "USPS COLLECTION BOX - BLUE BOX", "address": {"city": "CORPUS CHRISTI", "state": "TX", "street": "539 N CARANCAHUA ST", "postcode": "78401"}}},
{"geometry": {"type": "Point", "coordinates": [-97.3909029219, 27.8161599543]}, "type": "Feature", "properties": {"collection_times": [{"days": "Mon-Fri", "time": "3:30pm"}, {"days": "Sat", "time": "1:00pm"}, {"days": "Sun", "time": "Closed"}], "id": "7840200003", "name": "USPS COLLECTION BOX - BLUE BOX", "address": {"city": "CORPUS CHRISTI", "state": "TX", "street": "2914 N SHORELINE BLVD", "postcode": "78402"}}},
{"geometry": {"type": "Point", "coordinates": [-97.3986283657, 27.7746182066]}, "type": "Feature", "properties": {"collection_times": [{"days": "Mon-Fri", "time": "5:00pm"}, {"days": "Sat", "time": "1:15pm"}, {"days": "Sun", "time": "Closed"}], "id": "7840400000", "name": "USPS COLLECTION BOX - BLUE BOX", "address": {"city": "CORPUS CHRISTI", "state": "TX", "street": "902 AYERS ST", "postcode": "78404"}}},
{"geometry": {"type": "Point", "coordinates": [-97.3986283657, 27.7746182066]}, "type": "Feature", "properties": {"collection_times": [{"days": "Mon-Fri", "time": "5:00pm"}, {"days": "Sat", "time": "1:15pm"}, {"days": "Sun", "time": "Closed"}], "id": "7840400002", "name": "USPS COLLECTION BOX - BLUE BOX", "address": {"city": "CORPUS CHRISTI", "state": "TX", "street": "902 AYERS ST", "postcode": "78404"}}},
{"geometry": {"type": "Point", "coordinates": [-97.3952290424, 27.7774280935]}, "type": "Feature", "properties": {"collection_times": [{"days": "Mon-Fri", "time": "4:30pm"}, {"days": "Sat", "time": "1:00pm"}, {"days": "Sun", "time": "Closed"}], "id": "7840400015", "name": "USPS COLLECTION BOX - BLUE BOX", "address": {"city": "CORPUS CHRISTI", "state": "TX", "street": "613 ELIZABETH ST", "postcode": "78404"}}},
{"geometry": {"type": "Point", "coordinates": [-97.3991636983, 27.7742949948]}, "type": "Feature", "properties": {"collection_times": [{"days": "Mon-Fri", "time": "4:30pm"}, {"days": "Sat", "time": "1:15pm"}, {"days": "Sun", "time": "Closed"}], "id": "7840400024", "name": "USPS COLLECTION BOX - PO LOBBY", "address": {"city": "CORPUS CHRISTI", "state": "TX", "street": "902 AYERS ST", "postcode": "78404"}}},
{"geometry": {"type": "Point", "coordinates": [-97.3991636983, 27.7742949948]}, "type": "Feature", "properties": {"collection_times": [{"days": "Mon-Fri", "time": "4:30pm"}, {"days": "Sat", "time": "1:15pm"}, {"days": "Sun", "time": "Closed"}], "id": "7840400025", "name": "USPS COLLECTION BOX - PO LOBBY", "address": {"city": "CORPUS CHRISTI", "state": "TX", "street": "902 AYERS ST", "postcode": "78404"}}},
{"geometry": {"type": "Point", "coordinates": [-97.4659583, 27.7641310376]}, "type": "Feature", "properties": {"collection_times": [{"days": "Mon-Fri", "time": "5:00pm"}, {"days": "Sat", "time": "1:00pm"}, {"days": "Sun", "time": "Closed"}], "id": "7840500002", "name": "USPS COLLECTION BOX - BLUE BOX", "address": {"city": "CORPUS CHRISTI", "state": "TX", "street": "5541 BEAR LN", "postcode": "78405"}}},
{"geometry": {"type": "Point", "coordinates": [-97.4626647066, 27.7592795542]}, "type": "Feature", "properties": {"collection_times": [{"days": "Mon-Fri", "time": "5:00pm"}, {"days": "Sat", "time": "1:00pm"}, {"days": "Sun", "time": "Closed"}], "id": "7840500004", "name": "USPS COLLECTION BOX - BLUE BOX", "address": {"city": "CORPUS CHRISTI", "state": "TX", "street": "400 S PADRE ISLAND DR", "postcode": "78405"}}},
{"geometry": {"type": "Point", "coordinates": [-97.4603675827, 27.7558522379]}, "type": "Feature", "properties": {"collection_times": [{"days": "Mon-Fri", "time": "5:00pm"}, {"days": "Sat", "time": "1:00pm"}, {"days": "Sun", "time": "Closed"}], "id": "7840500005", "name": "USPS COLLECTION BOX - BLUE BOX", "address": {"city": "CORPUS CHRISTI", "state": "TX", "street": "597 S PADRE ISLAND DR", "postcode": "78405"}}},
{"geometry": {"type": "Point", "coordinates": [-97.4172311742, 27.7789688226]}, "type": "Feature", "properties": {"collection_times": [{"days": "Mon-Fri", "time": "4:30pm"}, {"days": "Sat", "time": "1:00pm"}, {"days": "Sun", "time": "Closed"}], "id": "7840500008", "name": "USPS COLLECTION BOX - BLUE BOX", "address": {"city": "CORPUS CHRISTI", "state": "TX", "street": "2601 HOSPITAL BLVD", "postcode": "78405"}}},
{"geometry": {"type": "Point", "coordinates": [-97.4203272112, 27.7771304538]}, "type": "Feature", "properties": {"collection_times": [{"days": "Mon-Fri", "time": "5:15pm"}, {"days": "Sat", "time": "1:00pm"}, {"days": "Sun", "time": "Closed"}], "id": "7840500014", "name": "USPS COLLECTION BOX - PO LOBBY", "address": {"city": "CORPUS CHRISTI", "state": "TX", "street": "1340 S PORT AVE", "postcode": "78405"}}},
{"geometry": {"type": "Point", "coordinates": [-97.4203272112, 27.7771304538]}, "type": "Feature", "properties": {"collection_times": [{"days": "Mon-Fri", "time": "5:15pm"}, {"days": "Sat", "time": "1:00pm"}, {"days": "Sun", "time": "Closed"}], "id": "7840500015", "name": "USPS COLLECTION BOX - BLUE BOX", "address": {"city": "CORPUS CHRISTI", "state": "TX", "street": "1340 S PORT AVE", "postcode": "78405"}}},
{"geometry": {"type": "Point", "coordinates": [-97.4203272112, 27.7771304538]}, "type": "Feature", "properties": {"collection_times": [{"days": "Mon-Fri", "time": "5:15pm"}, {"days": "Sat", "time": "1:00pm"}, {"days": "Sun", "time": "Closed"}], "id": "7840500016", "name": "USPS COLLECTION BOX - BLUE BOX", "address": {"city": "CORPUS CHRISTI", "state": "TX", "street": "1340 S PORT AVE", "postcode": "78405"}}},
{"geometry": {"type": "Point", "coordinates": [-97.4203272112, 27.7771304538]}, "type": "Feature", "properties": {"collection_times": [{"days": "Mon-Fri", "time": "5:15pm"}, {"days": "Sat", "time": "1:00pm"}, {"days": "Sun", "time": "Closed"}], "id": "7840500017", "name": "USPS COLLECTION BOX - PO LOBBY", "address": {"city": "CORPUS CHRISTI", "state": "TX", "street": "1340 S PORT AVE", "postcode": "78405"}}},
{"geometry": {"type": "Point", "coordinates": [-97.4659583, 27.7641310376]}, "type": "Feature", "properties": {"collection_times": [{"days": "Mon-Fri", "time": "5:00pm"}, {"days": "Sat", "time": "1:00pm"}, {"days": "Sun", "time": "Closed"}], "id": "7840500018", "name": "USPS COLLECTION BOX - BLUE BOX", "address": {"city": "CORPUS CHRISTI", "state": "TX", "street": "5541 BEAR LN", "postcode": "78405"}}},
{"geometry": {"type": "Point", "coordinates": [-97.4173090615, 27.7790776912]}, "type": "Feature", "properties": {"collection_times": [{"days": "Mon-Fri", "time": "4:30pm"}, {"days": "Sat", "time": "1:00pm"}, {"days": "Sun", "time": "Closed"}], "id": "7840500019", "name": "USPS COLLECTION BOX - BLUE BOX", "address": {"city": "CORPUS CHRISTI", "state": "TX", "street": "2606 HOSPITAL BLVD", "postcode": "78405"}}},
{"geometry": {"type": "Point", "coordinates": [-97.4626647066, 27.7592795542]}, "type": "Feature", "properties": {"collection_times": [{"days": "Mon-Fri", "time": "5:00pm"}, {"days": "Sat", "time": "1:00pm"}, {"days": "Sun", "time": "Closed"}], "id": "7840500020", "name": "USPS COLLECTION BOX - BLUE BOX", "address": {"city": "CORPUS CHRISTI", "state": "TX", "street": "400 S PADRE ISLAND DR", "postcode": "78405"}}},
{"geometry": {"type": "Point", "coordinates": [-97.4626647066, 27.7592795542]}, "type": "Feature", "properties": {"collection_times": [{"days": "Mon-Fri", "time": "5:00pm"}, {"days": "Sat", "time": "1:00pm"}, {"days": "Sun", "time": "Closed"}], "id": "7840500022", "name": "USPS COLLECTION BOX - BLUE BOX", "address": {"city": "CORPUS CHRISTI", "state": "TX", "street": "400 S PADRE ISLAND DR", "postcode": "78405"}}},
{"geometry": {"type": "Point", "coordinates": [-97.5012887079, 27.7747702067]}, "type": "Feature", "properties": {"collection_times": [{"days": "Mon-Sat", "time": "1:15pm"}, {"days": "Sun", "time": "Closed"}], "id": "7840600005", "name": "USPS COLLECTION BOX - BLUE BOX", "address": {"city": "CORPUS CHRISTI", "state": "TX", "street": "1000 INTERNATIONAL BLVD", "postcode": "78406"}}},
{"geometry": {"type": "Point", "coordinates": [-97.4413223782, 27.7888329266]}, "type": "Feature", "properties": {"collection_times": [{"days": "Mon-Fri", "time": "3:30pm"}, {"days": "Sat", "time": "1:00pm"}, {"days": "Sun", "time": "Closed"}], "id": "7840800000", "name": "USPS COLLECTION BOX - BLUE BOX", "address": {"city": "CORPUS CHRISTI", "state": "TX", "street": "4422 BALDWIN BLVD", "postcode": "78408"}}},
{"geometry": {"type": "Point", "coordinates": [-97.4311290329, 27.7972120655]}, "type": "Feature", "properties": {"collection_times": [{"days": "Mon-Fri", "time": "3:45pm"}, {"days": "Sat-Sun", "time": "Closed"}], "id": "7840800002", "name": "USPS COLLECTION BOX - BLUE BOX", "address": {"city": "CORPUS CHRISTI", "state": "TX", "street": "3649 LEOPARD ST", "postcode": "78408"}}},
{"geometry": {"type": "Point", "coordinates": [-97.4396389734, 27.795981488]}, "type": "Feature", "properties": {"collection_times": [{"days": "Mon-Fri", "time": "3:15pm"}, {"days": "Sat", "time": "1:00pm"}, {"days": "Sun", "time": "Closed"}], "id": "7840800003", "name": "USPS COLLECTION BOX - BLUE BOX", "address": {"city": "CORPUS CHRISTI", "state": "TX", "street": "5233 IH 37", "postcode": "78408"}}},
{"geometry": {"type": "Point", "coordinates": [-97.4612963824, 27.7975100504]}, "type": "Feature", "properties": {"collection_times": [{"days": "Mon-Fri", "time": "3:15pm"}, {"days": "Sat", "time": "1:00pm"}, {"days": "Sun", "time": "Closed"}], "id": "7840800009", "name": "USPS COLLECTION BOX - BLUE BOX", "address": {"city": "CORPUS CHRISTI", "state": "TX", "street": "5420 LEOPARD ST", "postcode": "78408"}}},
{"geometry": {"type": "Point", "coordinates": [-97.4396389734, 27.795981488]}, "type": "Feature", "properties": {"collection_times": [{"days": "Mon-Fri", "time": "3:15pm"}, {"days": "Sat", "time": "1:00pm"}, {"days": "Sun", "time": "Closed"}], "id": "7840800010", "name": "USPS COLLECTION BOX - BLUE BOX", "address": {"city": "CORPUS CHRISTI", "state": "TX", "street": "2209 SOUTH PADRE ISLAND DR. STE J", "postcode": "78408"}}},
{"geometry": {"type": "Point", "coordinates": [-97.6007691574, 27.8483301142]}, "type": "Feature", "properties": {"collection_times": [{"days": "Mon-Fri", "time": "4:15pm"}, {"days": "Sat", "time": "1:00pm"}, {"days": "Sun", "time": "Closed"}], "id": "7841000001", "name": "USPS COLLECTION BOX - BLUE BOX", "address": {"city": "CORPUS CHRISTI", "state": "TX", "street": "4101 INTERSTATE HIGHWAY 69 ACCESS RD", "postcode": "78410"}}},
{"geometry": {"type": "Point", "coordinates": [-97.6332243081, 27.856319687]}, "type": "Feature", "properties": {"collection_times": [{"days": "Mon-Fri", "time": "4:20pm"}, {"days": "Sat", "time": "1:00pm"}, {"days": "Sun", "time": "Closed"}], "id": "7841000003", "name": "USPS COLLECTION BOX - BLUE BOX", "address": {"city": "CORPUS CHRISTI", "state": "TX", "street": "13630 NORTHWEST BLVD", "postcode": "78410"}}},
{"geometry": {"type": "Point", "coordinates": [-97.5929602257, 27.8405060515]}, "type": "Feature", "properties": {"collection_times": [{"days": "Mon-Fri", "time": "4:15pm"}, {"days": "Sat", "time": "1:00pm"}, {"days": "Sun", "time": "Closed"}], "id": "7841000005", "name": "USPS COLLECTION BOX - BLUE BOX", "address": {"city": "CORPUS CHRISTI", "state": "TX", "street": "13434 UP RIVER RD", "postcode": "78410"}}},
{"geometry": {"type": "Point", "coordinates": [-97.5746563546, 27.8420218485]}, "type": "Feature", "properties": {"collection_times": [{"days": "Mon-Fri", "time": "5:00pm"}, {"days": "Sat", "time": "1:00pm"}, {"days": "Sun", "time": "Closed"}], "id": "7841000022", "name": "USPS COLLECTION BOX - BLUE BOX", "address": {"city": "CORPUS CHRISTI", "state": "TX", "street": "10515 STONEWALL BLVD", "postcode": "78410"}}},
{"geometry": {"type": "Point", "coordinates": [-97.5746563546, 27.8420218485]}, "type": "Feature", "properties": {"collection_times": [{"days": "Mon-Fri", "time": "5:00pm"}, {"days": "Sat", "time": "1:00pm"}, {"days": "Sun", "time": "Closed"}], "id": "7841000024", "name": "USPS COLLECTION BOX - BLUE BOX", "address": {"city": "CORPUS CHRISTI", "state": "TX", "street": "10515 STONEWALL BLVD", "postcode": "78410"}}},
{"geometry": {"type": "Point", "coordinates": [-97.5874321032, 27.8464022282]}, "type": "Feature", "properties": {"collection_times": [{"days": "Mon-Fri", "time": "4:30pm"}, {"days": "Sat", "time": "1:00pm"}, {"days": "Sun", "time": "Closed"}], "id": "7841000029", "name": "USPS COLLECTION BOX - BLUE BOX", "address": {"city": "CORPUS CHRISTI", "state": "TX", "street": "11217 LEOPARD ST STE I", "postcode": "78410"}}},
{"geometry": {"type": "Point", "coordinates": [-97.574153587, 27.841756041]}, "type": "Feature", "properties": {"collection_times": [{"days": "Mon-Fri", "time": "5:00pm"}, {"days": "Sat", "time": "1:00pm"}, {"days": "Sun", "time": "Closed"}], "id": "7841000032", "name": "USPS COLLECTION BOX - PO LOBBY", "address": {"city": "CORPUS CHRISTI", "state": "TX", "street": "10515 STONEWALL BLVD", "postcode": "78410"}}},
{"geometry": {"type": "Point", "coordinates": [-97.3815600637, 27.7191836234]}, "type": "Feature", "properties": {"collection_times": [{"days": "Mon-Fri", "time": "5:15pm"}, {"days": "Sat", "time": "1:30pm"}, {"days": "Sun", "time": "Closed"}], "id": "7841100001", "name": "USPS COLLECTION BOX - PO LOBBY", "address": {"city": "CORPUS CHRISTI", "state": "TX", "street": "4801 EVERHART RD", "postcode": "78411"}}},
{"geometry": {"type": "Point", "coordinates": [-97.3801093058, 27.7448317337]}, "type": "Feature", "properties": {"collection_times": [{"days": "Mon-Fri", "time": "3:30pm"}, {"days": "Sat", "time": "1:00pm"}, {"days": "Sun", "time": "Closed"}], "id": "7841100004", "name": "USPS COLLECTION BOX - BLUE BOX", "address": {"city": "CORPUS CHRISTI", "state": "TX", "street": "411 DODDRIDGE ST", "postcode": "78411"}}},
{"geometry": {"type": "Point", "coordinates": [-97.3848159301, 27.7272547856]}, "type": "Feature", "properties": {"collection_times": [{"days": "Mon-Fri", "time": "3:30pm"}, {"days": "Sat", "time": "1:00pm"}, {"days": "Sun", "time": "Closed"}], "id": "7841100005", "name": "USPS COLLECTION BOX - BLUE BOX", "address": {"city": "CORPUS CHRISTI", "state": "TX", "street": "4439 GOLLIHAR RD", "postcode": "78411"}}},
{"geometry": {"type": "Point", "coordinates": [-97.385273623, 27.7495115094]}, "type": "Feature", "properties": {"collection_times": [{"days": "Mon-Fri", "time": "3:30pm"}, {"days": "Sat", "time": "1:00pm"}, {"days": "Sun", "time": "Closed"}], "id": "7841100012", "name": "USPS COLLECTION BOX - BLUE BOX", "address": {"city": "CORPUS CHRISTI", "state": "TX", "street": "3533 S ALAMEDA ST", "postcode": "78411"}}},
{"geometry": {"type": "Point", "coordinates": [-97.3883085018, 27.7540926254]}, "type": "Feature", "properties": {"collection_times": [{"days": "Mon-Fri", "time": "3:30pm"}, {"days": "Sat", "time": "1:00pm"}, {"days": "Sun", "time": "Closed"}], "id": "7841100014", "name": "USPS COLLECTION BOX - BLUE BOX", "address": {"city": "CORPUS CHRISTI", "state": "TX", "street": "3315 S ALAMEDA ST", "postcode": "78411"}}},
{"geometry": {"type": "Point", "coordinates": [-97.3883085018, 27.7540926254]}, "type": "Feature", "properties": {"collection_times": [{"days": "Mon-Fri", "time": "3:30pm"}, {"days": "Sat", "time": "1:00pm"}, {"days": "Sun", "time": "Closed"}], "id": "7841100015", "name": "USPS COLLECTION BOX - BLUE BOX", "address": {"city": "CORPUS CHRISTI", "state": "TX", "street": "3315 S ALAMEDA ST", "postcode": "78411"}}},
{"geometry": {"type": "Point", "coordinates": [-97.3865881343, 27.751520014]}, "type": "Feature", "properties": {"collection_times": [{"days": "Mon-Fri", "time": "3:30pm"}, {"days": "Sat", "time": "1:00pm"}, {"days": "Sun", "time": "Closed"}], "id": "7841100018", "name": "USPS COLLECTION BOX - BLUE BOX", "address": {"city": "CORPUS CHRISTI", "state": "TX", "street": "3435 S ALAMEDA ST", "postcode": "78411"}}},
{"geometry": {"type": "Point", "coordinates": [-97.3754311282, 27.6988512893]}, "type": "Feature", "properties": {"collection_times": [{"days": "Mon-Fri", "time": "4:00pm"}, {"days": "Sat", "time": "1:00pm"}, {"days": "Sun", "time": "Closed"}], "id": "7841100022", "name": "USPS COLLECTION BOX - BLUE BOX", "address": {"city": "CORPUS CHRISTI", "state": "TX", "street": "5656 S STAPLES ST", "postcode": "78411"}}},
{"geometry": {"type": "Point", "coordinates": [-97.3801093058, 27.7448317337]}, "type": "Feature", "properties": {"collection_times": [{"days": "Mon-Fri", "time": "3:30pm"}, {"days": "Sat", "time": "1:00pm"}, {"days": "Sun", "time": "Closed"}], "id": "7841100031", "name": "USPS COLLECTION BOX - BLUE BOX", "address": {"city": "CORPUS CHRISTI", "state": "TX", "street": "411 DODDRIDGE ST", "postcode": "78411"}}},
{"geometry": {"type": "Point", "coordinates": [-97.3881993838, 27.7129282553]}, "type": "Feature", "properties": {"collection_times": [{"days": "Mon-Fri", "time": "4:00pm"}, {"days": "Sat", "time": "1:00pm"}, {"days": "Sun", "time": "Closed"}], "id": "7841100037", "name": "USPS COLLECTION BOX - BLUE BOX", "address": {"city": "CORPUS CHRISTI", "state": "TX", "street": "4639 CORONA DR", "postcode": "78411"}}},
{"geometry": {"type": "Point", "coordinates": [-97.3855810245, 27.7296649295]}, "type": "Feature", "properties": {"collection_times": [{"days": "Mon-Fri", "time": "4:00pm"}, {"days": "Sat", "time": "1:00pm"}, {"days": "Sun", "time": "Closed"}], "id": "7841100043", "name": "USPS COLLECTION BOX - BLUE BOX", "address": {"city": "CORPUS CHRISTI", "state": "TX", "street": "4455 S PADRE ISLAND DR", "postcode": "78411"}}},
{"geometry": {"type": "Point", "coordinates": [-97.3815600637, 27.7191836234]}, "type": "Feature", "properties": {"collection_times": [{"days": "Mon-Fri", "time": "5:15pm"}, {"days": "Sat", "time": "1:30pm"}, {"days": "Sun", "time": "Closed"}], "id": "7841100049", "name": "USPS COLLECTION BOX - PO LOBBY", "address": {"city": "CORPUS CHRISTI", "state": "TX", "street": "4801 EVERHART RD", "postcode": "78411"}}},
{"geometry": {"type": "Point", "coordinates": [-97.3715052352, 27.7050516745]}, "type": "Feature", "properties": {"collection_times": [{"days": "Mon-Fri", "time": "4:00pm"}, {"days": "Sat", "time": "1:00pm"}, {"days": "Sun", "time": "Closed"}], "id": "7841100050", "name": "USPS COLLECTION BOX - BLUE BOX", "address": {"city": "CORPUS CHRISTI", "state": "TX", "street": "5262 S STAPLES ST", "postcode": "78411"}}},
{"geometry": {"type": "Point", "coordinates": [-97.3728704657, 27.7028293046]}, "type": "Feature", "properties": {"collection_times": [{"days": "Mon-Fri", "time": "4:00pm"}, {"days": "Sat", "time": "1:00pm"}, {"days": "Sun", "time": "Closed"}], "id": "7841100053", "name": "USPS COLLECTION BOX - BLUE BOX", "address": {"city": "CORPUS CHRISTI", "state": "TX", "street": "5402 S STAPLES ST", "postcode": "78411"}}},
{"geometry": {"type": "Point", "coordinates": [-97.3733276668, 27.7096423188]}, "type": "Feature", "properties": {"collection_times": [{"days": "Mon-Fri", "time": "3:30pm"}, {"days": "Sat", "time": "1:00pm"}, {"days": "Sun", "time": "Closed"}], "id": "7841100054", "name": "USPS COLLECTION BOX - BLUE BOX", "address": {"city": "CORPUS CHRISTI", "state": "TX", "street": "5488 S PADRE ISLAND DR", "postcode": "78411"}}},
{"geometry": {"type": "Point", "coordinates": [-97.3754311282, 27.6988512893]}, "type": "Feature", "properties": {"collection_times": [{"days": "Mon-Fri", "time": "4:00pm"}, {"days": "Sat", "time": "1:00pm"}, {"days": "Sun", "time": "Closed"}], "id": "7841100056", "name": "USPS COLLECTION BOX - BLUE BOX", "address": {"city": "CORPUS CHRISTI", "state": "TX", "street": "5656 S STAPLES ST", "postcode": "78411"}}},
{"geometry": {"type": "Point", "coordinates": [-97.3801093058, 27.7448317337]}, "type": "Feature", "properties": {"collection_times": [{"days": "Mon-Fri", "time": "3:30pm"}, {"days": "Sat", "time": "1:00pm"}, {"days": "Sun", "time": "Closed"}], "id": "7841100060", "name": "USPS COLLECTION BOX - BLUE BOX", "address": {"city": "CORPUS CHRISTI", "state": "TX", "street": "411 DODDRIDGE ST", "postcode": "78411"}}},
{"geometry": {"type": "Point", "coordinates": [-97.3881993838, 27.7129282553]}, "type": "Feature", "properties": {"collection_times": [{"days": "Mon-Fri", "time": "4:00pm"}, {"days": "Sat", "time": "1:00pm"}, {"days": "Sun", "time": "Closed"}], "id": "7841100061", "name": "USPS COLLECTION BOX - BLUE BOX", "address": {"city": "CORPUS CHRISTI", "state": "TX", "street": "4639 CORONA DR", "postcode": "78411"}}},
{"geometry": {"type": "Point", "coordinates": [-97.3815600637, 27.7191836234]}, "type": "Feature", "properties": {"collection_times": [{"days": "Mon-Fri", "time": "5:15pm"}, {"days": "Sat", "time": "1:30pm"}, {"days": "Sun", "time": "Closed"}], "id": "7841100064", "name": "USPS COLLECTION BOX - BLUE BOX", "address": {"city": "CORPUS CHRISTI", "state": "TX", "street": "4801 EVERHART RD", "postcode": "78411"}}},
{"geometry": {"type": "Point", "coordinates": [-97.3815600637, 27.7191836234]}, "type": "Feature", "properties": {"collection_times": [{"days": "Mon-Fri", "time": "5:15pm"}, {"days": "Sat", "time": "1:30pm"}, {"days": "Sun", "time": "Closed"}], "id": "7841100065", "name": "USPS COLLECTION BOX - BLUE BOX", "address": {"city": "CORPUS CHRISTI", "state": "TX", "street": "4801 EVERHART RD", "postcode": "78411"}}},
{"geometry": {"type": "Point", "coordinates": [-97.3815600637, 27.7191836234]}, "type": "Feature", "properties": {"collection_times": [{"days": "Mon-Fri", "time": "5:15pm"}, {"days": "Sat", "time": "1:30pm"}, {"days": "Sun", "time": "Closed"}], "id": "7841100066", "name": "USPS COLLECTION BOX - PO LOBBY", "address": {"city": "CORPUS CHRISTI", "state": "TX", "street": "4801 EVERHART RD", "postcode": "78411"}}},
{"geometry": {"type": "Point", "coordinates": [-97.3815600637, 27.7191836234]}, "type": "Feature", "properties": {"collection_times": [{"days": "Mon-Fri", "time": "5:15pm"}, {"days": "Sat", "time": "1:30pm"}, {"days": "Sun", "time": "Closed"}], "id": "7841100067", "name": "USPS COLLECTION BOX - APC", "address": {"city": "CORPUS CHRISTI", "state": "TX", "street": "4801 EVERHART RD", "postcode": "78411"}}},
{"geometry": {"type": "Point", "coordinates": [-97.3602907959, 27.7045688799]}, "type": "Feature", "properties": {"collection_times": [{"days": "Mon-Fri", "time": "5:30pm"}, {"days": "Sat", "time": "2:00pm"}, {"days": "Sun", "time": "Closed"}], "id": "7841200000", "name": "USPS COLLECTION BOX - BLUE BOX", "address": {"city": "CORPUS CHRISTI", "state": "TX", "street": "1345 CRESCENT BLVD", "postcode": "78412"}}},
{"geometry": {"type": "Point", "coordinates": [-97.3602907959, 27.7045688799]}, "type": "Feature", "properties": {"collection_times": [{"days": "Mon-Fri", "time": "5:30pm"}, {"days": "Sat", "time": "2:00pm"}, {"days": "Sun", "time": "Closed"}], "id": "7841200002", "name": "USPS COLLECTION BOX - BLUE BOX", "address": {"city": "CORPUS CHRISTI", "state": "TX", "street": "1345 CRESCENT BLVD", "postcode": "78412"}}},
{"geometry": {"type": "Point", "coordinates": [-97.3602907959, 27.7045688799]}, "type": "Feature", "properties": {"collection_times": [{"days": "Mon-Fri", "time": "5:30pm"}, {"days": "Sat", "time": "1:00pm"}, {"days": "Sun", "time": "Closed"}], "id": "7841200003", "name": "USPS COLLECTION BOX - PO LOBBY", "address": {"city": "CORPUS CHRISTI", "state": "TX", "street": "1345 CRESCENT BLVD", "postcode": "78412"}}},
{"geometry": {"type": "Point", "coordinates": [-97.3602907959, 27.7045688799]}, "type": "Feature", "properties": {"collection_times": [{"days": "Mon-Fri", "time": "5:30pm"}, {"days": "Sat", "time": "1:00pm"}, {"days": "Sun", "time": "Closed"}], "id": "7841200004", "name": "USPS COLLECTION BOX - PO LOBBY", "address": {"city": "CORPUS CHRISTI", "state": "TX", "street": "1345 CRESCENT BLVD", "postcode": "78412"}}},
{"geometry": {"type": "Point", "coordinates": [-97.3732905403, 27.7320985652]}, "type": "Feature", "properties": {"collection_times": [{"days": "Mon-Fri", "time": "3:50pm"}, {"days": "Sat", "time": "1:00pm"}, {"days": "Sun", "time": "Closed"}], "id": "7841200009", "name": "USPS COLLECTION BOX - BLUE BOX", "address": {"city": "CORPUS CHRISTI", "state": "TX", "street": "4200 S ALAMEDA ST", "postcode": "78412"}}},
{"geometry": {"type": "Point", "coordinates": [-97.3632550738, 27.7250876458]}, "type": "Feature", "properties": {"collection_times": [{"days": "Mon-Fri", "time": "3:55pm"}, {"days": "Sat", "time": "1:00pm"}, {"days": "Sun", "time": "Closed"}], "id": "7841200014", "name": "USPS COLLECTION BOX - BLUE BOX", "address": {"city": "CORPUS CHRISTI", "state": "TX", "street": "4715 S ALAMEDA ST", "postcode": "78412"}}},
{"geometry": {"type": "Point", "coordinates": [-97.3427905925, 27.6936733886]}, "type": "Feature", "properties": {"collection_times": [{"days": "Mon-Fri", "time": "4:00pm"}, {"days": "Sat", "time": "1:00pm"}, {"days": "Sun", "time": "Closed"}], "id": "7841200018", "name": "USPS COLLECTION BOX - BLUE BOX", "address": {"city": "CORPUS CHRISTI", "state": "TX", "street": "7121 S PADRE ISLAND DR", "postcode": "78412"}}},
{"geometry": {"type": "Point", "coordinates": [-97.3634450845, 27.694286231]}, "type": "Feature", "properties": {"collection_times": [{"days": "Mon-Fri", "time": "3:50pm"}, {"days": "Sat", "time": "1:00pm"}, {"days": "Sun", "time": "Closed"}], "id": "7841200026", "name": "USPS COLLECTION BOX - BLUE BOX", "address": {"city": "CORPUS CHRISTI", "state": "TX", "street": "2033 AIRLINE RD", "postcode": "78412"}}},
{"geometry": {"type": "Point", "coordinates": [-97.4035595359, 27.7964121631]}, "type": "Feature", "properties": {"collection_times": [{"days": "Mon-Fri", "time": "4:00pm"}, {"days": "Sat", "time": "1:00pm"}, {"days": "Sun", "time": "Closed"}], "id": "7841200040", "name": "USPS COLLECTION BOX - BLUE BOX", "address": {"city": "CORPUS CHRISTI", "state": "TX", "street": "6300 OCEAN DR", "postcode": "78412"}}},
{"geometry": {"type": "Point", "coordinates": [-97.3427905925, 27.6936733886]}, "type": "Feature", "properties": {"collection_times": [{"days": "Mon-Fri", "time": "4:00pm"}, {"days": "Sat", "time": "1:00pm"}, {"days": "Sun", "time": "Closed"}], "id": "7841200043", "name": "USPS COLLECTION BOX - BLUE BOX", "address": {"city": "CORPUS CHRISTI", "state": "TX", "street": "7121 S PADRE ISLAND DR", "postcode": "78412"}}},
{"geometry": {"type": "Point", "coordinates": [-97.3318656147, 27.7186275755]}, "type": "Feature", "properties": {"collection_times": [{"days": "Mon-Fri", "time": "4:00pm"}, {"days": "Sat", "time": "1:00pm"}, {"days": "Sun", "time": "Closed"}], "id": "7841200050", "name": "USPS COLLECTION BOX - BLUE BOX", "address": {"city": "CORPUS CHRISTI", "state": "TX", "street": "6300 OCEAN DR", "postcode": "78412"}}},
{"geometry": {"type": "Point", "coordinates": [-97.4144046233, 27.6963156363]}, "type": "Feature", "properties": {"collection_times": [{"days": "Mon-Fri", "time": "5:00pm"}, {"days": "Sat", "time": "1:00pm"}, {"days": "Sun", "time": "Closed"}], "id": "7841300000", "name": "USPS COLLECTION BOX - PO LOBBY", "address": {"city": "CORPUS CHRISTI", "state": "TX", "street": "6742 WEBER RD", "postcode": "78413"}}},
{"geometry": {"type": "Point", "coordinates": [-97.4144046233, 27.6963156363]}, "type": "Feature", "properties": {"collection_times": [{"days": "Mon-Fri", "time": "5:00pm"}, {"days": "Sat", "time": "1:00pm"}, {"days": "Sun", "time": "Closed"}], "id": "7841300001", "name": "USPS COLLECTION BOX - PO LOBBY", "address": {"city": "CORPUS CHRISTI", "state": "TX", "street": "6742 WEBER RD", "postcode": "78413"}}},
{"geometry": {"type": "Point", "coordinates": [-97.4144046233, 27.6963156363]}, "type": "Feature", "properties": {"collection_times": [{"days": "Mon-Fri", "time": "5:00pm"}, {"days": "Sat", "time": "1:30pm"}, {"days": "Sun", "time": "Closed"}], "id": "7841300002", "name": "USPS COLLECTION BOX - BLUE BOX", "address": {"city": "CORPUS CHRISTI", "state": "TX", "street": "6742 WEBER RD", "postcode": "78413"}}},
{"geometry": {"type": "Point", "coordinates": [-97.4055334908, 27.7106970968]}, "type": "Feature", "properties": {"collection_times": [{"days": "Mon-Fri", "time": "4:00pm"}, {"days": "Sat", "time": "1:00pm"}, {"days": "Sun", "time": "Closed"}], "id": "7841300003", "name": "USPS COLLECTION BOX - BLUE BOX", "address": {"city": "CORPUS CHRISTI", "state": "TX", "street": "5801 WEBER RD", "postcode": "78413"}}},
{"geometry": {"type": "Point", "coordinates": [-97.4057801775, 27.7103027123]}, "type": "Feature", "properties": {"collection_times": [{"days": "Mon-Fri", "time": "4:00pm"}, {"days": "Sat", "time": "1:00pm"}, {"days": "Sun", "time": "Closed"}], "id": "7841300006", "name": "USPS COLLECTION BOX - BLUE BOX", "address": {"city": "CORPUS CHRISTI", "state": "TX", "street": "5825 WEBER RD", "postcode": "78413"}}},
{"geometry": {"type": "Point", "coordinates": [-97.386600579, 27.6867297019]}, "type": "Feature", "properties": {"collection_times": [{"days": "Mon-Fri", "time": "4:00pm"}, {"days": "Sat", "time": "1:00pm"}, {"days": "Sun", "time": "Closed"}], "id": "7841300009", "name": "USPS COLLECTION BOX - BLUE BOX", "address": {"city": "CORPUS CHRISTI", "state": "TX", "street": "5513 SARATOGA BLVD", "postcode": "78413"}}},
{"geometry": {"type": "Point", "coordinates": [-97.386600579, 27.6867297019]}, "type": "Feature", "properties": {"collection_times": [{"days": "Mon-Fri", "time": "4:00pm"}, {"days": "Sat", "time": "1:00pm"}, {"days": "Sun", "time": "Closed"}], "id": "7841300011", "name": "USPS COLLECTION BOX - BLUE BOX", "address": {"city": "CORPUS CHRISTI", "state": "TX", "street": "5513 SARATOGA BLVD", "postcode": "78413"}}},
{"geometry": {"type": "Point", "coordinates": [-97.3901931827, 27.7053635833]}, "type": "Feature", "properties": {"collection_times": [{"days": "Mon-Fri", "time": "4:00pm"}, {"days": "Sat", "time": "1:00pm"}, {"days": "Sun", "time": "Closed"}], "id": "7841300017", "name": "USPS COLLECTION BOX - BLUE BOX", "address": {"city": "CORPUS CHRISTI", "state": "TX", "street": "5701 EVERHART RD", "postcode": "78413"}}},
{"geometry": {"type": "Point", "coordinates": [-97.4103063223, 27.7028537818]}, "type": "Feature", "properties": {"collection_times": [{"days": "Mon-Fri", "time": "4:00pm"}, {"days": "Sat", "time": "1:00pm"}, {"days": "Sun", "time": "Closed"}], "id": "7841300021", "name": "USPS COLLECTION BOX - BLUE BOX", "address": {"city": "CORPUS CHRISTI", "state": "TX", "street": "6262 WEBER RD", "postcode": "78413"}}},
{"geometry": {"type": "Point", "coordinates": [-97.4021918686, 27.6862728677]}, "type": "Feature", "properties": {"collection_times": [{"days": "Mon-Fri", "time": "4:00pm"}, {"days": "Sat", "time": "1:00pm"}, {"days": "Sun", "time": "Closed"}], "id": "7841300028", "name": "USPS COLLECTION BOX - BLUE BOX", "address": {"city": "CORPUS CHRISTI", "state": "TX", "street": "6801 EVERHART RD", "postcode": "78413"}}},
{"geometry": {"type": "Point", "coordinates": [-97.4144046233, 27.6963156363]}, "type": "Feature", "properties": {"collection_times": [{"days": "Mon-Fri", "time": "5:00pm"}, {"days": "Sat", "time": "1:30pm"}, {"days": "Sun", "time": "Closed"}], "id": "7841300030", "name": "USPS COLLECTION BOX - BLUE BOX", "address": {"city": "CORPUS CHRISTI", "state": "TX", "street": "6742 WEBER RD", "postcode": "78413"}}},
{"geometry": {"type": "Point", "coordinates": [-97.3774966563, 27.695801062]}, "type": "Feature", "properties": {"collection_times": [{"days": "Mon-Fri", "time": "4:00pm"}, {"days": "Sat", "time": "1:00pm"}, {"days": "Sun", "time": "Closed"}], "id": "7841300033", "name": "USPS COLLECTION BOX - BLUE BOX", "address": {"city": "CORPUS CHRISTI", "state": "TX", "street": "5801 S STAPLES ST", "postcode": "78413"}}},
{"geometry": {"type": "Point", "coordinates": [-97.3774966563, 27.695801062]}, "type": "Feature", "properties": {"collection_times": [{"days": "Mon-Fri", "time": "4:00pm"}, {"days": "Sat", "time": "1:00pm"}, {"days": "Sun", "time": "Closed"}], "id": "7841300035", "name": "USPS COLLECTION BOX - BLUE BOX", "address": {"city": "CORPUS CHRISTI", "state": "TX", "street": "5801 S STAPLES ST", "postcode": "78413"}}},
{"geometry": {"type": "Point", "coordinates": [-97.4144046233, 27.6963156363]}, "type": "Feature", "properties": {"collection_times": [{"days": "Mon-Fri", "time": "5:00pm"}, {"days": "Sat", "time": "1:00pm"}, {"days": "Sun", "time": "Closed"}], "id": "7841300037", "name": "USPS COLLECTION BOX - APC", "address": {"city": "CORPUS CHRISTI", "state": "TX", "street": "6742 WEBER RD", "postcode": "78413"}}},
{"geometry": {"type": "Point", "coordinates": [-97.3635168231, 27.689220563]}, "type": "Feature", "properties": {"collection_times": [{"days": "Mon-Fri", "time": "3:45pm"}, {"days": "Sat", "time": "1:00pm"}, {"days": "Sun", "time": "Closed"}], "id": "7841400004", "name": "USPS COLLECTION BOX - BLUE BOX", "address": {"city": "CORPUS CHRISTI", "state": "TX", "street": "2222 AIRLINE RD", "postcode": "78414"}}},
{"geometry": {"type": "Point", "coordinates": [-97.3767284271, 27.6820445212]}, "type": "Feature", "properties": {"collection_times": [{"days": "Mon-Fri", "time": "3:30pm"}, {"days": "Sat", "time": "1:00pm"}, {"days": "Sun", "time": "Closed"}], "id": "7841400006", "name": "USPS COLLECTION BOX - BLUE BOX", "address": {"city": "CORPUS CHRISTI", "state": "TX", "street": "5920 SARATOGA BLVD", "postcode": "78414"}}},
{"geometry": {"type": "Point", "coordinates": [-97.4226656989, 27.7473893776]}, "type": "Feature", "properties": {"collection_times": [{"days": "Mon-Fri", "time": "4:00pm"}, {"days": "Sat", "time": "1:00pm"}, {"days": "Sun", "time": "Closed"}], "id": "7841500000", "name": "USPS COLLECTION BOX - BLUE BOX", "address": {"city": "CORPUS CHRISTI", "state": "TX", "street": "4410 DILLON LN", "postcode": "78415"}}},
{"geometry": {"type": "Point", "coordinates": [-97.2956204442, 27.6389311111]}, "type": "Feature", "properties": {"collection_times": [{"days": "Mon-Fri", "time": "4:00pm"}, {"days": "Sat", "time": "1:00pm"}, {"days": "Sun", "time": "Closed"}], "id": "7841500008", "name": "USPS COLLECTION BOX - BLUE BOX", "address": {"city": "CORPUS CHRISTI", "state": "TX", "street": "2820 S PADRE ISLAND DR", "postcode": "78415"}}},
{"geometry": {"type": "Point", "coordinates": [-97.406203472, 27.7394206683]}, "type": "Feature", "properties": {"collection_times": [{"days": "Mon-Fri", "time": "4:00pm"}, {"days": "Sat", "time": "1:00pm"}, {"days": "Sun", "time": "Closed"}], "id": "7841500010", "name": "USPS COLLECTION BOX - BLUE BOX", "address": {"city": "CORPUS CHRISTI", "state": "TX", "street": "4400 KOSTORYZ RD", "postcode": "78415"}}},
{"geometry": {"type": "Point", "coordinates": [-97.4142615462, 27.7262479619]}, "type": "Feature", "properties": {"collection_times": [{"days": "Mon-Fri", "time": "4:00pm"}, {"days": "Sat", "time": "1:00pm"}, {"days": "Sun", "time": "Closed"}], "id": "7841500011", "name": "USPS COLLECTION BOX - BLUE BOX", "address": {"city": "CORPUS CHRISTI", "state": "TX", "street": "5230 KOSTORYZ RD", "postcode": "78415"}}},
{"geometry": {"type": "Point", "coordinates": [-97.4038228861, 27.7283512952]}, "type": "Feature", "properties": {"collection_times": [{"days": "Mon-Fri", "time": "4:00pm"}, {"days": "Sat", "time": "1:00pm"}, {"days": "Sun", "time": "Closed"}], "id": "7841500013", "name": "USPS COLLECTION BOX - BLUE BOX", "address": {"city": "CORPUS CHRISTI", "state": "TX", "street": "4901 CARROLL LN", "postcode": "78415"}}},
{"geometry": {"type": "Point", "coordinates": [-97.5137372534, 27.7003470308]}, "type": "Feature", "properties": {"collection_times": [{"days": "Mon-Fri", "time": "4:00pm"}, {"days": "Sat", "time": "1:00pm"}, {"days": "Sun", "time": "Closed"}], "id": "7841500014", "name": "USPS COLLECTION BOX - BLUE BOX", "address": {"city": "CORPUS CHRISTI", "state": "TX", "street": "3838 S PADRE ISLAND DR", "postcode": "78415"}}},
{"geometry": {"type": "Point", "coordinates": [-97.4201078844, 27.7501273256]}, "type": "Feature", "properties": {"collection_times": [{"days": "Mon-Fri", "time": "5:00pm"}, {"days": "Sat", "time": "2:00pm"}, {"days": "Sun", "time": "Closed"}], "id": "7841500018", "name": "USPS COLLECTION BOX - BLUE BOX", "address": {"city": "CORPUS CHRISTI", "state": "TX", "street": "4213 S PORT AVE", "postcode": "78415"}}},
{"geometry": {"type": "Point", "coordinates": [-97.4201078844, 27.7501273256]}, "type": "Feature", "properties": {"collection_times": [{"days": "Mon-Fri", "time": "5:00pm"}, {"days": "Sat", "time": "2:00pm"}, {"days": "Sun", "time": "Closed"}], "id": "7841500019", "name": "USPS COLLECTION BOX - BLUE BOX", "address": {"city": "CORPUS CHRISTI", "state": "TX", "street": "4213 S PORT AVE", "postcode": "78415"}}},
{"geometry": {"type": "Point", "coordinates": [-97.4201078844, 27.7501273256]}, "type": "Feature", "properties": {"collection_times": [{"days": "Mon-Fri", "time": "5:00pm"}, {"days": "Sat", "time": "1:00pm"}, {"days": "Sun", "time": "Closed"}], "id": "7841500020", "name": "USPS COLLECTION BOX - PO LOBBY", "address": {"city": "CORPUS CHRISTI", "state": "TX", "street": "4213 S PORT AVE", "postcode": "78415"}}},
{"geometry": {"type": "Point", "coordinates": [-97.4201078844, 27.7501273256]}, "type": "Feature", "properties": {"collection_times": [{"days": "Mon-Fri", "time": "5:00pm"}, {"days": "Sat", "time": "1:00pm"}, {"days": "Sun", "time": "Closed"}], "id": "7841500021", "name": "USPS COLLECTION BOX - PO LOBBY", "address": {"city": "CORPUS CHRISTI", "state": "TX", "street": "4213 S PORT AVE", "postcode": "78415"}}},
{"geometry": {"type": "Point", "coordinates": [-97.2956204442, 27.6389311111]}, "type": "Feature", "properties": {"collection_times": [{"days": "Mon-Fri", "time": "4:00pm"}, {"days": "Sat", "time": "1:00pm"}, {"days": "Sun", "time": "Closed"}], "id": "7841500024", "name": "USPS COLLECTION BOX - BLUE BOX", "address": {"city": "CORPUS CHRISTI", "state": "TX", "street": "2820 S PADRE ISLAND DR", "postcode": "78415"}}},
{"geometry": {"type": "Point", "coordinates": [-97.4374669584, 27.7192066031]}, "type": "Feature", "properties": {"collection_times": [{"days": "Mon-Fri", "time": "4:00pm"}, {"days": "Sat", "time": "1:00pm"}, {"days": "Sun", "time": "Closed"}], "id": "7841500025", "name": "USPS COLLECTION BOX - BLUE BOX", "address": {"city": "CORPUS CHRISTI", "state": "TX", "street": "6116 AYERS ST", "postcode": "78415"}}},
{"geometry": {"type": "Point", "coordinates": [-97.4274502928, 27.7482311318]}, "type": "Feature", "properties": {"collection_times": [{"days": "Mon-Fri", "time": "4:00pm"}, {"days": "Sat", "time": "1:00pm"}, {"days": "Sun", "time": "Closed"}], "id": "7841600000", "name": "USPS COLLECTION BOX - BLUE BOX", "address": {"city": "CORPUS CHRISTI", "state": "TX", "street": "2030 GOLLIHAR RD", "postcode": "78416"}}},
{"geometry": {"type": "Point", "coordinates": [-97.4369367196, 27.7518490667]}, "type": "Feature", "properties": {"collection_times": [{"days": "Mon-Fri", "time": "4:00pm"}, {"days": "Sat", "time": "1:00pm"}, {"days": "Sun", "time": "Closed"}], "id": "7841600001", "name": "USPS COLLECTION BOX - BLUE BOX", "address": {"city": "CORPUS CHRISTI", "state": "TX", "street": "1620 S PADRE ISLAND DR", "postcode": "78416"}}},
{"geometry": {"type": "Point", "coordinates": [-97.4485016554, 27.7313661071]}, "type": "Feature", "properties": {"collection_times": [{"days": "Mon-Fri", "time": "4:00pm"}, {"days": "Sat", "time": "1:00pm"}, {"days": "Sun", "time": "Closed"}], "id": "7841700001", "name": "USPS COLLECTION BOX - BLUE BOX", "address": {"city": "CORPUS CHRISTI", "state": "TX", "street": "5758 GREENWOOD DR", "postcode": "78417"}}},
{"geometry": {"type": "Point", "coordinates": [-97.22190451, 27.6182557022]}, "type": "Feature", "properties": {"collection_times": [{"days": "Mon-Fri", "time": "4:00pm"}, {"days": "Sat", "time": "2:00pm"}, {"days": "Sun", "time": "Closed"}], "id": "7841800001", "name": "USPS COLLECTION BOX - BLUE BOX", "address": {"city": "CORPUS CHRISTI", "state": "TX", "street": "14493 S PADRE ISLAND DR", "postcode": "78418"}}},
{"geometry": {"type": "Point", "coordinates": [-97.3007374267, 27.6521497408]}, "type": "Feature", "properties": {"collection_times": [{"days": "Mon-Fri", "time": "4:00pm"}, {"days": "Sat", "time": "2:00pm"}, {"days": "Sun", "time": "Closed"}], "id": "7841800002", "name": "USPS COLLECTION BOX - BLUE BOX", "address": {"city": "CORPUS CHRISTI", "state": "TX", "street": "15233 S PADRE ISLAND DR", "postcode": "78418"}}},
{"geometry": {"type": "Point", "coordinates": [-97.2902776921, 27.6315985668]}, "type": "Feature", "properties": {"collection_times": [{"days": "Mon-Fri", "time": "3:00pm"}, {"days": "Sat", "time": "2:00pm"}, {"days": "Sun", "time": "Closed"}], "id": "7841800003", "name": "USPS COLLECTION BOX - BLUE BOX", "address": {"city": "CORPUS CHRISTI", "state": "TX", "street": "3058 LAGUNA SHORES RD", "postcode": "78418"}}},
{"geometry": {"type": "Point", "coordinates": [-97.3007374267, 27.6521497408]}, "type": "Feature", "properties": {"collection_times": [{"days": "Mon-Fri", "time": "3:30pm"}, {"days": "Sat", "time": "2:00pm"}, {"days": "Sun", "time": "Closed"}], "id": "7841800007", "name": "USPS COLLECTION BOX - BLUE BOX", "address": {"city": "CORPUS CHRISTI", "state": "TX", "street": "9450 S PADRE ISLAND DR", "postcode": "78418"}}},
{"geometry": {"type": "Point", "coordinates": [-97.2930649017, 27.6515036584]}, "type": "Feature", "properties": {"collection_times": [{"days": "Mon-Fri", "time": "3:00pm"}, {"days": "Sat", "time": "2:00pm"}, {"days": "Sun", "time": "Closed"}], "id": "7841800010", "name": "USPS COLLECTION BOX - BLUE BOX", "address": {"city": "CORPUS CHRISTI", "state": "TX", "street": "2148 WALDRON RD", "postcode": "78418"}}},
{"geometry": {"type": "Point", "coordinates": [-97.3001480913, 27.6402719673]}, "type": "Feature", "properties": {"collection_times": [{"days": "Mon-Fri", "time": "3:00pm"}, {"days": "Sat", "time": "2:00pm"}, {"days": "Sun", "time": "Closed"}], "id": "7841800011", "name": "USPS COLLECTION BOX - BLUE BOX", "address": {"city": "CORPUS CHRISTI", "state": "TX", "street": "2919 WALDRON RD", "postcode": "78418"}}},
{"geometry": {"type": "Point", "coordinates": [-97.2873703386, 27.6684851875]}, "type": "Feature", "properties": {"collection_times": [{"days": "Mon-Fri", "time": "4:30pm"}, {"days": "Sat", "time": "1:00pm"}, {"days": "Sun", "time": "Closed"}], "id": "7841800012", "name": "USPS COLLECTION BOX - BLUE BOX", "address": {"city": "CORPUS CHRISTI", "state": "TX", "street": "10139 SECURITY DR", "postcode": "78418"}}},
{"geometry": {"type": "Point", "coordinates": [-97.2873703386, 27.6684851875]}, "type": "Feature", "properties": {"collection_times": [{"days": "Mon-Fri", "time": "4:30pm"}, {"days": "Sat", "time": "1:00pm"}, {"days": "Sun", "time": "Closed"}], "id": "7841800013", "name": "USPS COLLECTION BOX - BLUE BOX", "address": {"city": "CORPUS CHRISTI", "state": "TX", "street": "10139 SECURITY DR", "postcode": "78418"}}},
{"geometry": {"type": "Point", "coordinates": [-97.2873703386, 27.6684851875]}, "type": "Feature", "properties": {"collection_times": [{"days": "Mon-Fri", "time": "4:30pm"}, {"days": "Sat", "time": "1:00pm"}, {"days": "Sun", "time": "Closed"}], "id": "7841800015", "name": "USPS COLLECTION BOX - PO LOBBY", "address": {"city": "CORPUS CHRISTI", "state": "TX", "street": "10139 SECURITY DR", "postcode": "78418"}}},
{"geometry": {"type": "Point", "coordinates": [-97.2873703386, 27.6684851875]}, "type": "Feature", "properties": {"collection_times": [{"days": "Mon-Fri", "time": "4:30pm"}, {"days": "Sat", "time": "1:00pm"}, {"days": "Sun", "time": "Closed"}], "id": "7841800016", "name": "USPS COLLECTION BOX - PO LOBBY", "address": {"city": "CORPUS CHRISTI", "state": "TX", "street": "10139 SECURITY DR", "postcode": "78418"}}},
{"geometry": {"type": "Point", "coordinates": [-97.270068258, 27.688146844]}, "type": "Feature", "properties": {"collection_times": [{"days": "Mon-Fri", "time": "3:30pm"}, {"days": "Sat", "time": "2:00pm"}, {"days": "Sun", "time": "Closed"}], "id": "7841900002", "name": "USPS COLLECTION BOX - BLUE BOX", "address": {"city": "CORPUS CHRISTI", "state": "TX", "street": "630 LEXINGTON BLVD", "postcode": "78419"}}},
{"geometry": {"type": "Point", "coordinates": [-97.4268390147, 27.7979280277]}, "type": "Feature", "properties": {"collection_times": [{"days": "Mon-Sat", "time": "7:00pm"}, {"days": "Sun", "time": "Closed"}], "id": "7846900000", "name": "USPS COLLECTION BOX - PO LOBBY", "address": {"city": "CORPUS CHRISTI", "state": "TX", "street": "809 NUECES BAY BLVD", "postcode": "78469"}}},
{"geometry": {"type": "Point", "coordinates": [-97.4268390147, 27.7979280277]}, "type": "Feature", "properties": {"collection_times": [{"days": "Mon-Sat", "time": "7:00pm"}, {"days": "Sun", "time": "Closed"}], "id": "7846900001", "name": "USPS COLLECTION BOX - PO LOBBY", "address": {"city": "CORPUS CHRISTI", "state": "TX", "street": "809 NUECES BAY BLVD", "postcode": "78469"}}},
{"geometry": {"type": "Point", "coordinates": [-97.4268390147, 27.7979280277]}, "type": "Feature", "properties": {"collection_times": [{"days": "Mon-Sat", "time": "7:00pm"}, {"days": "Sun", "time": "Closed"}], "id": "7846900002", "name": "USPS COLLECTION BOX - BLUE BOX", "address": {"city": "CORPUS CHRISTI", "state": "TX", "street": "809 NUECES BAY BLVD", "postcode": "78469"}}},
{"geometry": {"type": "Point", "coordinates": [-97.4268390147, 27.7979280277]}, "type": "Feature", "properties": {"collection_times": [{"days": "Mon-Sat", "time": "7:00pm"}, {"days": "Sun", "time": "Closed"}], "id": "7846900004", "name": "USPS COLLECTION BOX - BLUE BOX", "address": {"city": "CORPUS CHRISTI", "state": "TX", "street": "809 NUECES BAY BLVD", "postcode": "78469"}}},
{"geometry": {"type": "Point", "coordinates": [-97.4268390147, 27.7979280277]}, "type": "Feature", "properties": {"collection_times": [{"days": "Mon-Sat", "time": "7:00pm"}, {"days": "Sun", "time": "Closed"}], "id": "7846900005", "name": "USPS COLLECTION BOX - PO LOBBY", "address": {"city": "CORPUS CHRISTI", "state": "TX", "street": "809 NUECES BAY BLVD", "postcode": "78469"}}},
{"geometry": {"type": "Point", "coordinates": [-97.4268390147, 27.7979280277]}, "type": "Feature", "properties": {"collection_times": [{"days": "Mon-Sat", "time": "7:00pm"}, {"days": "Sun", "time": "Closed"}], "id": "7846900006", "name": "USPS COLLECTION BOX - PO LOBBY", "address": {"city": "CORPUS CHRISTI", "state": "TX", "street": "809 NUECES BAY BLVD", "postcode": "78469"}}}
]}
