{"type": "FeatureCollection", "features": [
{"geometry": {"type": "Point", "coordinates": [-98.2080115447, 26.2301738909]}, "type": "Feature", "properties": {"collection_times": [{"days": "Mon-Fri", "time": "4:00pm"}, {"days": "Sat", "time": "11:00am"}, {"days": "Sun", "time": "Closed"}], "id": "7850100000", "name": "USPS COLLECTION BOX - BLUE BOX", "address": {"city": "MCALLEN", "state": "TX", "street": "3201 N MCCOLL RD", "postcode": "78501"}}},
{"geometry": {"type": "Point", "coordinates": [-98.2329065047, 26.2000952485]}, "type": "Feature", "properties": {"collection_times": [{"days": "Mon-Fri", "time": "5:30pm"}, {"days": "Sat", "time": "2:00pm"}, {"days": "Sun", "time": "Closed"}], "id": "7850100005", "name": "USPS COLLECTION BOX - BLUE BOX", "address": {"city": "MCALLEN", "state": "TX", "street": "406 S 12TH ST", "postcode": "78501"}}},
{"geometry": {"type": "Point", "coordinates": [-98.2236903887, 26.1915447058]}, "type": "Feature", "properties": {"collection_times": [{"days": "Mon-Sat", "time": "9:15am"}, {"days": "Sun", "time": "Closed"}], "id": "7850100035", "name": "USPS COLLECTION BOX - BLUE BOX", "address": {"city": "MCALLEN", "state": "TX", "street": "240 LINDBERG AVE", "postcode": "78501"}}},
{"geometry": {"type": "Point", "coordinates": [-98.2250779878, 26.2322292846]}, "type": "Feature", "properties": {"collection_times": [{"days": "Mon-Sat", "time": "9:00am"}, {"days": "Sun", "time": "Closed"}], "id": "7850100036", "name": "USPS COLLECTION BOX - BLUE BOX", "address": {"city": "MCALLEN", "state": "TX", "street": "3200 N 10TH ST", "postcode": "78501"}}},
{"geometry": {"type": "Point", "coordinates": [-98.2432043792, 26.2193053741]}, "type": "Feature", "properties": {"collection_times": [{"days": "Mon-Sat", "time": "10:00am"}, {"days": "Sun", "time": "Closed"}], "id": "7850100048", "name": "USPS COLLECTION BOX - BLUE BOX", "address": {"city": "MCALLEN", "state": "TX", "street": "2300 PECAN BLVD", "postcode": "78501"}}},
{"geometry": {"type": "Point", "coordinates": [-98.257133817, 26.2373980452]}, "type": "Feature", "properties": {"collection_times": [{"days": "Mon-Fri", "time": "10:30am"}, {"days": "Sat", "time": "10:00am"}, {"days": "Sun", "time": "Closed"}], "id": "7850100058", "name": "USPS COLLECTION BOX - BLUE BOX", "address": {"city": "MCALLEN", "state": "TX", "street": "3750 W GARDENIA AVE", "postcode": "78501"}}},
{"geometry": {"type": "Point", "coordinates": [-98.2339393405, 26.2067065211]}, "type": "Feature", "properties": {"collection_times": [{"days": "Mon-Fri", "time": "5:00pm"}, {"days": "Sat", "time": "9:00am"}, {"days": "Sun", "time": "Closed"}], "id": "7850100059", "name": "USPS COLLECTION BOX - BLUE BOX", "address": {"city": "MCALLEN", "state": "TX", "street": "320 N MAIN ST", "postcode": "78501"}}},
{"geometry": {"type": "Point", "coordinates": [-98.2231587921, 26.1914137788]}, "type": "Feature", "properties": {"collection_times": [{"days": "Mon-Sat", "time": "9:15am"}, {"days": "Sun", "time": "Closed"}], "id": "7850100061", "name": "USPS COLLECTION BOX - BLUE BOX", "address": {"city": "MCALLEN", "state": "TX", "street": "1200 S COL ROWE BLVD", "postcode": "78501"}}},
{"geometry": {"type": "Point", "coordinates": [-98.2315489034, 26.1943017534]}, "type": "Feature", "properties": {"collection_times": [{"days": "Mon-Fri", "time": "5:00pm"}, {"days": "Sat", "time": "9:30am"}, {"days": "Sun", "time": "Closed"}], "id": "7850100062", "name": "USPS COLLECTION BOX - BLUE BOX", "address": {"city": "MCALLEN", "state": "TX", "street": "1001 S 10TH ST", "postcode": "78501"}}},
{"geometry": {"type": "Point", "coordinates": [-98.2110406255, 26.2156629151]}, "type": "Feature", "properties": {"collection_times": [{"days": "Mon-Fri", "time": "8:00pm"}, {"days": "Sat", "time": "7:00pm"}, {"days": "Sun", "time": "Closed"}], "id": "7850100101", "name": "USPS COLLECTION BOX - PO LOBBY", "address": {"city": "MCALLEN", "state": "TX", "street": "620 E PECAN BLVD", "postcode": "78501"}}},
{"geometry": {"type": "Point", "coordinates": [-98.2110406255, 26.2156629151]}, "type": "Feature", "properties": {"collection_times": [{"days": "Mon-Fri", "time": "8:00pm"}, {"days": "Sat", "time": "7:00pm"}, {"days": "Sun", "time": "Closed"}], "id": "7850100102", "name": "USPS COLLECTION BOX - PO LOBBY", "address": {"city": "MCALLEN", "state": "TX", "street": "620 E PECAN BLVD", "postcode": "78501"}}},
{"geometry": {"type": "Point", "coordinates": [-98.2110406255, 26.2156629151]}, "type": "Feature", "properties": {"collection_times": [{"days": "Mon-Fri", "time": "8:00pm"}, {"days": "Sat", "time": "7:00pm"}, {"days": "Sun", "time": "Closed"}], "id": "7850100103", "name": "USPS COLLECTION BOX - BLUE BOX", "address": {"city": "MCALLEN", "state": "TX", "street": "620 E PECAN BLVD", "postcode": "78501"}}},
{"geometry": {"type": "Point", "coordinates": [-98.2110406255, 26.2156629151]}, "type": "Feature", "properties": {"collection_times": [{"days": "Mon-Fri", "time": "8:00pm"}, {"days": "Sat", "time": "7:00pm"}, {"days": "Sun", "time": "Closed"}], "id": "7850100109", "name": "USPS COLLECTION BOX - PO LOBBY", "address": {"city": "MCALLEN", "state": "TX", "street": "620 E PECAN BLVD", "postcode": "78501"}}},
{"geometry": {"type": "Point", "coordinates": [-98.2579563313, 26.2192950295]}, "type": "Feature", "properties": {"collection_times": [{"days": "Mon-Sat", "time": "1:00pm"}, {"days": "Sun", "time": "Closed"}], "id": "7850100111", "name": "USPS COLLECTION BOX - BLUE BOX", "address": {"city": "MCALLEN", "state": "TX", "street": "3601 PECAN BLVD", "postcode": "78501"}}},
{"geometry": {"type": "Point", "coordinates": [-98.2393062581, 26.2041633823]}, "type": "Feature", "properties": {"collection_times": [{"days": "Mon-Fri", "time": "4:30pm"}, {"days": "Sat", "time": "9:00am"}, {"days": "Sun", "time": "Closed"}], "id": "7850100112", "name": "USPS COLLECTION BOX - BLUE BOX", "address": {"city": "MCALLEN", "state": "TX", "street": "100 S BICENTENNIAL BLVD", "postcode": "78501"}}},
{"geometry": {"type": "Point", "coordinates": [-98.2107011599, 26.2131289212]}, "type": "Feature", "properties": {"collection_times": [{"days": "Mon-Fri", "time": "5:00pm"}, {"days": "Sat", "time": "3:00pm"}, {"days": "Sun", "time": "Closed"}], "id": "7850100120", "name": "USPS COLLECTION BOX - BLUE BOX", "address": {"city": "MCALLEN", "state": "TX", "street": "1400 N MCCOLL RD", "postcode": "78501"}}},
{"geometry": {"type": "Point", "coordinates": [-98.2110406255, 26.2156629151]}, "type": "Feature", "properties": {"collection_times": [{"days": "Mon-Fri", "time": "8:00pm"}, {"days": "Sat", "time": "7:00pm"}, {"days": "Sun", "time": "Closed"}], "id": "7850100121", "name": "USPS COLLECTION BOX - BLUE BOX", "address": {"city": "MCALLEN", "state": "TX", "street": "620 E PECAN BLVD", "postcode": "78501"}}},
{"geometry": {"type": "Point", "coordinates": [-98.2672512994, 26.1522141823]}, "type": "Feature", "properties": {"collection_times": [{"days": "Mon-Fri", "time": "12:30pm"}, {"days": "Sat", "time": "11:00am"}, {"days": "Sun", "time": "Closed"}], "id": "7850300001", "name": "USPS COLLECTION BOX - BLUE BOX", "address": {"city": "MCALLEN", "state": "TX", "street": "6401 S 33RD ST", "postcode": "78503"}}},
{"geometry": {"type": "Point", "coordinates": [-98.2571488969, 26.1507921396]}, "type": "Feature", "properties": {"collection_times": [{"days": "Mon-Sat", "time": "9:15am"}, {"days": "Sun", "time": "Closed"}], "id": "7850300004", "name": "USPS COLLECTION BOX - BLUE BOX", "address": {"city": "MCALLEN", "state": "TX", "street": "2501 W MILITARY HWY", "postcode": "78503"}}},
{"geometry": {"type": "Point", "coordinates": [-98.2492008404, 26.1811351776]}, "type": "Feature", "properties": {"collection_times": [{"days": "Mon-Sat", "time": "9:15am"}, {"days": "Sun", "time": "Closed"}], "id": "7850300009", "name": "USPS COLLECTION BOX - BLUE BOX", "address": {"city": "MCALLEN", "state": "TX", "street": "2620 S 23RD ST", "postcode": "78503"}}},
{"geometry": {"type": "Point", "coordinates": [-98.2207870035, 26.1853572388]}, "type": "Feature", "properties": {"collection_times": [{"days": "Mon-Fri", "time": "4:00pm"}, {"days": "Sat", "time": "11:30am"}, {"days": "Sun", "time": "Closed"}], "id": "7850300013", "name": "USPS COLLECTION BOX - BLUE BOX", "address": {"city": "MCALLEN", "state": "TX", "street": "222 E RIDGE RD", "postcode": "78503"}}},
{"geometry": {"type": "Point", "coordinates": [-98.2397164756, 26.1812634584]}, "type": "Feature", "properties": {"collection_times": [{"days": "Mon-Sat", "time": "10:00am"}, {"days": "Sun", "time": "Closed"}], "id": "7850300014", "name": "USPS COLLECTION BOX - BLUE BOX", "address": {"city": "MCALLEN", "state": "TX", "street": "2500 S BICENTENIAL BLVD", "postcode": "78503"}}},
{"geometry": {"type": "Point", "coordinates": [-98.215883997, 26.1838743801]}, "type": "Feature", "properties": {"collection_times": [{"days": "Mon-Fri", "time": "4:00pm"}, {"days": "Sat", "time": "11:00am"}, {"days": "Sun", "time": "Closed"}], "id": "7850300020", "name": "USPS COLLECTION BOX - BLUE BOX", "address": {"city": "MCALLEN", "state": "TX", "street": "2000 S MCCOLL RD", "postcode": "78503"}}},
{"geometry": {"type": "Point", "coordinates": [-98.2224171946, 26.2485036812]}, "type": "Feature", "properties": {"collection_times": [{"days": "Mon-Fri", "time": "5:00pm"}, {"days": "Sat", "time": "12:30pm"}, {"days": "Sun", "time": "Closed"}], "id": "7850400001", "name": "USPS COLLECTION BOX - BLUE BOX", "address": {"city": "MCALLEN", "state": "TX", "street": "5011 N 10TH ST", "postcode": "78504"}}},
{"geometry": {"type": "Point", "coordinates": [-98.2224171946, 26.2485036812]}, "type": "Feature", "properties": {"collection_times": [{"days": "Mon-Fri", "time": "5:00pm"}, {"days": "Sat", "time": "12:30pm"}, {"days": "Sun", "time": "Closed"}], "id": "7850400002", "name": "USPS COLLECTION BOX - BLUE BOX", "address": {"city": "MCALLEN", "state": "TX", "street": "5011 N 10TH ST", "postcode": "78504"}}},
{"geometry": {"type": "Point", "coordinates": [-98.2221365525, 26.2494078276]}, "type": "Feature", "properties": {"collection_times": [{"days": "Mon-Sat", "time": "10:00am"}, {"days": "Sun", "time": "Closed"}], "id": "7850400003", "name": "USPS COLLECTION BOX - BLUE BOX", "address": {"city": "MCALLEN", "state": "TX", "street": "5120 N 10TH ST", "postcode": "78504"}}},
{"geometry": {"type": "Point", "coordinates": [-98.2363083319, 26.2597652312]}, "type": "Feature", "properties": {"collection_times": [{"days": "Mon-Sat", "time": "11:00am"}, {"days": "Sun", "time": "Closed"}], "id": "7850400011", "name": "USPS COLLECTION BOX - BLUE BOX", "address": {"city": "MCALLEN", "state": "TX", "street": "6313 N 23RD ST", "postcode": "78504"}}},
{"geometry": {"type": "Point", "coordinates": [-98.2167498657, 26.2384974809]}, "type": "Feature", "properties": {"collection_times": [{"days": "Mon-Fri", "time": "4:30pm"}, {"days": "Sat", "time": "10:30am"}, {"days": "Sun", "time": "Closed"}], "id": "7850400012", "name": "USPS COLLECTION BOX - BLUE BOX", "address": {"city": "MCALLEN", "state": "TX", "street": "324 W NOLANA AVE", "postcode": "78504"}}},
{"geometry": {"type": "Point", "coordinates": [-98.227407304, 26.2397428461]}, "type": "Feature", "properties": {"collection_times": [{"days": "Mon-Fri", "time": "4:30pm"}, {"days": "Sat", "time": "11:30am"}, {"days": "Sun", "time": "Closed"}], "id": "7850400013", "name": "USPS COLLECTION BOX - BLUE BOX", "address": {"city": "MCALLEN", "state": "TX", "street": "1111 W NOLANA AVE", "postcode": "78504"}}},
{"geometry": {"type": "Point", "coordinates": [-98.238910183, 26.2430230188]}, "type": "Feature", "properties": {"collection_times": [{"days": "Mon-Fri", "time": "4:00pm"}, {"days": "Sat", "time": "12:30pm"}, {"days": "Sun", "time": "Closed"}], "id": "7850400014", "name": "USPS COLLECTION BOX - BLUE BOX", "address": {"city": "MCALLEN", "state": "TX", "street": "4200 N 23RD ST", "postcode": "78504"}}},
{"geometry": {"type": "Point", "coordinates": [-98.2047682517, 26.2491684027]}, "type": "Feature", "properties": {"collection_times": [{"days": "Mon-Sat", "time": "10:30am"}, {"days": "Sun", "time": "Closed"}], "id": "7850400018", "name": "USPS COLLECTION BOX - BLUE BOX", "address": {"city": "MCALLEN", "state": "TX", "street": "5401 N MCCOLL RD", "postcode": "78504"}}},
{"geometry": {"type": "Point", "coordinates": [-98.2435469071, 26.266827979]}, "type": "Feature", "properties": {"collection_times": [{"days": "Mon-Fri", "time": "10:00am"}, {"days": "Sat", "time": "12:00pm"}, {"days": "Sun", "time": "Closed"}], "id": "7850400019", "name": "USPS COLLECTION BOX - BLUE BOX", "address": {"city": "MCALLEN", "state": "TX", "street": "2900 PELICAN AVE", "postcode": "78504"}}},
{"geometry": {"type": "Point", "coordinates": [-98.2170028076, 26.2677256059]}, "type": "Feature", "properties": {"collection_times": [{"days": "Mon-Sat", "time": "3:00pm"}, {"days": "Sun", "time": "Closed"}], "id": "7850400025", "name": "USPS COLLECTION BOX - BLUE BOX", "address": {"city": "MCALLEN", "state": "TX", "street": "901 TRENTON RD", "postcode": "78504"}}},
{"geometry": {"type": "Point", "coordinates": [-98.2330978078, 26.2625334569]}, "type": "Feature", "properties": {"collection_times": [{"days": "Mon-Fri", "time": "4:00pm"}, {"days": "Sat", "time": "9:30am"}, {"days": "Sun", "time": "Closed"}], "id": "7850400026", "name": "USPS COLLECTION BOX - BLUE BOX", "address": {"city": "MCALLEN", "state": "TX", "street": "3700 BUDDY OWENS AVE", "postcode": "78504"}}},
{"geometry": {"type": "Point", "coordinates": [-98.1310013899, 26.1921275089]}, "type": "Feature", "properties": {"collection_times": [{"days": "Mon-Sat", "time": "10:30am"}, {"days": "Sun", "time": "Closed"}], "id": "7851600000", "name": "USPS COLLECTION BOX - BLUE BOX", "address": {"city": "ALAMO", "state": "TX", "street": "1211 W FRONTAGE RD", "postcode": "78516"}}},
{"geometry": {"type": "Point", "coordinates": [-98.1139152039, 26.1886900297]}, "type": "Feature", "properties": {"collection_times": [{"days": "Mon-Fri", "time": "4:30pm"}, {"days": "Sat", "time": "11:15am"}, {"days": "Sun", "time": "Closed"}], "id": "7851600001", "name": "USPS COLLECTION BOX - PO LOBBY", "address": {"city": "ALAMO", "state": "TX", "street": "423 LOS ALAMOS DR", "postcode": "78516"}}},
{"geometry": {"type": "Point", "coordinates": [-98.1188853866, 26.2086327329]}, "type": "Feature", "properties": {"collection_times": [{"days": "Mon-Sat", "time": "9:30am"}, {"days": "Sun", "time": "Closed"}], "id": "7851600002", "name": "USPS COLLECTION BOX - BLUE BOX", "address": {"city": "ALAMO", "state": "TX", "street": "1048 N ALAMO RD", "postcode": "78516"}}},
{"geometry": {"type": "Point", "coordinates": [-98.1154698189, 26.1867131109]}, "type": "Feature", "properties": {"collection_times": [{"days": "Mon-Sat", "time": "9:45am"}, {"days": "Sun", "time": "Closed"}], "id": "7851600003", "name": "USPS COLLECTION BOX - BLUE BOX", "address": {"city": "ALAMO", "state": "TX", "street": "800 FM 495", "postcode": "78516"}}},
{"geometry": {"type": "Point", "coordinates": [-98.1154698189, 26.1867131109]}, "type": "Feature", "properties": {"collection_times": [{"days": "Mon-Sat", "time": "9:30am"}, {"days": "Sun", "time": "Closed"}], "id": "7851600004", "name": "USPS COLLECTION BOX - BLUE BOX", "address": {"city": "ALAMO", "state": "TX", "street": "600 FM 495", "postcode": "78516"}}},
{"geometry": {"type": "Point", "coordinates": [-98.1139152039, 26.1886900297]}, "type": "Feature", "properties": {"collection_times": [{"days": "Mon-Sat", "time": "9:15am"}, {"days": "Sun", "time": "Closed"}], "id": "7851600005", "name": "USPS COLLECTION BOX - BLUE BOX", "address": {"city": "ALAMO", "state": "TX", "street": "1018 EL PASEO DR", "postcode": "78516"}}},
{"geometry": {"type": "Point", "coordinates": [-98.1154698189, 26.1867131109]}, "type": "Feature", "properties": {"collection_times": [{"days": "Mon-Sat", "time": "10:00am"}, {"days": "Sun", "time": "Closed"}], "id": "7851600006", "name": "USPS COLLECTION BOX - BLUE BOX", "address": {"city": "ALAMO", "state": "TX", "street": "1203 COLORADO ST", "postcode": "78516"}}},
{"geometry": {"type": "Point", "coordinates": [-98.1139152039, 26.1886900297]}, "type": "Feature", "properties": {"collection_times": [{"days": "Mon-Fri", "time": "4:30pm"}, {"days": "Sat", "time": "11:15am"}, {"days": "Sun", "time": "Closed"}], "id": "7851600007", "name": "USPS COLLECTION BOX - BLUE BOX", "address": {"city": "ALAMO", "state": "TX", "street": "423 LOS ALAMOS DR", "postcode": "78516"}}},
{"geometry": {"type": "Point", "coordinates": [-98.1139152039, 26.1886900297]}, "type": "Feature", "properties": {"collection_times": [{"days": "Mon-Fri", "time": "4:30pm"}, {"days": "Sat", "time": "11:15am"}, {"days": "Sun", "time": "Closed"}], "id": "7851600008", "name": "USPS COLLECTION BOX - BLUE BOX", "address": {"city": "ALAMO", "state": "TX", "street": "423 LOS ALAMOS DR", "postcode": "78516"}}},
{"geometry": {"type": "Point", "coordinates": [-98.1139152039, 26.1886900297]}, "type": "Feature", "properties": {"collection_times": [{"days": "Mon-Fri", "time": "4:30pm"}, {"days": "Sat", "time": "11:15am"}, {"days": "Sun", "time": "Closed"}], "id": "7851600010", "name": "USPS COLLECTION BOX - PO LOBBY", "address": {"city": "ALAMO", "state": "TX", "street": "423 LOS ALAMOS DR", "postcode": "78516"}}},
{"geometry": {"type": "Point", "coordinates": [-98.112685629, 26.1874501163]}, "type": "Feature", "properties": {"collection_times": [{"days": "Mon-Sat", "time": "9:00am"}, {"days": "Sun", "time": "Closed"}], "id": "7851600011", "name": "USPS COLLECTION BOX - BLUE BOX", "address": {"city": "ALAMO", "state": "TX", "street": "441 E DURANTA AVE", "postcode": "78516"}}},
{"geometry": {"type": "Point", "coordinates": [-98.1079250782, 26.2012208664]}, "type": "Feature", "properties": {"collection_times": [{"days": "Mon-Sat", "time": "11:30am"}, {"days": "Sun", "time": "Closed"}], "id": "7851600012", "name": "USPS COLLECTION BOX - BLUE BOX", "address": {"city": "ALAMO", "state": "TX", "street": "920 N TOWER RD", "postcode": "78516"}}},
{"geometry": {"type": "Point", "coordinates": [-98.1319403867, 26.1929854562]}, "type": "Feature", "properties": {"collection_times": [{"days": "Mon-Sat", "time": "10:30am"}, {"days": "Sun", "time": "Closed"}], "id": "7851600016", "name": "USPS COLLECTION BOX - BLUE BOX", "address": {"city": "ALAMO", "state": "TX", "street": "1320 W FRONTAGE RD", "postcode": "78516"}}},
{"geometry": {"type": "Point", "coordinates": [-98.1154698189, 26.1867131109]}, "type": "Feature", "properties": {"collection_times": [{"days": "Mon-Sat", "time": "10:45am"}, {"days": "Sun", "time": "Closed"}], "id": "7851600018", "name": "USPS COLLECTION BOX - BLUE BOX", "address": {"city": "ALAMO", "state": "TX", "street": "1100 E FRONTAGE RD", "postcode": "78516"}}},
{"geometry": {"type": "Point", "coordinates": [-97.4930923289, 25.8997066989]}, "type": "Feature", "properties": {"collection_times": [{"days": "Mon-Fri", "time": "4:00pm"}, {"days": "Sat-Sun", "time": "Closed"}], "id": "7852000002", "name": "USPS COLLECTION BOX - BLUE BOX", "address": {"city": "BROWNSVILLE", "state": "TX", "street": "1825 MAY ST", "postcode": "78520"}}},
{"geometry": {"type": "Point", "coordinates": [-97.511011862, 25.9284692057]}, "type": "Feature", "properties": {"collection_times": [{"days": "Mon-Fri", "time": "3:00pm"}, {"days": "Sat", "time": "2:00pm"}, {"days": "Sun", "time": "Closed"}], "id": "7852000025", "name": "USPS COLLECTION BOX - BLUE BOX", "address": {"city": "BROWNSVILLE", "state": "TX", "street": "1624 CENTRAL BLVD", "postcode": "78520"}}},
{"geometry": {"type": "Point", "coordinates": [-97.4993695034, 25.9315923058]}, "type": "Feature", "properties": {"collection_times": [{"days": "Mon-Fri", "time": "5:30pm"}, {"days": "Sat", "time": "3:00pm"}, {"days": "Sun", "time": "Closed"}], "id": "7852000048", "name": "USPS COLLECTION BOX - BLUE BOX", "address": {"city": "BROWNSVILLE", "state": "TX", "street": "1535 E LOS EBANOS BLVD", "postcode": "78520"}}},
{"geometry": {"type": "Point", "coordinates": [-97.4993695034, 25.9315923058]}, "type": "Feature", "properties": {"collection_times": [{"days": "Mon-Fri", "time": "5:30pm"}, {"days": "Sat", "time": "3:00pm"}, {"days": "Sun", "time": "Closed"}], "id": "7852000049", "name": "USPS COLLECTION BOX - BLUE BOX", "address": {"city": "BROWNSVILLE", "state": "TX", "street": "1535 E LOS EBANOS BLVD", "postcode": "78520"}}},
{"geometry": {"type": "Point", "coordinates": [-97.4993695034, 25.9315923058]}, "type": "Feature", "properties": {"collection_times": [{"days": "Mon-Fri", "time": "5:45pm"}, {"days": "Sat", "time": "3:00pm"}, {"days": "Sun", "time": "Closed"}], "id": "7852000051", "name": "USPS COLLECTION BOX - PO LOBBY", "address": {"city": "BROWNSVILLE", "state": "TX", "street": "1535 E LOS EBANOS BLVD", "postcode": "78520"}}},
{"geometry": {"type": "Point", "coordinates": [-97.4993695034, 25.9315923058]}, "type": "Feature", "properties": {"collection_times": [{"days": "Mon-Fri", "time": "5:45pm"}, {"days": "Sat", "time": "3:00pm"}, {"days": "Sun", "time": "Closed"}], "id": "7852000052", "name": "USPS COLLECTION BOX - PO LOBBY", "address": {"city": "BROWNSVILLE", "state": "TX", "street": "1535 E LOS EBANOS BLVD", "postcode": "78520"}}},
{"geometry": {"type": "Point", "coordinates": [-97.5010994109, 25.914076808]}, "type": "Feature", "properties": {"collection_times": [{"days": "Mon-Fri", "time": "3:15pm"}, {"days": "Sat-Sun", "time": "Closed"}], "id": "7852000054", "name": "USPS COLLECTION BOX - BLUE BOX", "address": {"city": "BROWNSVILLE", "state": "TX", "street": "1400 PALM BLVD", "postcode": "78520"}}},
{"geometry": {"type": "Point", "coordinates": [-97.4995202966, 25.9024544576]}, "type": "Feature", "properties": {"collection_times": [{"days": "Mon-Fri", "time": "4:00pm"}, {"days": "Sat", "time": "2:00pm"}, {"days": "Sun", "time": "Closed"}], "id": "7852000059", "name": "USPS COLLECTION BOX - PO LOBBY", "address": {"city": "BROWNSVILLE", "state": "TX", "street": "1001 E ELIZABETH ST", "postcode": "78520"}}},
{"geometry": {"type": "Point", "coordinates": [-97.4995202966, 25.9024544576]}, "type": "Feature", "properties": {"collection_times": [{"days": "Mon-Fri", "time": "4:00pm"}, {"days": "Sat", "time": "2:00pm"}, {"days": "Sun", "time": "Closed"}], "id": "7852000060", "name": "USPS COLLECTION BOX - PO LOBBY", "address": {"city": "BROWNSVILLE", "state": "TX", "street": "1001 E ELIZABETH ST", "postcode": "78520"}}},
{"geometry": {"type": "Point", "coordinates": [-97.5090393946, 25.9374071144]}, "type": "Feature", "properties": {"collection_times": [{"days": "Mon-Fri", "time": "3:00pm"}, {"days": "Sat-Sun", "time": "Closed"}], "id": "7852000065", "name": "USPS COLLECTION BOX - BLUE BOX", "address": {"city": "BROWNSVILLE", "state": "TX", "street": "844 W PRICE RD", "postcode": "78520"}}},
{"geometry": {"type": "Point", "coordinates": [-97.4993695034, 25.9315923058]}, "type": "Feature", "properties": {"collection_times": [{"days": "Mon-Fri", "time": "5:45pm"}, {"days": "Sat", "time": "3:00pm"}, {"days": "Sun", "time": "Closed"}], "id": "7852000067", "name": "USPS COLLECTION BOX - APC", "address": {"city": "BROWNSVILLE", "state": "TX", "street": "1535 E LOS EBANOS BLVD", "postcode": "78520"}}},
{"geometry": {"type": "Point", "coordinates": [-97.4589280867, 25.9180910776]}, "type": "Feature", "properties": {"collection_times": [{"days": "Mon-Fri", "time": "4:30pm"}, {"days": "Sat-Sun", "time": "Closed"}], "id": "7852100013", "name": "USPS COLLECTION BOX - BLUE BOX", "address": {"city": "BROWNSVILLE", "state": "TX", "street": "3775 BOCA CHICA BLVD", "postcode": "78521"}}},
{"geometry": {"type": "Point", "coordinates": [-97.4639028235, 25.9198745709]}, "type": "Feature", "properties": {"collection_times": [{"days": "Mon-Fri", "time": "4:30pm"}, {"days": "Sat-Sun", "time": "Closed"}], "id": "7852100026", "name": "USPS COLLECTION BOX - BLUE BOX", "address": {"city": "BROWNSVILLE", "state": "TX", "street": "3505 BOCA CHICA BLVD", "postcode": "78521"}}},
{"geometry": {"type": "Point", "coordinates": [-97.4620043804, 25.929628649]}, "type": "Feature", "properties": {"collection_times": [{"days": "Mon-Fri", "time": "5:15pm"}, {"days": "Sat-Sun", "time": "Closed"}], "id": "7852100029", "name": "USPS COLLECTION BOX - BLUE BOX", "address": {"city": "BROWNSVILLE", "state": "TX", "street": "1900 E PRICE RD", "postcode": "78521"}}},
{"geometry": {"type": "Point", "coordinates": [-97.462516073, 25.9058904371]}, "type": "Feature", "properties": {"collection_times": [{"days": "Mon-Fri", "time": "4:15pm"}, {"days": "Sat", "time": "2:15pm"}, {"days": "Sun", "time": "Closed"}], "id": "7852100033", "name": "USPS COLLECTION BOX - BLUE BOX", "address": {"city": "BROWNSVILLE", "state": "TX", "street": "2950 SOUTHMOST RD", "postcode": "78521"}}},
{"geometry": {"type": "Point", "coordinates": [-97.4872044739, 25.9220128225]}, "type": "Feature", "properties": {"collection_times": [{"days": "Mon-Fri", "time": "3:15pm"}, {"days": "Sat", "time": "2:00pm"}, {"days": "Sun", "time": "Closed"}], "id": "7852100051", "name": "USPS COLLECTION BOX - BLUE BOX", "address": {"city": "BROWNSVILLE", "state": "TX", "street": "2250 BOCA CHICA BLVD", "postcode": "78521"}}},
{"geometry": {"type": "Point", "coordinates": [-97.4782918299, 25.9084514422]}, "type": "Feature", "properties": {"collection_times": [{"days": "Mon-Fri", "time": "4:00pm"}, {"days": "Sat", "time": "2:15pm"}, {"days": "Sun", "time": "Closed"}], "id": "7852100056", "name": "USPS COLLECTION BOX - BLUE BOX", "address": {"city": "BROWNSVILLE", "state": "TX", "street": "2814 INTERNATIONAL BLVD", "postcode": "78521"}}},
{"geometry": {"type": "Point", "coordinates": [-97.4869278206, 25.9506565691]}, "type": "Feature", "properties": {"collection_times": [{"days": "Mon-Fri", "time": "5:00pm"}, {"days": "Sat", "time": "2:30pm"}, {"days": "Sun", "time": "Closed"}], "id": "7852100058", "name": "USPS COLLECTION BOX - BLUE BOX", "address": {"city": "BROWNSVILLE", "state": "TX", "street": "2155 PAREDES LINE RD", "postcode": "78521"}}},
{"geometry": {"type": "Point", "coordinates": [-97.4898495016, 25.9513011584]}, "type": "Feature", "properties": {"collection_times": [{"days": "Mon-Fri", "time": "5:00pm"}, {"days": "Sat-Sun", "time": "Closed"}], "id": "7852100059", "name": "USPS COLLECTION BOX - BLUE BOX", "address": {"city": "BROWNSVILLE", "state": "TX", "street": "1805 RUBEN TORRES SR BLVD", "postcode": "78521"}}},
{"geometry": {"type": "Point", "coordinates": [-97.7316203182, 26.2485050787]}, "type": "Feature", "properties": {"collection_times": [{"days": "Mon-Fri", "time": "5:30pm"}, {"days": "Sat", "time": "4:00pm"}, {"days": "Sun", "time": "Closed"}], "id": "7853500000", "name": "USPS COLLECTION BOX - BLUE BOX", "address": {"city": "COMBES", "state": "TX", "street": "21659 S BUSINESS HIGHWAY 77", "postcode": "78535"}}},
{"geometry": {"type": "Point", "coordinates": [-97.7316203182, 26.2485050787]}, "type": "Feature", "properties": {"collection_times": [{"days": "Mon-Fri", "time": "4:00pm"}, {"days": "Sat", "time": "9:00am"}, {"days": "Sun", "time": "Closed"}], "id": "7853500001", "name": "USPS COLLECTION BOX - PO LOBBY", "address": {"city": "COMBES", "state": "TX", "street": "21659 S BUSINESS HIGHWAY 77", "postcode": "78535"}}},
{"geometry": {"type": "Point", "coordinates": [-98.409309603, 26.6808142075]}, "type": "Feature", "properties": {"collection_times": [{"days": "Mon-Fri", "time": "2:00pm"}, {"days": "Sat", "time": "10:45am"}, {"days": "Sun", "time": "Closed"}], "id": "7853600000", "name": "USPS COLLECTION BOX - BLUE BOX", "address": {"city": "DELMITA", "state": "TX", "street": "124 DELMITA RD", "postcode": "78536"}}},
{"geometry": {"type": "Point", "coordinates": [-98.409309603, 26.6808142075]}, "type": "Feature", "properties": {"collection_times": [{"days": "Mon-Fri", "time": "2:00pm"}, {"days": "Sat", "time": "10:45am"}, {"days": "Sun", "time": "Closed"}], "id": "7853600002", "name": "USPS COLLECTION BOX - PO LOBBY", "address": {"city": "DELMITA", "state": "TX", "street": "124 DELMITA RD", "postcode": "78536"}}},
{"geometry": {"type": "Point", "coordinates": [-98.05235, 26.184002]}, "type": "Feature", "properties": {"collection_times": [{"days": "Mon-Sat", "time": "9:00am"}, {"days": "Sun", "time": "Closed"}], "id": "7853700000", "name": "USPS COLLECTION BOX - BLUE BOX", "address": {"city": "DONNA", "state": "TX", "street": "3707 E BUS HIGHWAY 83", "postcode": "78537"}}},
{"geometry": {"type": "Point", "coordinates": [-98.0604414638, 26.1742916806]}, "type": "Feature", "properties": {"collection_times": [{"days": "Mon-Sat", "time": "12:00pm"}, {"days": "Sun", "time": "Closed"}], "id": "7853700001", "name": "USPS COLLECTION BOX - BLUE BOX", "address": {"city": "DONNA", "state": "TX", "street": "310 HESTER AVE", "postcode": "78537"}}},
{"geometry": {"type": "Point", "coordinates": [-98.0553603074, 26.1693623913]}, "type": "Feature", "properties": {"collection_times": [{"days": "Mon-Sat", "time": "10:00am"}, {"days": "Sun", "time": "Closed"}], "id": "7853700002", "name": "USPS COLLECTION BOX - BLUE BOX", "address": {"city": "DONNA", "state": "TX", "street": "813 MILLER AVE", "postcode": "78537"}}},
{"geometry": {"type": "Point", "coordinates": [-98.0832347206, 26.1772891384]}, "type": "Feature", "properties": {"collection_times": [{"days": "Mon-Sat", "time": "9:00am"}, {"days": "Sun", "time": "Closed"}], "id": "7853700003", "name": "USPS COLLECTION BOX - BLUE BOX", "address": {"city": "DONNA", "state": "TX", "street": "200 N VAL VERDE RD", "postcode": "78537"}}},
{"geometry": {"type": "Point", "coordinates": [-98.082928687, 26.1791158852]}, "type": "Feature", "properties": {"collection_times": [{"days": "Mon-Sat", "time": "9:00am"}, {"days": "Sun", "time": "Closed"}], "id": "7853700004", "name": "USPS COLLECTION BOX - BLUE BOX", "address": {"city": "DONNA", "state": "TX", "street": "400 N VAL VERDE RD", "postcode": "78537"}}},
{"geometry": {"type": "Point", "coordinates": [-98.041866411, 26.1763889]}, "type": "Feature", "properties": {"collection_times": [{"days": "Mon-Fri", "time": "4:45pm"}, {"days": "Sat", "time": "1:00pm"}, {"days": "Sun", "time": "Closed"}], "id": "7853700006", "name": "USPS COLLECTION BOX - PO LOBBY", "address": {"city": "DONNA", "state": "TX", "street": "509 N SALINAS BLVD", "postcode": "78537"}}},
{"geometry": {"type": "Point", "coordinates": [-98.041866411, 26.1763889]}, "type": "Feature", "properties": {"collection_times": [{"days": "Mon-Fri", "time": "4:45pm"}, {"days": "Sat", "time": "1:00pm"}, {"days": "Sun", "time": "Closed"}], "id": "7853700007", "name": "USPS COLLECTION BOX - PO LOBBY", "address": {"city": "DONNA", "state": "TX", "street": "509 N SALINAS BLVD", "postcode": "78537"}}},
{"geometry": {"type": "Point", "coordinates": [-98.0305042607, 26.1656406337]}, "type": "Feature", "properties": {"collection_times": [{"days": "Mon-Sat", "time": "9:00am"}, {"days": "Sun", "time": "Closed"}], "id": "7853700008", "name": "USPS COLLECTION BOX - BLUE BOX", "address": {"city": "DONNA", "state": "TX", "street": "602 N VICTORIA RD", "postcode": "78537"}}},
{"geometry": {"type": "Point", "coordinates": [-98.0339381911, 26.1661641065]}, "type": "Feature", "properties": {"collection_times": [{"days": "Mon-Sat", "time": "9:00am"}, {"days": "Sun", "time": "Closed"}], "id": "7853700009", "name": "USPS COLLECTION BOX - BLUE BOX", "address": {"city": "DONNA", "state": "TX", "street": "208 S 29TH ST", "postcode": "78537"}}},
{"geometry": {"type": "Point", "coordinates": [-98.041866411, 26.1763889]}, "type": "Feature", "properties": {"collection_times": [{"days": "Mon-Fri", "time": "4:45pm"}, {"days": "Sat", "time": "1:00pm"}, {"days": "Sun", "time": "Closed"}], "id": "7853700010", "name": "USPS COLLECTION BOX - BLUE BOX", "address": {"city": "DONNA", "state": "TX", "street": "509 N SALINAS BLVD", "postcode": "78537"}}},
{"geometry": {"type": "Point", "coordinates": [-98.0596582583, 26.1770480896]}, "type": "Feature", "properties": {"collection_times": [{"days": "Mon-Sat", "time": "12:00pm"}, {"days": "Sun", "time": "Closed"}], "id": "7853700011", "name": "USPS COLLECTION BOX - BLUE BOX", "address": {"city": "DONNA", "state": "TX", "street": "310 SCOBEY AVE", "postcode": "78537"}}},
{"geometry": {"type": "Point", "coordinates": [-98.0662890695, 26.1529629697]}, "type": "Feature", "properties": {"collection_times": [{"days": "Mon-Sat", "time": "9:00am"}, {"days": "Sun", "time": "Closed"}], "id": "7853700012", "name": "USPS COLLECTION BOX - BLUE BOX", "address": {"city": "DONNA", "state": "TX", "street": "900 N SALINAS BLVD", "postcode": "78537"}}},
{"geometry": {"type": "Point", "coordinates": [-98.0463042647, 26.1804201155]}, "type": "Feature", "properties": {"collection_times": [{"days": "Mon-Sat", "time": "9:00am"}, {"days": "Sun", "time": "Closed"}], "id": "7853700013", "name": "USPS COLLECTION BOX - BLUE BOX", "address": {"city": "DONNA", "state": "TX", "street": "1051 W US HIGHWAY 83", "postcode": "78537"}}},
{"geometry": {"type": "Point", "coordinates": [-97.9882393679, 26.3458142229]}, "type": "Feature", "properties": {"collection_times": [{"days": "Mon-Sat", "time": "5:00pm"}, {"days": "Sun", "time": "Closed"}], "id": "7853800000", "name": "USPS COLLECTION BOX - BLUE BOX", "address": {"city": "EDCOUCH", "state": "TX", "street": "420 W SANTA ROSA AVE", "postcode": "78538"}}},
{"geometry": {"type": "Point", "coordinates": [-97.9643129273, 26.2938284723]}, "type": "Feature", "properties": {"collection_times": [{"days": "Mon-Fri", "time": "4:15pm"}, {"days": "Sat", "time": "11:00am"}, {"days": "Sun", "time": "Closed"}], "id": "7853800001", "name": "USPS COLLECTION BOX - PO LOBBY", "address": {"city": "EDCOUCH", "state": "TX", "street": "420 W SANTA ROSA AVE", "postcode": "78538"}}},
{"geometry": {"type": "Point", "coordinates": [-98.1864949042, 26.3031746781]}, "type": "Feature", "properties": {"collection_times": [{"days": "Mon-Sat", "time": "5:30pm"}, {"days": "Sun", "time": "Closed"}], "id": "7853900000", "name": "USPS COLLECTION BOX - BLUE BOX", "address": {"city": "EDINBURG", "state": "TX", "street": "410 S JACKSON RD", "postcode": "78539"}}},
{"geometry": {"type": "Point", "coordinates": [-98.1864949042, 26.3031746781]}, "type": "Feature", "properties": {"collection_times": [{"days": "Mon-Sat", "time": "5:30pm"}, {"days": "Sun", "time": "Closed"}], "id": "7853900001", "name": "USPS COLLECTION BOX - BLUE BOX", "address": {"city": "EDINBURG", "state": "TX", "street": "410 S JACKSON RD", "postcode": "78539"}}},
{"geometry": {"type": "Point", "coordinates": [-98.1935837638, 26.290954262]}, "type": "Feature", "properties": {"collection_times": [{"days": "Mon-Fri", "time": "3:30pm"}, {"days": "Sat", "time": "11:00am"}, {"days": "Sun", "time": "Closed"}], "id": "7853900002", "name": "USPS COLLECTION BOX - BLUE BOX", "address": {"city": "EDINBURG", "state": "TX", "street": "2700 W FREDDY GONZALEZ DR", "postcode": "78539"}}},
{"geometry": {"type": "Point", "coordinates": [-98.1524645227, 26.3000743557]}, "type": "Feature", "properties": {"collection_times": [{"days": "Mon-Fri", "time": "1:00pm"}, {"days": "Sat", "time": "12:00pm"}, {"days": "Sun", "time": "Closed"}], "id": "7853900004", "name": "USPS COLLECTION BOX - BLUE BOX", "address": {"city": "EDINBURG", "state": "TX", "street": "1001 E UNIVERSITY DR", "postcode": "78539"}}},
{"geometry": {"type": "Point", "coordinates": [-98.1653970857, 26.2908405665]}, "type": "Feature", "properties": {"collection_times": [{"days": "Mon-Fri", "time": "3:00pm"}, {"days": "Sat", "time": "1:00pm"}, {"days": "Sun", "time": "Closed"}], "id": "7853900009", "name": "USPS COLLECTION BOX - BLUE BOX", "address": {"city": "EDINBURG", "state": "TX", "street": "1200 S 10TH AVE", "postcode": "78539"}}},
{"geometry": {"type": "Point", "coordinates": [-98.1642223606, 26.2904293303]}, "type": "Feature", "properties": {"collection_times": [{"days": "Mon-Fri", "time": "3:00pm"}, {"days": "Sat", "time": "9:00am"}, {"days": "Sun", "time": "Closed"}], "id": "7853900013", "name": "USPS COLLECTION BOX - BLUE BOX", "address": {"city": "EDINBURG", "state": "TX", "street": "1212 S CLOSNER BLVD", "postcode": "78539"}}},
{"geometry": {"type": "Point", "coordinates": [-98.163166751, 26.2963796753]}, "type": "Feature", "properties": {"collection_times": [{"days": "Mon-Fri", "time": "3:00pm"}, {"days": "Sat", "time": "9:30am"}, {"days": "Sun", "time": "Closed"}], "id": "7853900017", "name": "USPS COLLECTION BOX - BLUE BOX", "address": {"city": "EDINBURG", "state": "TX", "street": "600 S CLOSNER BLVD", "postcode": "78539"}}},
{"geometry": {"type": "Point", "coordinates": [-98.1864949042, 26.3031746781]}, "type": "Feature", "properties": {"collection_times": [{"days": "Mon-Sat", "time": "5:30pm"}, {"days": "Sun", "time": "Closed"}], "id": "7853900024", "name": "USPS COLLECTION BOX - PO LOBBY", "address": {"city": "EDINBURG", "state": "TX", "street": "410 S JACKSON RD", "postcode": "78539"}}},
{"geometry": {"type": "Point", "coordinates": [-98.183927227, 26.2805125234]}, "type": "Feature", "properties": {"collection_times": [{"days": "Mon-Fri", "time": "3:00pm"}, {"days": "Sat", "time": "9:00am"}, {"days": "Sun", "time": "Closed"}], "id": "7853900027", "name": "USPS COLLECTION BOX - BLUE BOX", "address": {"city": "EDINBURG", "state": "TX", "street": "2510 S VETERANS BLVD", "postcode": "78539"}}},
{"geometry": {"type": "Point", "coordinates": [-98.1987673747, 26.2640995286]}, "type": "Feature", "properties": {"collection_times": [{"days": "Mon-Fri", "time": "3:30pm"}, {"days": "Sat", "time": "9:00am"}, {"days": "Sun", "time": "Closed"}], "id": "7853900028", "name": "USPS COLLECTION BOX - BLUE BOX", "address": {"city": "EDINBURG", "state": "TX", "street": "2700 CORNERSTONE BLVD", "postcode": "78539"}}},
{"geometry": {"type": "Point", "coordinates": [-98.2049104977, 26.2590134683]}, "type": "Feature", "properties": {"collection_times": [{"days": "Mon-Fri", "time": "3:30pm"}, {"days": "Sat", "time": "9:00am"}, {"days": "Sun", "time": "Closed"}], "id": "7853900029", "name": "USPS COLLECTION BOX - BLUE BOX", "address": {"city": "EDINBURG", "state": "TX", "street": "3400 W ALBERTA RD", "postcode": "78539"}}},
{"geometry": {"type": "Point", "coordinates": [-98.1606973096, 26.301162422]}, "type": "Feature", "properties": {"collection_times": [{"days": "Mon-Fri", "time": "3:30pm"}, {"days": "Sat", "time": "9:00am"}, {"days": "Sun", "time": "Closed"}], "id": "7853900030", "name": "USPS COLLECTION BOX - BLUE BOX", "address": {"city": "EDINBURG", "state": "TX", "street": "1 PASEO DEL PRADO AVE", "postcode": "78539"}}},
{"geometry": {"type": "Point", "coordinates": [-98.1608963944, 26.284390854]}, "type": "Feature", "properties": {"collection_times": [{"days": "Mon-Fri", "time": "1:00pm"}, {"days": "Sat", "time": "10:00am"}, {"days": "Sun", "time": "Closed"}], "id": "7853900034", "name": "USPS COLLECTION BOX - BLUE BOX", "address": {"city": "EDINBURG", "state": "TX", "street": "1700 ORANGE ST", "postcode": "78539"}}},
{"geometry": {"type": "Point", "coordinates": [-98.1864949042, 26.3031746781]}, "type": "Feature", "properties": {"collection_times": [{"days": "Mon-Sat", "time": "5:30pm"}, {"days": "Sun", "time": "Closed"}], "id": "7853900035", "name": "USPS COLLECTION BOX - PO LOBBY", "address": {"city": "EDINBURG", "state": "TX", "street": "410 S JACKSON RD", "postcode": "78539"}}},
{"geometry": {"type": "Point", "coordinates": [-98.1864949042, 26.3031746781]}, "type": "Feature", "properties": {"collection_times": [{"days": "Mon-Sat", "time": "5:00pm"}, {"days": "Sun", "time": "Closed"}], "id": "7853900037", "name": "USPS COLLECTION BOX - APC", "address": {"city": "EDINBURG", "state": "TX", "street": "410 S JACKSON RD", "postcode": "78539"}}},
{"geometry": {"type": "Point", "coordinates": [-99.3330489019, 31.4627353752]}, "type": "Feature", "properties": {"collection_times": [{"days": "Mon-Fri", "time": "3:00pm"}, {"days": "Sat", "time": "9:00am"}, {"days": "Sun", "time": "Closed"}], "id": "7853900039", "name": "USPS COLLECTION BOX - BLUE BOX", "address": {"city": "EDINBURG", "state": "TX", "street": "415 W UNIVERSITY DR", "postcode": "78539"}}},
{"geometry": {"type": "Point", "coordinates": [-97.9829460517, 26.2936473749]}, "type": "Feature", "properties": {"collection_times": [{"days": "Mon-Sat", "time": "5:30pm"}, {"days": "Sun", "time": "Closed"}], "id": "7854300000", "name": "USPS COLLECTION BOX - BLUE BOX", "address": {"city": "ELSA", "state": "TX", "street": "706 E EDINBURG AVE", "postcode": "78543"}}},
{"geometry": {"type": "Point", "coordinates": [-97.9829460517, 26.2936473749]}, "type": "Feature", "properties": {"collection_times": [{"days": "Mon-Fri", "time": "4:00pm"}, {"days": "Sat", "time": "11:00am"}, {"days": "Sun", "time": "Closed"}], "id": "7854300001", "name": "USPS COLLECTION BOX - PO LOBBY", "address": {"city": "ELSA", "state": "TX", "street": "706 E EDINBURG AVE", "postcode": "78543"}}},
{"geometry": {"type": "Point", "coordinates": [-97.9829460517, 26.2936473749]}, "type": "Feature", "properties": {"collection_times": [{"days": "Mon-Fri", "time": "4:00pm"}, {"days": "Sat", "time": "11:00am"}, {"days": "Sun", "time": "Closed"}], "id": "7854300002", "name": "USPS COLLECTION BOX - PO LOBBY", "address": {"city": "ELSA", "state": "TX", "street": "706 E EDINBURG AVE", "postcode": "78543"}}},
{"geometry": {"type": "Point", "coordinates": [-99.1250552189, 26.5650474548]}, "type": "Feature", "properties": {"collection_times": [{"days": "Mon-Fri", "time": "11:15am"}, {"days": "Sat", "time": "10:45am"}, {"days": "Sun", "time": "Closed"}], "id": "7854500000", "name": "USPS COLLECTION BOX - BLUE BOX", "address": {"city": "FALCON HEIGHTS", "state": "TX", "street": "582 FM 2098", "postcode": "78545"}}},
{"geometry": {"type": "Point", "coordinates": [-99.1250552189, 26.5650474548]}, "type": "Feature", "properties": {"collection_times": [{"days": "Mon-Fri", "time": "11:15am"}, {"days": "Sat-Sun", "time": "Closed"}], "id": "7854500001", "name": "USPS COLLECTION BOX - PO LOBBY", "address": {"city": "FALCON HEIGHTS", "state": "TX", "street": "582 FM 2098", "postcode": "78545"}}},
{"geometry": {"type": "Point", "coordinates": [-98.6387176679, 26.429918013]}, "type": "Feature", "properties": {"collection_times": [{"days": "Mon-Sat", "time": "4:45pm"}, {"days": "Sun", "time": "Closed"}], "id": "7854700000", "name": "USPS COLLECTION BOX - BLUE BOX", "address": {"city": "GARCIASVILLE", "state": "TX", "street": "6648 FM 1430", "postcode": "78547"}}},
{"geometry": {"type": "Point", "coordinates": [-98.6387176679, 26.429918013]}, "type": "Feature", "properties": {"collection_times": [{"days": "Mon-Fri", "time": "4:00pm"}, {"days": "Sat", "time": "11:00am"}, {"days": "Sun", "time": "Closed"}], "id": "7854700001", "name": "USPS COLLECTION BOX - PO LOBBY", "address": {"city": "GARCIASVILLE", "state": "TX", "street": "6648 FM 1430", "postcode": "78547"}}},
{"geometry": {"type": "Point", "coordinates": [-98.5542932017, 26.405267393]}, "type": "Feature", "properties": {"collection_times": [{"days": "Mon-Sat", "time": "5:00pm"}, {"days": "Sun", "time": "Closed"}], "id": "7854800000", "name": "USPS COLLECTION BOX - BLUE BOX", "address": {"city": "GRULLA", "state": "TX", "street": "247 FM 2360", "postcode": "78548"}}},
{"geometry": {"type": "Point", "coordinates": [-98.5542932017, 26.405267393]}, "type": "Feature", "properties": {"collection_times": [{"days": "Mon-Fri", "time": "4:00pm"}, {"days": "Sat", "time": "11:30am"}, {"days": "Sun", "time": "Closed"}], "id": "7854800001", "name": "USPS COLLECTION BOX - PO LOBBY", "address": {"city": "GRULLA", "state": "TX", "street": "247 FM 2360", "postcode": "78548"}}},
{"geometry": {"type": "Point", "coordinates": [-98.0173273972, 26.4355585295]}, "type": "Feature", "properties": {"collection_times": [{"days": "Mon-Sat", "time": "4:00pm"}, {"days": "Sun", "time": "Closed"}], "id": "7854900000", "name": "USPS COLLECTION BOX - BLUE BOX", "address": {"city": "HARGILL", "state": "TX", "street": "110 N FORBES", "postcode": "78549"}}},
{"geometry": {"type": "Point", "coordinates": [-98.0173273972, 26.4355585295]}, "type": "Feature", "properties": {"collection_times": [{"days": "Mon-Fri", "time": "11:30am"}, {"days": "Sat", "time": "9:15am"}, {"days": "Sun", "time": "Closed"}], "id": "7854900002", "name": "USPS COLLECTION BOX - PO LOBBY", "address": {"city": "HARGILL", "state": "TX", "street": "110 N FORBES", "postcode": "78549"}}},
{"geometry": {"type": "Point", "coordinates": [-97.6629844937, 26.2101631117]}, "type": "Feature", "properties": {"collection_times": [{"days": "Mon-Sat", "time": "9:00am"}, {"days": "Sun", "time": "Closed"}], "id": "7855000002", "name": "USPS COLLECTION BOX - BLUE BOX", "address": {"city": "HARLINGEN", "state": "TX", "street": "902 S LOOP 499", "postcode": "78550"}}},
{"geometry": {"type": "Point", "coordinates": [-97.662987249, 26.2093070685]}, "type": "Feature", "properties": {"collection_times": [{"days": "Mon-Sat", "time": "12:00pm"}, {"days": "Sun", "time": "Closed"}], "id": "7855000008", "name": "USPS COLLECTION BOX - BLUE BOX", "address": {"city": "HARLINGEN", "state": "TX", "street": "644 N ED CAREY DR", "postcode": "78550"}}},
{"geometry": {"type": "Point", "coordinates": [-97.6806607153, 26.190703471]}, "type": "Feature", "properties": {"collection_times": [{"days": "Mon-Fri", "time": "3:00pm"}, {"days": "Sat", "time": "10:00am"}, {"days": "Sun", "time": "Closed"}], "id": "7855000010", "name": "USPS COLLECTION BOX - BLUE BOX", "address": {"city": "HARLINGEN", "state": "TX", "street": "1409 E HARRISON AVE", "postcode": "78550"}}},
{"geometry": {"type": "Point", "coordinates": [-97.6679155154, 26.1779062209]}, "type": "Feature", "properties": {"collection_times": [{"days": "Mon-Fri", "time": "4:00pm"}, {"days": "Sat", "time": "12:00pm"}, {"days": "Sun", "time": "Closed"}], "id": "7855000018", "name": "USPS COLLECTION BOX - BLUE BOX", "address": {"city": "HARLINGEN", "state": "TX", "street": "2200 HAINE DR", "postcode": "78550"}}},
{"geometry": {"type": "Point", "coordinates": [-97.6677566726, 26.2236736505]}, "type": "Feature", "properties": {"collection_times": [{"days": "Mon-Sat", "time": "12:00pm"}, {"days": "Sun", "time": "Closed"}], "id": "7855000019", "name": "USPS COLLECTION BOX - BLUE BOX", "address": {"city": "HARLINGEN", "state": "TX", "street": "320 IWO JIMA BLVD", "postcode": "78550"}}},
{"geometry": {"type": "Point", "coordinates": [-97.7176699558, 26.2311081278]}, "type": "Feature", "properties": {"collection_times": [{"days": "Mon-Sat", "time": "9:00am"}, {"days": "Sun", "time": "Closed"}], "id": "7855000020", "name": "USPS COLLECTION BOX - BLUE BOX", "address": {"city": "HARLINGEN", "state": "TX", "street": "1900 GRACE AVE", "postcode": "78550"}}},
{"geometry": {"type": "Point", "coordinates": [-97.6781808207, 26.2002027426]}, "type": "Feature", "properties": {"collection_times": [{"days": "Mon-Fri", "time": "4:00pm"}, {"days": "Sat", "time": "3:00pm"}, {"days": "Sun", "time": "Closed"}], "id": "7855000024", "name": "USPS COLLECTION BOX - BLUE BOX", "address": {"city": "HARLINGEN", "state": "TX", "street": "806 MORGAN BLVD", "postcode": "78550"}}},
{"geometry": {"type": "Point", "coordinates": [-97.6825748059, 26.1999866912]}, "type": "Feature", "properties": {"collection_times": [{"days": "Mon-Fri", "time": "4:00pm"}, {"days": "Sat", "time": "1:00pm"}, {"days": "Sun", "time": "Closed"}], "id": "7855000027", "name": "USPS COLLECTION BOX - BLUE BOX", "address": {"city": "HARLINGEN", "state": "TX", "street": "801 N 13TH ST", "postcode": "78550"}}},
{"geometry": {"type": "Point", "coordinates": [-97.680811023, 26.1992954281]}, "type": "Feature", "properties": {"collection_times": [{"days": "Mon-Fri", "time": "4:00pm"}, {"days": "Sat", "time": "1:00pm"}, {"days": "Sun", "time": "Closed"}], "id": "7855000028", "name": "USPS COLLECTION BOX - BLUE BOX", "address": {"city": "HARLINGEN", "state": "TX", "street": "717 N 77 SUNSHINE STRIP", "postcode": "78550"}}},
{"geometry": {"type": "Point", "coordinates": [-97.666545024, 26.1908018919]}, "type": "Feature", "properties": {"collection_times": [{"days": "Mon-Sat", "time": "10:00am"}, {"days": "Sun", "time": "Closed"}], "id": "7855000030", "name": "USPS COLLECTION BOX - BLUE BOX", "address": {"city": "HARLINGEN", "state": "TX", "street": "2801 E HARRISON AVE", "postcode": "78550"}}},
{"geometry": {"type": "Point", "coordinates": [-97.6686655114, 26.1907768144]}, "type": "Feature", "properties": {"collection_times": [{"days": "Mon-Fri", "time": "4:00pm"}, {"days": "Sat", "time": "2:00pm"}, {"days": "Sun", "time": "Closed"}], "id": "7855000031", "name": "USPS COLLECTION BOX - BLUE BOX", "address": {"city": "HARLINGEN", "state": "TX", "street": "2621 E HARRISON AVE", "postcode": "78550"}}},
{"geometry": {"type": "Point", "coordinates": [-97.6715437592, 26.1744579946]}, "type": "Feature", "properties": {"collection_times": [{"days": "Mon-Fri", "time": "4:00pm"}, {"days": "Sat", "time": "11:00am"}, {"days": "Sun", "time": "Closed"}], "id": "7855000033", "name": "USPS COLLECTION BOX - BLUE BOX", "address": {"city": "HARLINGEN", "state": "TX", "street": "2101 PEASE ST", "postcode": "78550"}}},
{"geometry": {"type": "Point", "coordinates": [-97.6714194327, 26.1743304305]}, "type": "Feature", "properties": {"collection_times": [{"days": "Mon-Fri", "time": "4:00pm"}, {"days": "Sat", "time": "11:00am"}, {"days": "Sun", "time": "Closed"}], "id": "7855000034", "name": "USPS COLLECTION BOX - BLUE BOX", "address": {"city": "HARLINGEN", "state": "TX", "street": "2121 PEASE ST", "postcode": "78550"}}},
{"geometry": {"type": "Point", "coordinates": [-97.6630449869, 26.2202050963]}, "type": "Feature", "properties": {"collection_times": [{"days": "Mon-Sat", "time": "12:00pm"}, {"days": "Sun", "time": "Closed"}], "id": "7855000035", "name": "USPS COLLECTION BOX - BLUE BOX", "address": {"city": "HARLINGEN", "state": "TX", "street": "3002 HERITAGE WAY", "postcode": "78550"}}},
{"geometry": {"type": "Point", "coordinates": [-97.7094468572, 26.1988305671]}, "type": "Feature", "properties": {"collection_times": [{"days": "Mon-Sat", "time": "12:00pm"}, {"days": "Sun", "time": "Closed"}], "id": "7855000036", "name": "USPS COLLECTION BOX - BLUE BOX", "address": {"city": "HARLINGEN", "state": "TX", "street": "711 N L ST", "postcode": "78550"}}},
{"geometry": {"type": "Point", "coordinates": [-97.7139216298, 26.1905502737]}, "type": "Feature", "properties": {"collection_times": [{"days": "Mon-Fri", "time": "3:00pm"}, {"days": "Sat", "time": "11:00am"}, {"days": "Sun", "time": "Closed"}], "id": "7855000038", "name": "USPS COLLECTION BOX - BLUE BOX", "address": {"city": "HARLINGEN", "state": "TX", "street": "505 S P ST", "postcode": "78550"}}},
{"geometry": {"type": "Point", "coordinates": [-97.6805209422, 26.1823264645]}, "type": "Feature", "properties": {"collection_times": [{"days": "Mon-Fri", "time": "3:00pm"}, {"days": "Sat", "time": "2:00pm"}, {"days": "Sun", "time": "Closed"}], "id": "7855000039", "name": "USPS COLLECTION BOX - BLUE BOX", "address": {"city": "HARLINGEN", "state": "TX", "street": "1200 S 77 SUNSHINE STRIP", "postcode": "78550"}}},
{"geometry": {"type": "Point", "coordinates": [-97.6782451217, 26.177820508]}, "type": "Feature", "properties": {"collection_times": [{"days": "Mon-Fri", "time": "4:00pm"}, {"days": "Sat", "time": "2:00pm"}, {"days": "Sun", "time": "Closed"}], "id": "7855000040", "name": "USPS COLLECTION BOX - BLUE BOX", "address": {"city": "HARLINGEN", "state": "TX", "street": "1522 S 77 SUNSHINE STRIP", "postcode": "78550"}}},
{"geometry": {"type": "Point", "coordinates": [-97.694262303, 26.1917685092]}, "type": "Feature", "properties": {"collection_times": [{"days": "Mon-Fri", "time": "4:00pm"}, {"days": "Sat", "time": "2:00pm"}, {"days": "Sun", "time": "Closed"}], "id": "7855000052", "name": "USPS COLLECTION BOX - BLUE BOX", "address": {"city": "HARLINGEN", "state": "TX", "street": "221 E VAN BUREN AVE", "postcode": "78550"}}},
{"geometry": {"type": "Point", "coordinates": [-97.694262303, 26.1917685092]}, "type": "Feature", "properties": {"collection_times": [{"days": "Mon-Fri", "time": "4:00pm"}, {"days": "Sat", "time": "2:00pm"}, {"days": "Sun", "time": "Closed"}], "id": "7855000053", "name": "USPS COLLECTION BOX - BLUE BOX", "address": {"city": "HARLINGEN", "state": "TX", "street": "221 E VAN BUREN AVE", "postcode": "78550"}}},
{"geometry": {"type": "Point", "coordinates": [-97.694262303, 26.1917685092]}, "type": "Feature", "properties": {"collection_times": [{"days": "Mon-Fri", "time": "4:00pm"}, {"days": "Sat", "time": "2:00pm"}, {"days": "Sun", "time": "Closed"}], "id": "7855000054", "name": "USPS COLLECTION BOX - BLUE BOX", "address": {"city": "HARLINGEN", "state": "TX", "street": "221 E VAN BUREN AVE", "postcode": "78550"}}},
{"geometry": {"type": "Point", "coordinates": [-97.694262303, 26.1917685092]}, "type": "Feature", "properties": {"collection_times": [{"days": "Mon-Fri", "time": "4:00pm"}, {"days": "Sat", "time": "2:00pm"}, {"days": "Sun", "time": "Closed"}], "id": "7855000055", "name": "USPS COLLECTION BOX - PO LOBBY", "address": {"city": "HARLINGEN", "state": "TX", "street": "221 E VAN BUREN AVE", "postcode": "78550"}}},
{"geometry": {"type": "Point", "coordinates": [-97.6984776128, 26.2071205215]}, "type": "Feature", "properties": {"collection_times": [{"days": "Mon-Fri", "time": "5:00pm"}, {"days": "Sat", "time": "3:00pm"}, {"days": "Sun", "time": "Closed"}], "id": "7855000060", "name": "USPS COLLECTION BOX - PO LOBBY", "address": {"city": "HARLINGEN", "state": "TX", "street": "1502 NEW COMBES HWY", "postcode": "78550"}}},
{"geometry": {"type": "Point", "coordinates": [-97.6984776128, 26.2071205215]}, "type": "Feature", "properties": {"collection_times": [{"days": "Mon-Fri", "time": "5:00pm"}, {"days": "Sat", "time": "3:00pm"}, {"days": "Sun", "time": "Closed"}], "id": "7855000061", "name": "USPS COLLECTION BOX - PO LOBBY", "address": {"city": "HARLINGEN", "state": "TX", "street": "1502 NEW COMBES HWY", "postcode": "78550"}}},
{"geometry": {"type": "Point", "coordinates": [-97.6984776128, 26.2071205215]}, "type": "Feature", "properties": {"collection_times": [{"days": "Mon-Sat", "time": "5:00pm"}, {"days": "Sun", "time": "Closed"}], "id": "7855000063", "name": "USPS COLLECTION BOX - BLUE BOX", "address": {"city": "HARLINGEN", "state": "TX", "street": "1502 NEW COMBES HWY", "postcode": "78550"}}},
{"geometry": {"type": "Point", "coordinates": [-97.6984776128, 26.2071205215]}, "type": "Feature", "properties": {"collection_times": [{"days": "Mon-Sat", "time": "5:00pm"}, {"days": "Sun", "time": "Closed"}], "id": "7855000064", "name": "USPS COLLECTION BOX - BLUE BOX", "address": {"city": "HARLINGEN", "state": "TX", "street": "1502 NEW COMBES HWY", "postcode": "78550"}}},
{"geometry": {"type": "Point", "coordinates": [-97.6694013775, 26.2202584124]}, "type": "Feature", "properties": {"collection_times": [{"days": "Mon-Sat", "time": "12:00pm"}, {"days": "Sun", "time": "Closed"}], "id": "7855000082", "name": "USPS COLLECTION BOX - BLUE BOX", "address": {"city": "HARLINGEN", "state": "TX", "street": "2400 N LOOP 499", "postcode": "78550"}}},
{"geometry": {"type": "Point", "coordinates": [-97.6632744255, 26.2121284817]}, "type": "Feature", "properties": {"collection_times": [{"days": "Mon-Sat", "time": "9:00am"}, {"days": "Sun", "time": "Closed"}], "id": "7855000083", "name": "USPS COLLECTION BOX - BLUE BOX", "address": {"city": "HARLINGEN", "state": "TX", "street": "1501 N LOOP 499", "postcode": "78550"}}},
{"geometry": {"type": "Point", "coordinates": [-97.6984776128, 26.2071205215]}, "type": "Feature", "properties": {"collection_times": [{"days": "Mon-Fri", "time": "5:00pm"}, {"days": "Sat", "time": "3:00pm"}, {"days": "Sun", "time": "Closed"}], "id": "7855000086", "name": "USPS COLLECTION BOX - PO LOBBY", "address": {"city": "HARLINGEN", "state": "TX", "street": "1502 NEW COMBES HWY", "postcode": "78550"}}},
{"geometry": {"type": "Point", "coordinates": [-97.6984776128, 26.2071205215]}, "type": "Feature", "properties": {"collection_times": [{"days": "Mon-Fri", "time": "5:00pm"}, {"days": "Sat", "time": "3:00pm"}, {"days": "Sun", "time": "Closed"}], "id": "7855000087", "name": "USPS COLLECTION BOX - PO LOBBY", "address": {"city": "HARLINGEN", "state": "TX", "street": "1502 NEW COMBES HWY", "postcode": "78550"}}},
{"geometry": {"type": "Point", "coordinates": [-97.6725838594, 26.2570312095]}, "type": "Feature", "properties": {"collection_times": [{"days": "Mon-Sat", "time": "9:00am"}, {"days": "Sun", "time": "Closed"}], "id": "7855000088", "name": "USPS COLLECTION BOX - BLUE BOX", "address": {"city": "HARLINGEN", "state": "TX", "street": "4110 N EXPRESSWAY 77", "postcode": "78550"}}},
{"geometry": {"type": "Point", "coordinates": [-97.7465180219, 26.1892114891]}, "type": "Feature", "properties": {"collection_times": [{"days": "Mon-Sat", "time": "9:30am"}, {"days": "Sun", "time": "Closed"}], "id": "7855200000", "name": "USPS COLLECTION BOX - BLUE BOX", "address": {"city": "HARLINGEN", "state": "TX", "street": "25312 ALTAS PALMAS DR", "postcode": "78552"}}},
{"geometry": {"type": "Point", "coordinates": [-97.7465180219, 26.1892114891]}, "type": "Feature", "properties": {"collection_times": [{"days": "Mon-Sat", "time": "9:30am"}, {"days": "Sun", "time": "Closed"}], "id": "7855200001", "name": "USPS COLLECTION BOX - BLUE BOX", "address": {"city": "HARLINGEN", "state": "TX", "street": "25850 MAPLE DR", "postcode": "78552"}}},
{"geometry": {"type": "Point", "coordinates": [-97.7465180219, 26.1892114891]}, "type": "Feature", "properties": {"collection_times": [{"days": "Mon-Sat", "time": "9:30am"}, {"days": "Sun", "time": "Closed"}], "id": "7855200002", "name": "USPS COLLECTION BOX - BLUE BOX", "address": {"city": "HARLINGEN", "state": "TX", "street": "3401 W BUSINESS 83", "postcode": "78552"}}},
{"geometry": {"type": "Point", "coordinates": [-97.7465180219, 26.1892114891]}, "type": "Feature", "properties": {"collection_times": [{"days": "Mon-Sat", "time": "9:30am"}, {"days": "Sun", "time": "Closed"}], "id": "7855200003", "name": "USPS COLLECTION BOX - BLUE BOX", "address": {"city": "HARLINGEN", "state": "TX", "street": "5401 W BUSINESS 83", "postcode": "78552"}}},
{"geometry": {"type": "Point", "coordinates": [-97.7206902191, 26.167572902]}, "type": "Feature", "properties": {"collection_times": [{"days": "Mon-Sat", "time": "9:30am"}, {"days": "Sun", "time": "Closed"}], "id": "7855200004", "name": "USPS COLLECTION BOX - BLUE BOX", "address": {"city": "HARLINGEN", "state": "TX", "street": "1419 SUNWEST BLVD", "postcode": "78552"}}},
{"geometry": {"type": "Point", "coordinates": [-97.7465180219, 26.1892114891]}, "type": "Feature", "properties": {"collection_times": [{"days": "Mon-Sat", "time": "9:30am"}, {"days": "Sun", "time": "Closed"}], "id": "7855200005", "name": "USPS COLLECTION BOX - BLUE BOX", "address": {"city": "HARLINGEN", "state": "TX", "street": "7101 W BUSINESS 83", "postcode": "78552"}}},
{"geometry": {"type": "Point", "coordinates": [-97.7465180219, 26.1892114891]}, "type": "Feature", "properties": {"collection_times": [{"days": "Mon-Sat", "time": "9:30am"}, {"days": "Sun", "time": "Closed"}], "id": "7855200007", "name": "USPS COLLECTION BOX - BLUE BOX", "address": {"city": "HARLINGEN", "state": "TX", "street": "8989 W BUSINESS 83", "postcode": "78552"}}},
{"geometry": {"type": "Point", "coordinates": [-97.673536278, 26.1729772719]}, "type": "Feature", "properties": {"collection_times": [{"days": "Mon-Sat", "time": "9:30am"}, {"days": "Sun", "time": "Closed"}], "id": "7855200008", "name": "USPS COLLECTION BOX - BLUE BOX", "address": {"city": "HARLINGEN", "state": "TX", "street": "1001 S ED CAREY DR", "postcode": "78552"}}},
{"geometry": {"type": "Point", "coordinates": [-97.7215552272, 26.204121663]}, "type": "Feature", "properties": {"collection_times": [{"days": "Mon-Sat", "time": "9:00am"}, {"days": "Sun", "time": "Closed"}], "id": "7855200009", "name": "USPS COLLECTION BOX - BLUE BOX", "address": {"city": "HARLINGEN", "state": "TX", "street": "1203 N EXPRESSWAY 77", "postcode": "78552"}}},
{"geometry": {"type": "Point", "coordinates": [-97.7065799232, 26.1723469544]}, "type": "Feature", "properties": {"collection_times": [{"days": "Mon-Sat", "time": "9:30am"}, {"days": "Sun", "time": "Closed"}], "id": "7855200013", "name": "USPS COLLECTION BOX - BLUE BOX", "address": {"city": "HARLINGEN", "state": "TX", "street": "1001 GOLF COURSE DR", "postcode": "78552"}}},
{"geometry": {"type": "Point", "coordinates": [-97.7569492532, 26.2064350254]}, "type": "Feature", "properties": {"collection_times": [{"days": "Mon-Sat", "time": "10:00am"}, {"days": "Sun", "time": "Closed"}], "id": "7855200016", "name": "USPS COLLECTION BOX - BLUE BOX", "address": {"city": "HARLINGEN", "state": "TX", "street": "1 LOS AMIGOS", "postcode": "78552"}}},
{"geometry": {"type": "Point", "coordinates": [-97.7088318146, 26.1592418163]}, "type": "Feature", "properties": {"collection_times": [{"days": "Mon-Sat", "time": "9:00am"}, {"days": "Sun", "time": "Closed"}], "id": "7855200020", "name": "USPS COLLECTION BOX - BLUE BOX", "address": {"city": "HARLINGEN", "state": "TX", "street": "1301 S RANGERVILLE RD", "postcode": "78552"}}},
{"geometry": {"type": "Point", "coordinates": [-97.777740859, 26.1701310434]}, "type": "Feature", "properties": {"collection_times": [{"days": "Mon-Sat", "time": "9:30am"}, {"days": "Sun", "time": "Closed"}], "id": "7855200022", "name": "USPS COLLECTION BOX - BLUE BOX", "address": {"city": "HARLINGEN", "state": "TX", "street": "26826 S TAMM LN", "postcode": "78552"}}},
{"geometry": {"type": "Point", "coordinates": [-97.7206902191, 26.167572902]}, "type": "Feature", "properties": {"collection_times": [{"days": "Mon-Sat", "time": "9:30am"}, {"days": "Sun", "time": "Closed"}], "id": "7855200023", "name": "USPS COLLECTION BOX - BLUE BOX", "address": {"city": "HARLINGEN", "state": "TX", "street": "156 WASHINGTON", "postcode": "78552"}}},
{"geometry": {"type": "Point", "coordinates": [-98.2526936955, 26.1065121196]}, "type": "Feature", "properties": {"collection_times": [{"days": "Mon-Fri", "time": "4:30pm"}, {"days": "Sat", "time": "12:00pm"}, {"days": "Sun", "time": "Closed"}], "id": "7855700000", "name": "USPS COLLECTION BOX - BLUE BOX", "address": {"city": "HIDALGO", "state": "TX", "street": "920 E COMA AVE", "postcode": "78557"}}},
{"geometry": {"type": "Point", "coordinates": [-98.2526936955, 26.1065121196]}, "type": "Feature", "properties": {"collection_times": [{"days": "Mon-Fri", "time": "4:30pm"}, {"days": "Sat", "time": "12:00pm"}, {"days": "Sun", "time": "Closed"}], "id": "7855700001", "name": "USPS COLLECTION BOX - BLUE BOX", "address": {"city": "HIDALGO", "state": "TX", "street": "920 E COMA AVE", "postcode": "78557"}}},
{"geometry": {"type": "Point", "coordinates": [-98.2526936955, 26.1065121196]}, "type": "Feature", "properties": {"collection_times": [{"days": "Mon-Fri", "time": "4:30pm"}, {"days": "Sat", "time": "12:00pm"}, {"days": "Sun", "time": "Closed"}], "id": "7855700003", "name": "USPS COLLECTION BOX - PO LOBBY", "address": {"city": "HIDALGO", "state": "TX", "street": "920 E COMA AVE", "postcode": "78557"}}},
{"geometry": {"type": "Point", "coordinates": [-98.2526936955, 26.1065121196]}, "type": "Feature", "properties": {"collection_times": [{"days": "Mon-Fri", "time": "4:30pm"}, {"days": "Sat", "time": "12:00pm"}, {"days": "Sun", "time": "Closed"}], "id": "7855700004", "name": "USPS COLLECTION BOX - PO LOBBY", "address": {"city": "HIDALGO", "state": "TX", "street": "920 E COMA AVE", "postcode": "78557"}}},
{"geometry": {"type": "Point", "coordinates": [-98.0376332562, 26.2928349921]}, "type": "Feature", "properties": {"collection_times": [{"days": "Mon-Sat", "time": "5:30pm"}, {"days": "Sun", "time": "Closed"}], "id": "7855800000", "name": "USPS COLLECTION BOX - BLUE BOX", "address": {"city": "LA BLANCA", "state": "TX", "street": "13306 HIGHWAY 107", "postcode": "78558"}}},
{"geometry": {"type": "Point", "coordinates": [-98.0376332562, 26.2928349921]}, "type": "Feature", "properties": {"collection_times": [{"days": "Mon-Fri", "time": "4:00pm"}, {"days": "Sat", "time": "9:45am"}, {"days": "Sun", "time": "Closed"}], "id": "7855800001", "name": "USPS COLLECTION BOX - PO LOBBY", "address": {"city": "LA BLANCA", "state": "TX", "street": "13306 HIGHWAY 107", "postcode": "78558"}}},
{"geometry": {"type": "Point", "coordinates": [-97.826154841, 26.159456862]}, "type": "Feature", "properties": {"collection_times": [{"days": "Mon-Fri", "time": "4:15pm"}, {"days": "Sat", "time": "11:30am"}, {"days": "Sun", "time": "Closed"}], "id": "7855900000", "name": "USPS COLLECTION BOX - BLUE BOX", "address": {"city": "LA FERIA", "state": "TX", "street": "201 W 1ST ST", "postcode": "78559"}}},
{"geometry": {"type": "Point", "coordinates": [-97.826154841, 26.159456862]}, "type": "Feature", "properties": {"collection_times": [{"days": "Mon-Fri", "time": "4:15pm"}, {"days": "Sat", "time": "11:30am"}, {"days": "Sun", "time": "Closed"}], "id": "7855900001", "name": "USPS COLLECTION BOX - BLUE BOX", "address": {"city": "LA FERIA", "state": "TX", "street": "201 W 1ST ST", "postcode": "78559"}}},
{"geometry": {"type": "Point", "coordinates": [-97.8242136552, 26.1633571741]}, "type": "Feature", "properties": {"collection_times": [{"days": "Mon-Sat", "time": "10:00am"}, {"days": "Sun", "time": "Closed"}], "id": "7855900004", "name": "USPS COLLECTION BOX - BLUE BOX", "address": {"city": "LA FERIA", "state": "TX", "street": "1201 N MAIN ST", "postcode": "78559"}}},
{"geometry": {"type": "Point", "coordinates": [-97.8262142057, 26.1659836462]}, "type": "Feature", "properties": {"collection_times": [{"days": "Mon-Sat", "time": "10:00am"}, {"days": "Sun", "time": "Closed"}], "id": "7855900006", "name": "USPS COLLECTION BOX - BLUE BOX", "address": {"city": "LA FERIA", "state": "TX", "street": "600 E FRONTAGE RD", "postcode": "78559"}}},
{"geometry": {"type": "Point", "coordinates": [-97.826154841, 26.159456862]}, "type": "Feature", "properties": {"collection_times": [{"days": "Mon-Fri", "time": "4:15pm"}, {"days": "Sat", "time": "11:30am"}, {"days": "Sun", "time": "Closed"}], "id": "7855900008", "name": "USPS COLLECTION BOX - PO LOBBY", "address": {"city": "LA FERIA", "state": "TX", "street": "201 W 1ST ST", "postcode": "78559"}}},
{"geometry": {"type": "Point", "coordinates": [-97.826154841, 26.159456862]}, "type": "Feature", "properties": {"collection_times": [{"days": "Mon-Fri", "time": "4:15pm"}, {"days": "Sat", "time": "11:30am"}, {"days": "Sun", "time": "Closed"}], "id": "7855900009", "name": "USPS COLLECTION BOX - PO LOBBY", "address": {"city": "LA FERIA", "state": "TX", "street": "201 W 1ST ST", "postcode": "78559"}}},
{"geometry": {"type": "Point", "coordinates": [-97.8237937459, 26.1414219331]}, "type": "Feature", "properties": {"collection_times": [{"days": "Mon-Sat", "time": "11:00am"}, {"days": "Sun", "time": "Closed"}], "id": "7855900010", "name": "USPS COLLECTION BOX - BLUE BOX", "address": {"city": "LA FERIA", "state": "TX", "street": "200 CITRUS DR", "postcode": "78559"}}},
{"geometry": {"type": "Point", "coordinates": [-98.4797163439, 26.2462919266]}, "type": "Feature", "properties": {"collection_times": [{"days": "Mon-Sat", "time": "5:45pm"}, {"days": "Sun", "time": "Closed"}], "id": "7856000000", "name": "USPS COLLECTION BOX - BLUE BOX", "address": {"city": "LA JOYA", "state": "TX", "street": "201 N LEO AVE", "postcode": "78560"}}},
{"geometry": {"type": "Point", "coordinates": [-98.4797163439, 26.2462919266]}, "type": "Feature", "properties": {"collection_times": [{"days": "Mon-Fri", "time": "4:00pm"}, {"days": "Sat", "time": "11:00am"}, {"days": "Sun", "time": "Closed"}], "id": "7856000001", "name": "USPS COLLECTION BOX - PO LOBBY", "address": {"city": "LA JOYA", "state": "TX", "street": "201 N LEO AVE", "postcode": "78560"}}},
{"geometry": {"type": "Point", "coordinates": [-97.9115741064, 26.4647286666]}, "type": "Feature", "properties": {"collection_times": [{"days": "Mon-Fri", "time": "11:30am"}, {"days": "Sat", "time": "9:45am"}, {"days": "Sun", "time": "Closed"}], "id": "7856100000", "name": "USPS COLLECTION BOX - PO LOBBY", "address": {"city": "LASARA", "state": "TX", "street": "12056 FM RD 1015", "postcode": "78561"}}},
{"geometry": {"type": "Point", "coordinates": [-97.9115741064, 26.4647286666]}, "type": "Feature", "properties": {"collection_times": [{"days": "Mon-Sat", "time": "4:00pm"}, {"days": "Sun", "time": "Closed"}], "id": "7856100001", "name": "USPS COLLECTION BOX - BLUE BOX", "address": {"city": "LASARA", "state": "TX", "street": "12056 FM RD 1015", "postcode": "78561"}}},
{"geometry": {"type": "Point", "coordinates": [-97.9285141261, 26.2945413547]}, "type": "Feature", "properties": {"collection_times": [{"days": "Mon-Fri", "time": "3:45pm"}, {"days": "Sat", "time": "9:30am"}, {"days": "Sun", "time": "Closed"}], "id": "7856200000", "name": "USPS COLLECTION BOX - BLUE BOX", "address": {"city": "LA VILLA", "state": "TX", "street": "852 S MIKE CHAPA DR", "postcode": "78562"}}},
{"geometry": {"type": "Point", "coordinates": [-97.9285141261, 26.2945413547]}, "type": "Feature", "properties": {"collection_times": [{"days": "Mon-Fri", "time": "3:00pm"}, {"days": "Sat", "time": "9:30am"}, {"days": "Sun", "time": "Closed"}], "id": "7856200001", "name": "USPS COLLECTION BOX - PO LOBBY", "address": {"city": "LA VILLA", "state": "TX", "street": "852 S MIKE CHAPA DR", "postcode": "78562"}}},
{"geometry": {"type": "Point", "coordinates": [-98.1945646444, 26.6049260485]}, "type": "Feature", "properties": {"collection_times": [{"days": "Mon-Fri", "time": "11:30am"}, {"days": "Sat", "time": "9:45am"}, {"days": "Sun", "time": "Closed"}], "id": "7856300000", "name": "USPS COLLECTION BOX - PO LOBBY", "address": {"city": "LINN", "state": "TX", "street": "22005 FM 1017", "postcode": "78563"}}},
{"geometry": {"type": "Point", "coordinates": [-98.1945646444, 26.6049260485]}, "type": "Feature", "properties": {"collection_times": [{"days": "Mon-Sat", "time": "3:30pm"}, {"days": "Sun", "time": "Closed"}], "id": "7856300001", "name": "USPS COLLECTION BOX - BLUE BOX", "address": {"city": "LINN", "state": "TX", "street": "22005 FM 1017", "postcode": "78563"}}},
{"geometry": {"type": "Point", "coordinates": [-99.1110592579, 26.7110921939]}, "type": "Feature", "properties": {"collection_times": [{"days": "Mon-Fri", "time": "11:30am"}, {"days": "Sat", "time": "11:00am"}, {"days": "Sun", "time": "Closed"}], "id": "7856400000", "name": "USPS COLLECTION BOX - BLUE BOX", "address": {"city": "LOPENO", "state": "TX", "street": "305 1ST ST", "postcode": "78564"}}},
{"geometry": {"type": "Point", "coordinates": [-99.1110592579, 26.7110921939]}, "type": "Feature", "properties": {"collection_times": [{"days": "Mon-Fri", "time": "11:30am"}, {"days": "Sat-Sun", "time": "Closed"}], "id": "7856400001", "name": "USPS COLLECTION BOX - PO LOBBY", "address": {"city": "LOPENO", "state": "TX", "street": "305 1ST ST", "postcode": "78564"}}},
{"geometry": {"type": "Point", "coordinates": [-98.5617651101, 26.2405870438]}, "type": "Feature", "properties": {"collection_times": [{"days": "Mon-Sat", "time": "5:15pm"}, {"days": "Sun", "time": "Closed"}], "id": "7856500000", "name": "USPS COLLECTION BOX - BLUE BOX", "address": {"city": "LOS EBANOS", "state": "TX", "street": "185 ROSENDO BENAVIDEZ ST", "postcode": "78565"}}},
{"geometry": {"type": "Point", "coordinates": [-98.5617651101, 26.2405870438]}, "type": "Feature", "properties": {"collection_times": [{"days": "Mon-Fri", "time": "12:30pm"}, {"days": "Sat", "time": "10:00am"}, {"days": "Sun", "time": "Closed"}], "id": "7856500001", "name": "USPS COLLECTION BOX - PO LOBBY", "address": {"city": "LOS EBANOS", "state": "TX", "street": "185 ROSENDO BENAVIDEZ ST", "postcode": "78565"}}},
{"geometry": {"type": "Point", "coordinates": [-97.478859054, 26.071821546]}, "type": "Feature", "properties": {"collection_times": [{"days": "Mon-Fri", "time": "4:15pm"}, {"days": "Sat", "time": "12:00pm"}, {"days": "Sun", "time": "Closed"}], "id": "7856600001", "name": "USPS COLLECTION BOX - BLUE BOX", "address": {"city": "LOS FRESNOS", "state": "TX", "street": "301 W OCEAN BLVD", "postcode": "78566"}}},
{"geometry": {"type": "Point", "coordinates": [-97.478859054, 26.071821546]}, "type": "Feature", "properties": {"collection_times": [{"days": "Mon-Fri", "time": "4:15pm"}, {"days": "Sat", "time": "12:00pm"}, {"days": "Sun", "time": "Closed"}], "id": "7856600002", "name": "USPS COLLECTION BOX - PO LOBBY", "address": {"city": "LOS FRESNOS", "state": "TX", "street": "301 W OCEAN BLVD", "postcode": "78566"}}},
{"geometry": {"type": "Point", "coordinates": [-97.478859054, 26.071821546]}, "type": "Feature", "properties": {"collection_times": [{"days": "Mon-Fri", "time": "4:15pm"}, {"days": "Sat", "time": "12:00pm"}, {"days": "Sun", "time": "Closed"}], "id": "7856600003", "name": "USPS COLLECTION BOX - PO LOBBY", "address": {"city": "LOS FRESNOS", "state": "TX", "street": "301 W OCEAN BLVD", "postcode": "78566"}}},
{"geometry": {"type": "Point", "coordinates": [-97.739127205, 26.051618909]}, "type": "Feature", "properties": {"collection_times": [{"days": "Mon-Sat", "time": "4:00pm"}, {"days": "Sun", "time": "Closed"}], "id": "7856700000", "name": "USPS COLLECTION BOX - BLUE BOX", "address": {"city": "LOS INDIOS", "state": "TX", "street": "810 E US HIGHWAY 281", "postcode": "78567"}}},
{"geometry": {"type": "Point", "coordinates": [-97.5394861402, 26.1906791287]}, "type": "Feature", "properties": {"collection_times": [{"days": "Mon-Fri", "time": "4:00pm"}, {"days": "Sat", "time": "9:00am"}, {"days": "Sun", "time": "Closed"}], "id": "7856800000", "name": "USPS COLLECTION BOX - BLUE BOX", "address": {"city": "LOZANO", "state": "TX", "street": "25698 E BROWN TRACT RD", "postcode": "78568"}}},
{"geometry": {"type": "Point", "coordinates": [-97.5394861402, 26.1906791287]}, "type": "Feature", "properties": {"collection_times": [{"days": "Mon-Fri", "time": "11:30am"}, {"days": "Sat", "time": "9:00am"}, {"days": "Sun", "time": "Closed"}], "id": "7856800001", "name": "USPS COLLECTION BOX - PO LOBBY", "address": {"city": "LOZANO", "state": "TX", "street": "25698 E BROWN TRACT RD", "postcode": "78568"}}},
{"geometry": {"type": "Point", "coordinates": [-97.7918415443, 26.40914177]}, "type": "Feature", "properties": {"collection_times": [{"days": "Mon-Fri", "time": "5:00pm"}, {"days": "Sat", "time": "4:00pm"}, {"days": "Sun", "time": "Closed"}], "id": "7856900000", "name": "USPS COLLECTION BOX - BLUE BOX", "address": {"city": "LYFORD", "state": "TX", "street": "13461 W BROADWAY", "postcode": "78569"}}},
{"geometry": {"type": "Point", "coordinates": [-97.7918415443, 26.40914177]}, "type": "Feature", "properties": {"collection_times": [{"days": "Mon-Fri", "time": "4:30pm"}, {"days": "Sat-Sun", "time": "Closed"}], "id": "7856900001", "name": "USPS COLLECTION BOX - PO LOBBY", "address": {"city": "LYFORD", "state": "TX", "street": "13461 W BROADWAY", "postcode": "78569"}}},
{"geometry": {"type": "Point", "coordinates": [-97.9124528155, 26.1556618007]}, "type": "Feature", "properties": {"collection_times": [{"days": "Mon-Sat", "time": "4:15pm"}, {"days": "Sun", "time": "Closed"}], "id": "7857000006", "name": "USPS COLLECTION BOX - BLUE BOX", "address": {"city": "MERCEDES", "state": "TX", "street": "307 STARR ST", "postcode": "78570"}}},
{"geometry": {"type": "Point", "coordinates": [-97.9121983817, 26.1556478944]}, "type": "Feature", "properties": {"collection_times": [{"days": "Mon-Sat", "time": "4:15pm"}, {"days": "Sun", "time": "Closed"}], "id": "7857000007", "name": "USPS COLLECTION BOX - BLUE BOX", "address": {"city": "MERCEDES", "state": "TX", "street": "307 STARR ST", "postcode": "78570"}}},
{"geometry": {"type": "Point", "coordinates": [-97.9121983817, 26.1556478944]}, "type": "Feature", "properties": {"collection_times": [{"days": "Mon-Sat", "time": "4:15pm"}, {"days": "Sun", "time": "Closed"}], "id": "7857000011", "name": "USPS COLLECTION BOX - PO LOBBY", "address": {"city": "MERCEDES", "state": "TX", "street": "307 STARR ST", "postcode": "78570"}}},
{"geometry": {"type": "Point", "coordinates": [-97.9121983817, 26.1556478944]}, "type": "Feature", "properties": {"collection_times": [{"days": "Mon-Sat", "time": "4:15pm"}, {"days": "Sun", "time": "Closed"}], "id": "7857000012", "name": "USPS COLLECTION BOX - PO LOBBY", "address": {"city": "MERCEDES", "state": "TX", "street": "307 STARR ST", "postcode": "78570"}}},
{"geometry": {"type": "Point", "coordinates": [-98.4946841667, 26.3615413133]}, "type": "Feature", "properties": {"collection_times": [{"days": "Mon-Sat", "time": "11:00am"}, {"days": "Sun", "time": "Closed"}], "id": "7857200002", "name": "USPS COLLECTION BOX - BLUE BOX", "address": {"city": "MISSION", "state": "TX", "street": "304 N LA HOMA RD", "postcode": "78572"}}},
{"geometry": {"type": "Point", "coordinates": [-98.2813899471, 26.223812884]}, "type": "Feature", "properties": {"collection_times": [{"days": "Mon-Fri", "time": "4:15pm"}, {"days": "Sat", "time": "1:10pm"}, {"days": "Sun", "time": "Closed"}], "id": "7857200006", "name": "USPS COLLECTION BOX - BLUE BOX", "address": {"city": "MISSION", "state": "TX", "street": "2510 E GRIFFIN PKWY", "postcode": "78572"}}},
{"geometry": {"type": "Point", "coordinates": [-98.3324825127, 26.2015398254]}, "type": "Feature", "properties": {"collection_times": [{"days": "Mon-Sat", "time": "2:00pm"}, {"days": "Sun", "time": "Closed"}], "id": "7857200021", "name": "USPS COLLECTION BOX - BLUE BOX", "address": {"city": "MISSION", "state": "TX", "street": "106 S ALTON BLVD", "postcode": "78572"}}},
{"geometry": {"type": "Point", "coordinates": [-98.3213181561, 26.2143560207]}, "type": "Feature", "properties": {"collection_times": [{"days": "Mon-Fri", "time": "5:00pm"}, {"days": "Sat", "time": "4:00pm"}, {"days": "Sun", "time": "Closed"}], "id": "7857200062", "name": "USPS COLLECTION BOX - PO LOBBY", "address": {"city": "MISSION", "state": "TX", "street": "901 N FRANCISCO AVE", "postcode": "78572"}}},
{"geometry": {"type": "Point", "coordinates": [-98.3224184874, 26.2294804637]}, "type": "Feature", "properties": {"collection_times": [{"days": "Mon-Fri", "time": "3:55pm"}, {"days": "Sat", "time": "1:00pm"}, {"days": "Sun", "time": "Closed"}], "id": "7857200063", "name": "USPS COLLECTION BOX - BLUE BOX", "address": {"city": "MISSION", "state": "TX", "street": "200 E GRIFFIN PKWY", "postcode": "78572"}}},
{"geometry": {"type": "Point", "coordinates": [-98.3639428249, 26.2315681463]}, "type": "Feature", "properties": {"collection_times": [{"days": "Mon-Sat", "time": "12:00pm"}, {"days": "Sun", "time": "Closed"}], "id": "7857200064", "name": "USPS COLLECTION BOX - BLUE BOX", "address": {"city": "MISSION", "state": "TX", "street": "5121 W EXPRESSWAY 83", "postcode": "78572"}}},
{"geometry": {"type": "Point", "coordinates": [-98.3213181561, 26.2143560207]}, "type": "Feature", "properties": {"collection_times": [{"days": "Mon-Fri", "time": "5:00pm"}, {"days": "Sat", "time": "4:00pm"}, {"days": "Sun", "time": "Closed"}], "id": "7857200071", "name": "USPS COLLECTION BOX - PO LOBBY", "address": {"city": "MISSION", "state": "TX", "street": "901 N FRANCISCO AVE", "postcode": "78572"}}},
{"geometry": {"type": "Point", "coordinates": [-98.3213181561, 26.2143560207]}, "type": "Feature", "properties": {"collection_times": [{"days": "Mon-Fri", "time": "5:00pm"}, {"days": "Sat", "time": "4:00pm"}, {"days": "Sun", "time": "Closed"}], "id": "7857200072", "name": "USPS COLLECTION BOX - PO LOBBY", "address": {"city": "MISSION", "state": "TX", "street": "901 N FRANCISCO AVE", "postcode": "78572"}}},
{"geometry": {"type": "Point", "coordinates": [-98.2890323948, 26.195512525]}, "type": "Feature", "properties": {"collection_times": [{"days": "Mon-Sat", "time": "11:00am"}, {"days": "Sun", "time": "Closed"}], "id": "7857200073", "name": "USPS COLLECTION BOX - BLUE BOX", "address": {"city": "MISSION", "state": "TX", "street": "2410 E EXPRESSWAY 83", "postcode": "78572"}}},
{"geometry": {"type": "Point", "coordinates": [-98.3213181561, 26.2143560207]}, "type": "Feature", "properties": {"collection_times": [{"days": "Mon-Fri", "time": "5:00pm"}, {"days": "Sat", "time": "4:00pm"}, {"days": "Sun", "time": "Closed"}], "id": "7857200076", "name": "USPS COLLECTION BOX - APC", "address": {"city": "MISSION", "state": "TX", "street": "901 N FRANCISCO AVE", "postcode": "78572"}}},
{"geometry": {"type": "Point", "coordinates": [-98.3213181561, 26.2143560207]}, "type": "Feature", "properties": {"collection_times": [{"days": "Mon-Fri", "time": "5:30pm"}, {"days": "Sat", "time": "4:00pm"}, {"days": "Sun", "time": "Closed"}], "id": "7857200078", "name": "USPS COLLECTION BOX - BLUE BOX", "address": {"city": "MISSION", "state": "TX", "street": "901 N FRANCISCO AVE", "postcode": "78572"}}},
{"geometry": {"type": "Point", "coordinates": [-98.3213181561, 26.2143560207]}, "type": "Feature", "properties": {"collection_times": [{"days": "Mon-Fri", "time": "5:30pm"}, {"days": "Sat", "time": "4:00pm"}, {"days": "Sun", "time": "Closed"}], "id": "7857200079", "name": "USPS COLLECTION BOX - BLUE BOX", "address": {"city": "MISSION", "state": "TX", "street": "901 N FRANCISCO AVE", "postcode": "78572"}}},
{"geometry": {"type": "Point", "coordinates": [-98.3213181561, 26.2143560207]}, "type": "Feature", "properties": {"collection_times": [{"days": "Mon-Fri", "time": "5:30pm"}, {"days": "Sat", "time": "4:00pm"}, {"days": "Sun", "time": "Closed"}], "id": "7857200080", "name": "USPS COLLECTION BOX - BLUE BOX", "address": {"city": "MISSION", "state": "TX", "street": "901 N FRANCISCO AVE", "postcode": "78572"}}},
{"geometry": {"type": "Point", "coordinates": [-98.3129690139, 26.228162178]}, "type": "Feature", "properties": {"collection_times": [{"days": "Mon-Fri", "time": "4:00pm"}, {"days": "Sat", "time": "1:05pm"}, {"days": "Sun", "time": "Closed"}], "id": "7857200081", "name": "USPS COLLECTION BOX - BLUE BOX", "address": {"city": "MISSION", "state": "TX", "street": "1022 E GRIFFIN PKWY", "postcode": "78572"}}},
{"geometry": {"type": "Point", "coordinates": [-98.3181289105, 26.260265007]}, "type": "Feature", "properties": {"collection_times": [{"days": "Mon-Sat", "time": "12:00pm"}, {"days": "Sun", "time": "Closed"}], "id": "7857300001", "name": "USPS COLLECTION BOX - BLUE BOX", "address": {"city": "MISSION", "state": "TX", "street": "4410 N CONWAY AVE", "postcode": "78573"}}},
{"geometry": {"type": "Point", "coordinates": [-97.5339722802, 26.0281525604]}, "type": "Feature", "properties": {"collection_times": [{"days": "Mon-Fri", "time": "5:00pm"}, {"days": "Sat", "time": "12:00pm"}, {"days": "Sun", "time": "Closed"}], "id": "7857500000", "name": "USPS COLLECTION BOX - BLUE BOX", "address": {"city": "OLMITO", "state": "TX", "street": "7955 N HWY 77", "postcode": "78575"}}},
{"geometry": {"type": "Point", "coordinates": [-97.5339722802, 26.0281525604]}, "type": "Feature", "properties": {"collection_times": [{"days": "Mon-Fri", "time": "5:00pm"}, {"days": "Sat", "time": "12:00pm"}, {"days": "Sun", "time": "Closed"}], "id": "7857500002", "name": "USPS COLLECTION BOX - PO LOBBY", "address": {"city": "OLMITO", "state": "TX", "street": "7955 N HWY 77", "postcode": "78575"}}},
{"geometry": {"type": "Point", "coordinates": [-98.4467156229, 26.2887473934]}, "type": "Feature", "properties": {"collection_times": [{"days": "Mon-Fri", "time": "4:45pm"}, {"days": "Sat", "time": "11:30am"}, {"days": "Sun", "time": "Closed"}], "id": "7857600000", "name": "USPS COLLECTION BOX - PO LOBBY", "address": {"city": "PENITAS", "state": "TX", "street": "500 TOM GILL RD", "postcode": "78576"}}},
{"geometry": {"type": "Point", "coordinates": [-98.4467156229, 26.2887473934]}, "type": "Feature", "properties": {"collection_times": [{"days": "Mon-Sat", "time": "6:00pm"}, {"days": "Sun", "time": "Closed"}], "id": "7857600002", "name": "USPS COLLECTION BOX - BLUE BOX", "address": {"city": "PENITAS", "state": "TX", "street": "500 TOM GILL RD", "postcode": "78576"}}},
{"geometry": {"type": "Point", "coordinates": [-98.1869728109, 26.1946865054]}, "type": "Feature", "properties": {"collection_times": [{"days": "Mon-Fri", "time": "5:00pm"}, {"days": "Sat", "time": "2:30pm"}, {"days": "Sun", "time": "Closed"}], "id": "7857700005", "name": "USPS COLLECTION BOX - BLUE BOX", "address": {"city": "PHARR", "state": "TX", "street": "301 W PARK ST", "postcode": "78577"}}},
{"geometry": {"type": "Point", "coordinates": [-98.1869728109, 26.1946865054]}, "type": "Feature", "properties": {"collection_times": [{"days": "Mon-Fri", "time": "5:00pm"}, {"days": "Sat", "time": "2:30pm"}, {"days": "Sun", "time": "Closed"}], "id": "7857700007", "name": "USPS COLLECTION BOX - BLUE BOX", "address": {"city": "PHARR", "state": "TX", "street": "301 W PARK ST", "postcode": "78577"}}},
{"geometry": {"type": "Point", "coordinates": [-98.1869728109, 26.1946865054]}, "type": "Feature", "properties": {"collection_times": [{"days": "Mon-Fri", "time": "5:00pm"}, {"days": "Sat", "time": "2:30pm"}, {"days": "Sun", "time": "Closed"}], "id": "7857700009", "name": "USPS COLLECTION BOX - BLUE BOX", "address": {"city": "PHARR", "state": "TX", "street": "301 W PARK ST", "postcode": "78577"}}},
{"geometry": {"type": "Point", "coordinates": [-98.1864577035, 26.1793354211]}, "type": "Feature", "properties": {"collection_times": [{"days": "Mon-Sat", "time": "9:00am"}, {"days": "Sun", "time": "Closed"}], "id": "7857700021", "name": "USPS COLLECTION BOX - BLUE BOX", "address": {"city": "PHARR", "state": "TX", "street": "1401 S CAGE BLVD", "postcode": "78577"}}},
{"geometry": {"type": "Point", "coordinates": [-98.1867092392, 26.1793752483]}, "type": "Feature", "properties": {"collection_times": [{"days": "Mon-Sat", "time": "10:00am"}, {"days": "Sun", "time": "Closed"}], "id": "7857700022", "name": "USPS COLLECTION BOX - BLUE BOX", "address": {"city": "PHARR", "state": "TX", "street": "1402 S CAGE BLVD", "postcode": "78577"}}},
{"geometry": {"type": "Point", "coordinates": [-98.1918068224, 26.1667161834]}, "type": "Feature", "properties": {"collection_times": [{"days": "Mon-Sat", "time": "10:00am"}, {"days": "Sun", "time": "Closed"}], "id": "7857700030", "name": "USPS COLLECTION BOX - BLUE BOX", "address": {"city": "PHARR", "state": "TX", "street": "301 E HALL ACRES RD", "postcode": "78577"}}},
{"geometry": {"type": "Point", "coordinates": [-98.1869728109, 26.1946865054]}, "type": "Feature", "properties": {"collection_times": [{"days": "Mon-Fri", "time": "4:00pm"}, {"days": "Sat", "time": "10:30am"}, {"days": "Sun", "time": "Closed"}], "id": "7857700032", "name": "USPS COLLECTION BOX - PO LOBBY", "address": {"city": "PHARR", "state": "TX", "street": "301 W PARK ST", "postcode": "78577"}}},
{"geometry": {"type": "Point", "coordinates": [-98.1869728109, 26.1946865054]}, "type": "Feature", "properties": {"collection_times": [{"days": "Mon-Fri", "time": "4:00pm"}, {"days": "Sat", "time": "10:30am"}, {"days": "Sun", "time": "Closed"}], "id": "7857700033", "name": "USPS COLLECTION BOX - PO LOBBY", "address": {"city": "PHARR", "state": "TX", "street": "301 W PARK ST", "postcode": "78577"}}},
{"geometry": {"type": "Point", "coordinates": [-97.2909867341, 26.1031515841]}, "type": "Feature", "properties": {"collection_times": [{"days": "Mon-Sat", "time": "12:00pm"}, {"days": "Sun", "time": "Closed"}], "id": "7857800001", "name": "USPS COLLECTION BOX - BLUE BOX", "address": {"city": "PORT ISABEL", "state": "TX", "street": "122 FERNANDEZ ST", "postcode": "78578"}}},
{"geometry": {"type": "Point", "coordinates": [-97.2106347419, 26.0760815302]}, "type": "Feature", "properties": {"collection_times": [{"days": "Mon-Fri", "time": "4:45pm"}, {"days": "Sat", "time": "1:00pm"}, {"days": "Sun", "time": "Closed"}], "id": "7857800006", "name": "USPS COLLECTION BOX - BLUE BOX", "address": {"city": "PORT ISABEL", "state": "TX", "street": "103 E MAXAN ST", "postcode": "78578"}}},
{"geometry": {"type": "Point", "coordinates": [-97.208569177, 26.0766967825]}, "type": "Feature", "properties": {"collection_times": [{"days": "Mon-Fri", "time": "4:45pm"}, {"days": "Sat", "time": "1:00pm"}, {"days": "Sun", "time": "Closed"}], "id": "7857800012", "name": "USPS COLLECTION BOX - PO LOBBY", "address": {"city": "PORT ISABEL", "state": "TX", "street": "103 MANAUTOU BLVD", "postcode": "78578"}}},
{"geometry": {"type": "Point", "coordinates": [-99.3330489019, 31.4627353752]}, "type": "Feature", "properties": {"collection_times": [{"days": "Mon-Sat", "time": "12:00pm"}, {"days": "Sun", "time": "Closed"}], "id": "7857800015", "name": "USPS COLLECTION BOX - BLUE BOX", "address": {"city": "PORT ISABEL", "state": "TX", "street": "33840 S GARCIA ST", "postcode": "78578"}}},
{"geometry": {"type": "Point", "coordinates": [-97.2435184602, 26.0786137191]}, "type": "Feature", "properties": {"collection_times": [{"days": "Mon-Fri", "time": "12:00pm"}, {"days": "Sat", "time": "11:00am"}, {"days": "Sun", "time": "Closed"}], "id": "7857800017", "name": "USPS COLLECTION BOX - BLUE BOX", "address": {"city": "PORT ISABEL", "state": "TX", "street": "1401 STATE HIGHWAY 100", "postcode": "78578"}}},
{"geometry": {"type": "Point", "coordinates": [-97.958471378, 26.0900378223]}, "type": "Feature", "properties": {"collection_times": [{"days": "Mon-Fri", "time": "4:30pm"}, {"days": "Sat", "time": "10:30am"}, {"days": "Sun", "time": "Closed"}], "id": "7857900000", "name": "USPS COLLECTION BOX - BLUE BOX", "address": {"city": "PROGRESO", "state": "TX", "street": "215 E US HIGHWAY 281", "postcode": "78579"}}},
{"geometry": {"type": "Point", "coordinates": [-97.958471378, 26.0900378223]}, "type": "Feature", "properties": {"collection_times": [{"days": "Mon-Fri", "time": "5:00pm"}, {"days": "Sat", "time": "10:30am"}, {"days": "Sun", "time": "Closed"}], "id": "7857900001", "name": "USPS COLLECTION BOX - PO LOBBY", "address": {"city": "PROGRESO", "state": "TX", "street": "215 E US HIGHWAY 281", "postcode": "78579"}}},
{"geometry": {"type": "Point", "coordinates": [-97.958471378, 26.0900378223]}, "type": "Feature", "properties": {"collection_times": [{"days": "Mon-Fri", "time": "5:00pm"}, {"days": "Sat", "time": "10:30am"}, {"days": "Sun", "time": "Closed"}], "id": "7857900002", "name": "USPS COLLECTION BOX - PO LOBBY", "address": {"city": "PROGRESO", "state": "TX", "street": "215 E US HIGHWAY 281", "postcode": "78579"}}},
{"geometry": {"type": "Point", "coordinates": [-97.7763007152, 26.4818918724]}, "type": "Feature", "properties": {"collection_times": [{"days": "Mon-Fri", "time": "4:30pm"}, {"days": "Sat", "time": "11:30am"}, {"days": "Sun", "time": "Closed"}], "id": "7858000001", "name": "USPS COLLECTION BOX - BLUE BOX", "address": {"city": "RAYMONDVILLE", "state": "TX", "street": "705 E HIDALGO AVE", "postcode": "78580"}}},
{"geometry": {"type": "Point", "coordinates": [-97.7868961126, 26.4819072096]}, "type": "Feature", "properties": {"collection_times": [{"days": "Mon-Sat", "time": "9:00am"}, {"days": "Sun", "time": "Closed"}], "id": "7858000011", "name": "USPS COLLECTION BOX - BLUE BOX", "address": {"city": "RAYMONDVILLE", "state": "TX", "street": "500 W HIDALGO AVE", "postcode": "78580"}}},
{"geometry": {"type": "Point", "coordinates": [-97.7763007152, 26.4818918724]}, "type": "Feature", "properties": {"collection_times": [{"days": "Mon-Fri", "time": "4:30pm"}, {"days": "Sat", "time": "11:30am"}, {"days": "Sun", "time": "Closed"}], "id": "7858000012", "name": "USPS COLLECTION BOX - PO LOBBY", "address": {"city": "RAYMONDVILLE", "state": "TX", "street": "705 E HIDALGO AVE", "postcode": "78580"}}},
{"geometry": {"type": "Point", "coordinates": [-97.7763007152, 26.4818918724]}, "type": "Feature", "properties": {"collection_times": [{"days": "Mon-Fri", "time": "4:30pm"}, {"days": "Sat", "time": "11:30am"}, {"days": "Sun", "time": "Closed"}], "id": "7858000013", "name": "USPS COLLECTION BOX - PO LOBBY", "address": {"city": "RAYMONDVILLE", "state": "TX", "street": "705 E HIDALGO AVE", "postcode": "78580"}}},
{"geometry": {"type": "Point", "coordinates": [-97.7763007152, 26.4818918724]}, "type": "Feature", "properties": {"collection_times": [{"days": "Mon-Fri", "time": "4:30pm"}, {"days": "Sat", "time": "11:30am"}, {"days": "Sun", "time": "Closed"}], "id": "7858000014", "name": "USPS COLLECTION BOX - PO LOBBY", "address": {"city": "RAYMONDVILLE", "state": "TX", "street": "705 E HIDALGO AVE", "postcode": "78580"}}},
{"geometry": {"type": "Point", "coordinates": [-98.819090124, 26.3813808713]}, "type": "Feature", "properties": {"collection_times": [{"days": "Mon-Sat", "time": "3:00pm"}, {"days": "Sun", "time": "Closed"}], "id": "7858200000", "name": "USPS COLLECTION BOX - BLUE BOX", "address": {"city": "RIO GRANDE CITY", "state": "TX", "street": "401 N BRITTON AVE", "postcode": "78582"}}},
{"geometry": {"type": "Point", "coordinates": [-98.8192093893, 26.379594629]}, "type": "Feature", "properties": {"collection_times": [{"days": "Mon-Sat", "time": "3:00pm"}, {"days": "Sun", "time": "Closed"}], "id": "7858200001", "name": "USPS COLLECTION BOX - BLUE BOX", "address": {"city": "RIO GRANDE CITY", "state": "TX", "street": "200 E 2ND ST", "postcode": "78582"}}},
{"geometry": {"type": "Point", "coordinates": [-98.820740959, 26.3790850932]}, "type": "Feature", "properties": {"collection_times": [{"days": "Mon-Sat", "time": "3:00pm"}, {"days": "Sun", "time": "Closed"}], "id": "7858200004", "name": "USPS COLLECTION BOX - BLUE BOX", "address": {"city": "RIO GRANDE CITY", "state": "TX", "street": "100 S BRITTON ST", "postcode": "78582"}}},
{"geometry": {"type": "Point", "coordinates": [-98.8599413179, 26.3751281638]}, "type": "Feature", "properties": {"collection_times": [{"days": "Mon-Sat", "time": "1:30pm"}, {"days": "Sun", "time": "Closed"}], "id": "7858200005", "name": "USPS COLLECTION BOX - BLUE BOX", "address": {"city": "RIO GRANDE CITY", "state": "TX", "street": "2795 PHARMACY RD", "postcode": "78582"}}},
{"geometry": {"type": "Point", "coordinates": [-98.8219791912, 26.3927123317]}, "type": "Feature", "properties": {"collection_times": [{"days": "Mon-Sat", "time": "4:45pm"}, {"days": "Sun", "time": "Closed"}], "id": "7858200010", "name": "USPS COLLECTION BOX - BLUE BOX", "address": {"city": "RIO GRANDE CITY", "state": "TX", "street": "500 W EISENHOWER ST", "postcode": "78582"}}},
{"geometry": {"type": "Point", "coordinates": [-98.8219791912, 26.3927123317]}, "type": "Feature", "properties": {"collection_times": [{"days": "Mon-Sat", "time": "4:45pm"}, {"days": "Sun", "time": "Closed"}], "id": "7858200011", "name": "USPS COLLECTION BOX - BLUE BOX", "address": {"city": "RIO GRANDE CITY", "state": "TX", "street": "500 W EISENHOWER ST", "postcode": "78582"}}},
{"geometry": {"type": "Point", "coordinates": [-98.8219791912, 26.3927123317]}, "type": "Feature", "properties": {"collection_times": [{"days": "Mon-Sat", "time": "4:45pm"}, {"days": "Sun", "time": "Closed"}], "id": "7858200013", "name": "USPS COLLECTION BOX - PO LOBBY", "address": {"city": "RIO GRANDE CITY", "state": "TX", "street": "500 W EISENHOWER ST", "postcode": "78582"}}},
{"geometry": {"type": "Point", "coordinates": [-98.7947974964, 26.3680813791]}, "type": "Feature", "properties": {"collection_times": [{"days": "Mon-Sat", "time": "2:30pm"}, {"days": "Sun", "time": "Closed"}], "id": "7858200014", "name": "USPS COLLECTION BOX - BLUE BOX", "address": {"city": "RIO GRANDE CITY", "state": "TX", "street": "4534 E US HIGHWAY 83", "postcode": "78582"}}},
{"geometry": {"type": "Point", "coordinates": [-97.5819098335, 26.2352877039]}, "type": "Feature", "properties": {"collection_times": [{"days": "Mon-Fri", "time": "4:00pm"}, {"days": "Sat", "time": "12:00pm"}, {"days": "Sun", "time": "Closed"}], "id": "7858300002", "name": "USPS COLLECTION BOX - PO LOBBY", "address": {"city": "RIO HONDO", "state": "TX", "street": "109 E COLORADO ST", "postcode": "78583"}}},
{"geometry": {"type": "Point", "coordinates": [-98.9832879027, 26.4064155865]}, "type": "Feature", "properties": {"collection_times": [{"days": "Mon-Fri", "time": "4:15pm"}, {"days": "Sat", "time": "3:45pm"}, {"days": "Sun", "time": "Closed"}], "id": "7858400000", "name": "USPS COLLECTION BOX - BLUE BOX", "address": {"city": "ROMA", "state": "TX", "street": "1724 E GRANT ST", "postcode": "78584"}}},
{"geometry": {"type": "Point", "coordinates": [-98.9832879027, 26.4064155865]}, "type": "Feature", "properties": {"collection_times": [{"days": "Mon-Fri", "time": "4:15pm"}, {"days": "Sat", "time": "3:45pm"}, {"days": "Sun", "time": "Closed"}], "id": "7858400001", "name": "USPS COLLECTION BOX - BLUE BOX", "address": {"city": "ROMA", "state": "TX", "street": "1724 E GRANT ST", "postcode": "78584"}}},
{"geometry": {"type": "Point", "coordinates": [-98.9832879027, 26.4064155865]}, "type": "Feature", "properties": {"collection_times": [{"days": "Mon-Fri", "time": "4:15pm"}, {"days": "Sat", "time": "3:45pm"}, {"days": "Sun", "time": "Closed"}], "id": "7858400002", "name": "USPS COLLECTION BOX - PO LOBBY", "address": {"city": "ROMA", "state": "TX", "street": "1724 E GRANT ST", "postcode": "78584"}}},
{"geometry": {"type": "Point", "coordinates": [-98.9832879027, 26.4064155865]}, "type": "Feature", "properties": {"collection_times": [{"days": "Mon-Fri", "time": "4:15pm"}, {"days": "Sat", "time": "3:45pm"}, {"days": "Sun", "time": "Closed"}], "id": "7858400003", "name": "USPS COLLECTION BOX - PO LOBBY", "address": {"city": "ROMA", "state": "TX", "street": "1724 E GRANT ST", "postcode": "78584"}}},
{"geometry": {"type": "Point", "coordinates": [-99.0209409097, 26.4141446879]}, "type": "Feature", "properties": {"collection_times": [{"days": "Mon-Sat", "time": "12:30pm"}, {"days": "Sun", "time": "Closed"}], "id": "7858400006", "name": "USPS COLLECTION BOX - BLUE BOX", "address": {"city": "ROMA", "state": "TX", "street": "1709 N GRANT ST", "postcode": "78584"}}},
{"geometry": {"type": "Point", "coordinates": [-98.9937506652, 26.402725764]}, "type": "Feature", "properties": {"collection_times": [{"days": "Mon-Sat", "time": "12:30pm"}, {"days": "Sun", "time": "Closed"}], "id": "7858400007", "name": "USPS COLLECTION BOX - BLUE BOX", "address": {"city": "ROMA", "state": "TX", "street": "72 E GRANT ST", "postcode": "78584"}}},
{"geometry": {"type": "Point", "coordinates": [-99.0161971004, 26.4059750174]}, "type": "Feature", "properties": {"collection_times": [{"days": "Mon-Fri", "time": "11:45am"}, {"days": "Sat", "time": "11:15am"}, {"days": "Sun", "time": "Closed"}], "id": "7858400012", "name": "USPS COLLECTION BOX - BLUE BOX", "address": {"city": "ROMA", "state": "TX", "street": "602 N HIGHWAY 83", "postcode": "78584"}}},
{"geometry": {"type": "Point", "coordinates": [-99.111633752, 26.5185029353]}, "type": "Feature", "properties": {"collection_times": [{"days": "Mon-Fri", "time": "10:30am"}, {"days": "Sat-Sun", "time": "Closed"}], "id": "7858500000", "name": "USPS COLLECTION BOX - BLUE BOX", "address": {"city": "SALINENO", "state": "TX", "street": "488 POST OFFICE ST", "postcode": "78585"}}},
{"geometry": {"type": "Point", "coordinates": [-99.111633752, 26.5185029353]}, "type": "Feature", "properties": {"collection_times": [{"days": "Mon-Fri", "time": "10:30am"}, {"days": "Sat-Sun", "time": "Closed"}], "id": "7858500001", "name": "USPS COLLECTION BOX - PO LOBBY", "address": {"city": "SALINENO", "state": "TX", "street": "488 POST OFFICE ST", "postcode": "78585"}}},
{"geometry": {"type": "Point", "coordinates": [-97.6335085622, 26.1238931035]}, "type": "Feature", "properties": {"collection_times": [{"days": "Mon-Sat", "time": "1:30pm"}, {"days": "Sun", "time": "Closed"}], "id": "7858600004", "name": "USPS COLLECTION BOX - BLUE BOX", "address": {"city": "SAN BENITO", "state": "TX", "street": "400 E HWY 77", "postcode": "78586"}}},
{"geometry": {"type": "Point", "coordinates": [-97.6329805842, 26.1306359454]}, "type": "Feature", "properties": {"collection_times": [{"days": "Mon-Sat", "time": "11:00am"}, {"days": "Sun", "time": "Closed"}], "id": "7858600012", "name": "USPS COLLECTION BOX - BLUE BOX", "address": {"city": "SAN BENITO", "state": "TX", "street": "216 S SAM HOUSTON BLVD", "postcode": "78586"}}},
{"geometry": {"type": "Point", "coordinates": [-97.6306711164, 26.1348567407]}, "type": "Feature", "properties": {"collection_times": [{"days": "Mon-Fri", "time": "4:30pm"}, {"days": "Sat", "time": "12:00pm"}, {"days": "Sun", "time": "Closed"}], "id": "7858600017", "name": "USPS COLLECTION BOX - BLUE BOX", "address": {"city": "SAN BENITO", "state": "TX", "street": "200 W HICKS ST", "postcode": "78586"}}},
{"geometry": {"type": "Point", "coordinates": [-97.6306711164, 26.1348567407]}, "type": "Feature", "properties": {"collection_times": [{"days": "Mon-Fri", "time": "4:15pm"}, {"days": "Sat", "time": "12:00pm"}, {"days": "Sun", "time": "Closed"}], "id": "7858600018", "name": "USPS COLLECTION BOX - PO LOBBY", "address": {"city": "SAN BENITO", "state": "TX", "street": "200 W HICKS ST", "postcode": "78586"}}},
{"geometry": {"type": "Point", "coordinates": [-97.6306711164, 26.1348567407]}, "type": "Feature", "properties": {"collection_times": [{"days": "Mon-Fri", "time": "4:15pm"}, {"days": "Sat", "time": "12:00pm"}, {"days": "Sun", "time": "Closed"}], "id": "7858600019", "name": "USPS COLLECTION BOX - PO LOBBY", "address": {"city": "SAN BENITO", "state": "TX", "street": "200 W HICKS ST", "postcode": "78586"}}},
{"geometry": {"type": "Point", "coordinates": [-98.4414933599, 26.7131329319]}, "type": "Feature", "properties": {"collection_times": [{"days": "Mon-Fri", "time": "2:15pm"}, {"days": "Sat", "time": "11:15am"}, {"days": "Sun", "time": "Closed"}], "id": "7858800000", "name": "USPS COLLECTION BOX - BLUE BOX", "address": {"city": "SAN ISIDRO", "state": "TX", "street": "5264 FM 1017", "postcode": "78588"}}},
{"geometry": {"type": "Point", "coordinates": [-98.4414933599, 26.7131329319]}, "type": "Feature", "properties": {"collection_times": [{"days": "Mon-Fri", "time": "2:15pm"}, {"days": "Sat", "time": "11:15am"}, {"days": "Sun", "time": "Closed"}], "id": "7858800002", "name": "USPS COLLECTION BOX - PO LOBBY", "address": {"city": "SAN ISIDRO", "state": "TX", "street": "5264 FM 1017", "postcode": "78588"}}},
{"geometry": {"type": "Point", "coordinates": [-98.1522043777, 26.202181878]}, "type": "Feature", "properties": {"collection_times": [{"days": "Mon-Fri", "time": "4:30pm"}, {"days": "Sat", "time": "12:00pm"}, {"days": "Sun", "time": "Closed"}], "id": "7858900001", "name": "USPS COLLECTION BOX - PO LOBBY", "address": {"city": "SAN JUAN", "state": "TX", "street": "100 W AMY DR", "postcode": "78589"}}},
{"geometry": {"type": "Point", "coordinates": [-98.1522043777, 26.202181878]}, "type": "Feature", "properties": {"collection_times": [{"days": "Mon-Fri", "time": "4:30pm"}, {"days": "Sat", "time": "12:00pm"}, {"days": "Sun", "time": "Closed"}], "id": "7858900002", "name": "USPS COLLECTION BOX - BLUE BOX", "address": {"city": "SAN JUAN", "state": "TX", "street": "100 W AMY DR", "postcode": "78589"}}},
{"geometry": {"type": "Point", "coordinates": [-98.1522043777, 26.202181878]}, "type": "Feature", "properties": {"collection_times": [{"days": "Mon-Fri", "time": "4:30pm"}, {"days": "Sat", "time": "12:00pm"}, {"days": "Sun", "time": "Closed"}], "id": "7858900003", "name": "USPS COLLECTION BOX - BLUE BOX", "address": {"city": "SAN JUAN", "state": "TX", "street": "100 W AMY DR", "postcode": "78589"}}},
{"geometry": {"type": "Point", "coordinates": [-98.1433321579, 26.1938438647]}, "type": "Feature", "properties": {"collection_times": [{"days": "Mon-Sat", "time": "11:00am"}, {"days": "Sun", "time": "Closed"}], "id": "7858900004", "name": "USPS COLLECTION BOX - BLUE BOX", "address": {"city": "SAN JUAN", "state": "TX", "street": "600 E HIGHWAY 83", "postcode": "78589"}}},
{"geometry": {"type": "Point", "coordinates": [-98.1522043777, 26.202181878]}, "type": "Feature", "properties": {"collection_times": [{"days": "Mon-Fri", "time": "4:30pm"}, {"days": "Sat", "time": "12:00pm"}, {"days": "Sun", "time": "Closed"}], "id": "7858900005", "name": "USPS COLLECTION BOX - PO LOBBY", "address": {"city": "SAN JUAN", "state": "TX", "street": "100 W AMY DR", "postcode": "78589"}}},
{"geometry": {"type": "Point", "coordinates": [-98.1673254144, 26.1855252007]}, "type": "Feature", "properties": {"collection_times": [{"days": "Mon-Sat", "time": "9:00am"}, {"days": "Sun", "time": "Closed"}], "id": "7858900008", "name": "USPS COLLECTION BOX - BLUE BOX", "address": {"city": "SAN JUAN", "state": "TX", "street": "914 SAM HOUSTON BLVD", "postcode": "78589"}}},
{"geometry": {"type": "Point", "coordinates": [-98.1519733224, 26.191813944]}, "type": "Feature", "properties": {"collection_times": [{"days": "Mon-Sat", "time": "11:30am"}, {"days": "Sun", "time": "Closed"}], "id": "7858900009", "name": "USPS COLLECTION BOX - BLUE BOX", "address": {"city": "SAN JUAN", "state": "TX", "street": "400 N IOWA AVE", "postcode": "78589"}}},
{"geometry": {"type": "Point", "coordinates": [-98.1361551317, 26.1935801128]}, "type": "Feature", "properties": {"collection_times": [{"days": "Mon-Sat", "time": "8:30am"}, {"days": "Sun", "time": "Closed"}], "id": "7858900011", "name": "USPS COLLECTION BOX - BLUE BOX", "address": {"city": "SAN JUAN", "state": "TX", "street": "901 W EXPRESSWAY 83", "postcode": "78589"}}},
{"geometry": {"type": "Point", "coordinates": [-97.5657593212, 26.5829032071]}, "type": "Feature", "properties": {"collection_times": [{"days": "Mon-Sat", "time": "4:15pm"}, {"days": "Sun", "time": "Closed"}], "id": "7859000001", "name": "USPS COLLECTION BOX - BLUE BOX", "address": {"city": "SAN PERLITA", "state": "TX", "street": "14254 FM 2209", "postcode": "78590"}}},
{"geometry": {"type": "Point", "coordinates": [-97.5657593212, 26.5829032071]}, "type": "Feature", "properties": {"collection_times": [{"days": "Mon-Fri", "time": "11:30am"}, {"days": "Sat", "time": "9:30am"}, {"days": "Sun", "time": "Closed"}], "id": "7859000002", "name": "USPS COLLECTION BOX - PO LOBBY", "address": {"city": "SAN PERLITA", "state": "TX", "street": "14254 FM 2209", "postcode": "78590"}}},
{"geometry": {"type": "Point", "coordinates": [-98.5131862183, 26.7197710875]}, "type": "Feature", "properties": {"collection_times": [{"days": "Mon-Sat", "time": "12:30pm"}, {"days": "Sun", "time": "Closed"}], "id": "7859100000", "name": "USPS COLLECTION BOX - BLUE BOX", "address": {"city": "SANTA ELENA", "state": "TX", "street": "4753 FM 1017", "postcode": "78591"}}},
{"geometry": {"type": "Point", "coordinates": [-98.5131862183, 26.7197710875]}, "type": "Feature", "properties": {"collection_times": [{"days": "Mon-Sat", "time": "12:30pm"}, {"days": "Sun", "time": "Closed"}], "id": "7859100001", "name": "USPS COLLECTION BOX - PO LOBBY", "address": {"city": "SANTA ELENA", "state": "TX", "street": "4753 FM 1017", "postcode": "78591"}}},
{"geometry": {"type": "Point", "coordinates": [-97.8475785048, 26.0794609952]}, "type": "Feature", "properties": {"collection_times": [{"days": "Mon-Sat", "time": "4:00pm"}, {"days": "Sun", "time": "Closed"}], "id": "7859200000", "name": "USPS COLLECTION BOX - BLUE BOX", "address": {"city": "SANTA MARIA", "state": "TX", "street": "11175 MILITARY RD", "postcode": "78592"}}},
{"geometry": {"type": "Point", "coordinates": [-97.8475785048, 26.0794609952]}, "type": "Feature", "properties": {"collection_times": [{"days": "Mon-Fri", "time": "11:00am"}, {"days": "Sat", "time": "10:30am"}, {"days": "Sun", "time": "Closed"}], "id": "7859200001", "name": "USPS COLLECTION BOX - PO LOBBY", "address": {"city": "SANTA MARIA", "state": "TX", "street": "11175 MILITARY RD", "postcode": "78592"}}},
{"geometry": {"type": "Point", "coordinates": [-97.8253972517, 26.2519316435]}, "type": "Feature", "properties": {"collection_times": [{"days": "Mon-Sat", "time": "5:45pm"}, {"days": "Sun", "time": "Closed"}], "id": "7859300001", "name": "USPS COLLECTION BOX - BLUE BOX", "address": {"city": "SANTA ROSA", "state": "TX", "street": "214 FM 506", "postcode": "78593"}}},
{"geometry": {"type": "Point", "coordinates": [-97.8253972517, 26.2519316435]}, "type": "Feature", "properties": {"collection_times": [{"days": "Mon-Fri", "time": "4:15pm"}, {"days": "Sat", "time": "11:30am"}, {"days": "Sun", "time": "Closed"}], "id": "7859300003", "name": "USPS COLLECTION BOX - PO LOBBY", "address": {"city": "SANTA ROSA", "state": "TX", "street": "214 FM 506", "postcode": "78593"}}},
{"geometry": {"type": "Point", "coordinates": [-97.6960950098, 26.3484473588]}, "type": "Feature", "properties": {"collection_times": [{"days": "Mon-Sat", "time": "5:30pm"}, {"days": "Sun", "time": "Closed"}], "id": "7859400000", "name": "USPS COLLECTION BOX - BLUE BOX", "address": {"city": "SEBASTIAN", "state": "TX", "street": "3476 BUSINESS 77", "postcode": "78594"}}},
{"geometry": {"type": "Point", "coordinates": [-97.6960950098, 26.3484473588]}, "type": "Feature", "properties": {"collection_times": [{"days": "Mon-Fri", "time": "2:30pm"}, {"days": "Sat", "time": "10:00am"}, {"days": "Sun", "time": "Closed"}], "id": "7859400001", "name": "USPS COLLECTION BOX - PO LOBBY", "address": {"city": "SEBASTIAN", "state": "TX", "street": "3476 BUSINESS 77", "postcode": "78594"}}},
{"geometry": {"type": "Point", "coordinates": [-98.5721680979, 26.2630581796]}, "type": "Feature", "properties": {"collection_times": [{"days": "Mon-Sat", "time": "5:15pm"}, {"days": "Sun", "time": "Closed"}], "id": "7859500000", "name": "USPS COLLECTION BOX - BLUE BOX", "address": {"city": "SULLIVAN CITY", "state": "TX", "street": "200 CENIZOS DR", "postcode": "78595"}}},
{"geometry": {"type": "Point", "coordinates": [-98.5721680979, 26.2630581796]}, "type": "Feature", "properties": {"collection_times": [{"days": "Mon-Fri", "time": "4:00pm"}, {"days": "Sat", "time": "11:00am"}, {"days": "Sun", "time": "Closed"}], "id": "7859500003", "name": "USPS COLLECTION BOX - PO LOBBY", "address": {"city": "SULLIVAN CITY", "state": "TX", "street": "200 CENIZOS DR", "postcode": "78595"}}},
{"geometry": {"type": "Point", "coordinates": [-97.9695097362, 26.1677416175]}, "type": "Feature", "properties": {"collection_times": [{"days": "Mon-Sat", "time": "10:00am"}, {"days": "Sun", "time": "Closed"}], "id": "7859600001", "name": "USPS COLLECTION BOX - BLUE BOX", "address": {"city": "WESLACO", "state": "TX", "street": "2300 E US HIGHWAY 83", "postcode": "78596"}}},
{"geometry": {"type": "Point", "coordinates": [-97.9582374473, 26.1519575948]}, "type": "Feature", "properties": {"collection_times": [{"days": "Mon-Sat", "time": "10:00am"}, {"days": "Sun", "time": "Closed"}], "id": "7859600002", "name": "USPS COLLECTION BOX - BLUE BOX", "address": {"city": "WESLACO", "state": "TX", "street": "802 S INTERNATIONAL BLVD", "postcode": "78596"}}},
{"geometry": {"type": "Point", "coordinates": [-97.9989290484, 26.1622418256]}, "type": "Feature", "properties": {"collection_times": [{"days": "Mon-Fri", "time": "5:00pm"}, {"days": "Sat", "time": "2:00pm"}, {"days": "Sun", "time": "Closed"}], "id": "7859600003", "name": "USPS COLLECTION BOX - BLUE BOX", "address": {"city": "WESLACO", "state": "TX", "street": "109 N BORDER AVE", "postcode": "78596"}}},
{"geometry": {"type": "Point", "coordinates": [-97.9989290484, 26.1622418256]}, "type": "Feature", "properties": {"collection_times": [{"days": "Mon-Fri", "time": "5:00pm"}, {"days": "Sat", "time": "2:00pm"}, {"days": "Sun", "time": "Closed"}], "id": "7859600004", "name": "USPS COLLECTION BOX - BLUE BOX", "address": {"city": "WESLACO", "state": "TX", "street": "109 N BORDER AVE", "postcode": "78596"}}},
{"geometry": {"type": "Point", "coordinates": [-98.0069668895, 26.1687009051]}, "type": "Feature", "properties": {"collection_times": [{"days": "Mon-Sat", "time": "9:30am"}, {"days": "Sun", "time": "Closed"}], "id": "7859600005", "name": "USPS COLLECTION BOX - BLUE BOX", "address": {"city": "WESLACO", "state": "TX", "street": "715 N WESTGATE DR", "postcode": "78596"}}},
{"geometry": {"type": "Point", "coordinates": [-98.0067497259, 26.1641263301]}, "type": "Feature", "properties": {"collection_times": [{"days": "Mon-Sat", "time": "1:00pm"}, {"days": "Sun", "time": "Closed"}], "id": "7859600006", "name": "USPS COLLECTION BOX - BLUE BOX", "address": {"city": "WESLACO", "state": "TX", "street": "310 N WESTGATE DR", "postcode": "78596"}}},
{"geometry": {"type": "Point", "coordinates": [-97.9907576872, 26.1709632003]}, "type": "Feature", "properties": {"collection_times": [{"days": "Mon-Sat", "time": "1:00pm"}, {"days": "Sun", "time": "Closed"}], "id": "7859600007", "name": "USPS COLLECTION BOX - BLUE BOX", "address": {"city": "WESLACO", "state": "TX", "street": "1004 N TEXAS BLVD", "postcode": "78596"}}},
{"geometry": {"type": "Point", "coordinates": [-97.9743263855, 26.1435563685]}, "type": "Feature", "properties": {"collection_times": [{"days": "Mon-Sat", "time": "9:30am"}, {"days": "Sun", "time": "Closed"}], "id": "7859600008", "name": "USPS COLLECTION BOX - BLUE BOX", "address": {"city": "WESLACO", "state": "TX", "street": "1601 S AIRPORT DR", "postcode": "78596"}}},
{"geometry": {"type": "Point", "coordinates": [-97.974349431, 26.1447952863]}, "type": "Feature", "properties": {"collection_times": [{"days": "Mon-Sat", "time": "9:30am"}, {"days": "Sun", "time": "Closed"}], "id": "7859600009", "name": "USPS COLLECTION BOX - BLUE BOX", "address": {"city": "WESLACO", "state": "TX", "street": "1501 S AIRPORT DR", "postcode": "78596"}}},
{"geometry": {"type": "Point", "coordinates": [-97.957846446, 26.1323127337]}, "type": "Feature", "properties": {"collection_times": [{"days": "Mon-Sat", "time": "10:00am"}, {"days": "Sun", "time": "Closed"}], "id": "7859600010", "name": "USPS COLLECTION BOX - BLUE BOX", "address": {"city": "WESLACO", "state": "TX", "street": "2712 S INTERNATIONAL BLVD", "postcode": "78596"}}},
{"geometry": {"type": "Point", "coordinates": [-97.9821256411, 26.1364581317]}, "type": "Feature", "properties": {"collection_times": [{"days": "Mon-Sat", "time": "10:00am"}, {"days": "Sun", "time": "Closed"}], "id": "7859600012", "name": "USPS COLLECTION BOX - BLUE BOX", "address": {"city": "WESLACO", "state": "TX", "street": "2100 S BRIDGE AVE", "postcode": "78596"}}},
{"geometry": {"type": "Point", "coordinates": [-97.9781766197, 26.1556371225]}, "type": "Feature", "properties": {"collection_times": [{"days": "Mon-Sat", "time": "10:00am"}, {"days": "Sun", "time": "Closed"}], "id": "7859600013", "name": "USPS COLLECTION BOX - BLUE BOX", "address": {"city": "WESLACO", "state": "TX", "street": "1330 E 6TH ST", "postcode": "78596"}}},
{"geometry": {"type": "Point", "coordinates": [-97.9825137096, 26.1567808258]}, "type": "Feature", "properties": {"collection_times": [{"days": "Mon-Sat", "time": "10:00am"}, {"days": "Sun", "time": "Closed"}], "id": "7859600014", "name": "USPS COLLECTION BOX - BLUE BOX", "address": {"city": "WESLACO", "state": "TX", "street": "600 S BRIDGE AVE", "postcode": "78596"}}},
{"geometry": {"type": "Point", "coordinates": [-97.9825137096, 26.1567808258]}, "type": "Feature", "properties": {"collection_times": [{"days": "Mon-Sat", "time": "10:00am"}, {"days": "Sun", "time": "Closed"}], "id": "7859600015", "name": "USPS COLLECTION BOX - BLUE BOX", "address": {"city": "WESLACO", "state": "TX", "street": "600 S BRIDGE AVE", "postcode": "78596"}}},
{"geometry": {"type": "Point", "coordinates": [-97.9915403598, 26.1566244909]}, "type": "Feature", "properties": {"collection_times": [{"days": "Mon-Sat", "time": "1:30pm"}, {"days": "Sun", "time": "Closed"}], "id": "7859600020", "name": "USPS COLLECTION BOX - BLUE BOX", "address": {"city": "WESLACO", "state": "TX", "street": "500 S MISSOURI AVE", "postcode": "78596"}}},
{"geometry": {"type": "Point", "coordinates": [-97.9915403598, 26.1566244909]}, "type": "Feature", "properties": {"collection_times": [{"days": "Mon-Sat", "time": "1:30pm"}, {"days": "Sun", "time": "Closed"}], "id": "7859600021", "name": "USPS COLLECTION BOX - BLUE BOX", "address": {"city": "WESLACO", "state": "TX", "street": "500 S MISSOURI AVE", "postcode": "78596"}}},
{"geometry": {"type": "Point", "coordinates": [-97.9903783855, 26.140771089]}, "type": "Feature", "properties": {"collection_times": [{"days": "Mon-Sat", "time": "1:00pm"}, {"days": "Sun", "time": "Closed"}], "id": "7859600023", "name": "USPS COLLECTION BOX - BLUE BOX", "address": {"city": "WESLACO", "state": "TX", "street": "2001 S TEXAS BLVD", "postcode": "78596"}}},
{"geometry": {"type": "Point", "coordinates": [-97.9874370309, 26.1409793399]}, "type": "Feature", "properties": {"collection_times": [{"days": "Mon-Sat", "time": "10:00am"}, {"days": "Sun", "time": "Closed"}], "id": "7859600024", "name": "USPS COLLECTION BOX - BLUE BOX", "address": {"city": "WESLACO", "state": "TX", "street": "400 E 18TH ST", "postcode": "78596"}}},
{"geometry": {"type": "Point", "coordinates": [-97.9989290484, 26.1622418256]}, "type": "Feature", "properties": {"collection_times": [{"days": "Mon-Fri", "time": "5:00pm"}, {"days": "Sat", "time": "2:00pm"}, {"days": "Sun", "time": "Closed"}], "id": "7859600025", "name": "USPS COLLECTION BOX - PO LOBBY", "address": {"city": "WESLACO", "state": "TX", "street": "109 N BORDER AVE", "postcode": "78596"}}},
{"geometry": {"type": "Point", "coordinates": [-97.9989290484, 26.1622418256]}, "type": "Feature", "properties": {"collection_times": [{"days": "Mon-Fri", "time": "5:00pm"}, {"days": "Sat", "time": "2:00pm"}, {"days": "Sun", "time": "Closed"}], "id": "7859600029", "name": "USPS COLLECTION BOX - PO LOBBY", "address": {"city": "WESLACO", "state": "TX", "street": "109 N BORDER AVE", "postcode": "78596"}}},
{"geometry": {"type": "Point", "coordinates": [-97.169944621, 26.1185410717]}, "type": "Feature", "properties": {"collection_times": [{"days": "Mon-Sat", "time": "4:00pm"}, {"days": "Sun", "time": "Closed"}], "id": "7859700001", "name": "USPS COLLECTION BOX - BLUE BOX", "address": {"city": "S PADRE ISLE", "state": "TX", "street": "4701 PADRE BLVD", "postcode": "78597"}}},
{"geometry": {"type": "Point", "coordinates": [-97.1644842048, 26.0874896758]}, "type": "Feature", "properties": {"collection_times": [{"days": "Mon-Sat", "time": "12:00pm"}, {"days": "Sun", "time": "Closed"}], "id": "7859700003", "name": "USPS COLLECTION BOX - BLUE BOX", "address": {"city": "S PADRE ISLE", "state": "TX", "street": "600 PADRE BLVD", "postcode": "78597"}}},
{"geometry": {"type": "Point", "coordinates": [-97.169944621, 26.1185410717]}, "type": "Feature", "properties": {"collection_times": [{"days": "Mon-Fri", "time": "4:00pm"}, {"days": "Sat", "time": "1:00pm"}, {"days": "Sun", "time": "Closed"}], "id": "7859700005", "name": "USPS COLLECTION BOX - PO LOBBY", "address": {"city": "S PADRE ISLE", "state": "TX", "street": "4701 PADRE BLVD", "postcode": "78597"}}},
{"geometry": {"type": "Point", "coordinates": [-97.4258262009, 26.5532403949]}, "type": "Feature", "properties": {"collection_times": [{"days": "Mon-Fri", "time": "10:00am"}, {"days": "Sat", "time": "9:30am"}, {"days": "Sun", "time": "Closed"}], "id": "7859800000", "name": "USPS COLLECTION BOX - BLUE BOX", "address": {"city": "PORT MANSFIELD", "state": "TX", "street": "818 MANSFIELD DR", "postcode": "78598"}}},
{"geometry": {"type": "Point", "coordinates": [-97.4258262009, 26.5532403949]}, "type": "Feature", "properties": {"collection_times": [{"days": "Mon-Fri", "time": "10:00am"}, {"days": "Sat", "time": "9:30am"}, {"days": "Sun", "time": "Closed"}], "id": "7859800002", "name": "USPS COLLECTION BOX - PO LOBBY", "address": {"city": "PORT MANSFIELD", "state": "TX", "street": "818 MANSFIELD DR", "postcode": "78598"}}}
]}
