{"type": "FeatureCollection", "features": [
{"geometry": {"type": "Point", "coordinates": [-97.3141465246, 30.1160015197]}, "type": "Feature", "properties": {"collection_times": [{"days": "Mon-Sat", "time": "5:15pm"}, {"days": "Sun", "time": "Closed"}], "id": "7860200000", "name": "USPS COLLECTION BOX - EXPRESS", "address": {"city": "BASTROP", "state": "TX", "street": "1106 MAIN ST", "postcode": "78602"}}},
{"geometry": {"type": "Point", "coordinates": [-97.3200439556, 30.1118173317]}, "type": "Feature", "properties": {"collection_times": [{"days": "Mon-Sat", "time": "5:15pm"}, {"days": "Sun", "time": "Closed"}], "id": "7860200002", "name": "USPS COLLECTION BOX - BLUE BOX", "address": {"city": "BASTROP", "state": "TX", "street": "1106 MAIN ST", "postcode": "78602"}}},
{"geometry": {"type": "Point", "coordinates": [-97.3200439556, 30.1118173317]}, "type": "Feature", "properties": {"collection_times": [{"days": "Mon-Sat", "time": "5:15pm"}, {"days": "Sun", "time": "Closed"}], "id": "7860200003", "name": "USPS COLLECTION BOX - BLUE BOX", "address": {"city": "BASTROP", "state": "TX", "street": "1106 MAIN ST", "postcode": "78602"}}},
{"geometry": {"type": "Point", "coordinates": [-97.3200439556, 30.1118173317]}, "type": "Feature", "properties": {"collection_times": [{"days": "Mon-Fri", "time": "4:30pm"}, {"days": "Sat", "time": "11:00am"}, {"days": "Sun", "time": "Closed"}], "id": "7860200005", "name": "USPS COLLECTION BOX - PO LOBBY", "address": {"city": "BASTROP", "state": "TX", "street": "1106 MAIN ST", "postcode": "78602"}}},
{"geometry": {"type": "Point", "coordinates": [-97.331735139, 30.106302377]}, "type": "Feature", "properties": {"collection_times": [{"days": "Mon-Sat", "time": "9:00am"}, {"days": "Sun", "time": "Closed"}], "id": "7860200010", "name": "USPS COLLECTION BOX - BLUE BOX", "address": {"city": "BASTROP", "state": "TX", "street": "441 HIGHWAY 71 W", "postcode": "78602"}}},
{"geometry": {"type": "Point", "coordinates": [-97.3333711713, 30.1095827222]}, "type": "Feature", "properties": {"collection_times": [{"days": "Mon-Sat", "time": "9:00am"}, {"days": "Sun", "time": "Closed"}], "id": "7860200013", "name": "USPS COLLECTION BOX - BLUE BOX", "address": {"city": "BASTROP", "state": "TX", "street": "104 N HASLER BLVD", "postcode": "78602"}}},
{"geometry": {"type": "Point", "coordinates": [-97.3200439556, 30.1118173317]}, "type": "Feature", "properties": {"collection_times": [{"days": "Mon-Fri", "time": "4:30pm"}, {"days": "Sat", "time": "11:00am"}, {"days": "Sun", "time": "Closed"}], "id": "7860200014", "name": "USPS COLLECTION BOX - PO LOBBY", "address": {"city": "BASTROP", "state": "TX", "street": "1106 MAIN ST", "postcode": "78602"}}},
{"geometry": {"type": "Point", "coordinates": [-97.3175569091, 30.108475462]}, "type": "Feature", "properties": {"collection_times": [{"days": "Mon-Sat", "time": "9:00am"}, {"days": "Sun", "time": "Closed"}], "id": "7860200015", "name": "USPS COLLECTION BOX - BLUE BOX", "address": {"city": "BASTROP", "state": "TX", "street": "802 PECAN ST", "postcode": "78602"}}},
{"geometry": {"type": "Point", "coordinates": [-97.3199292085, 30.1089510221]}, "type": "Feature", "properties": {"collection_times": [{"days": "Mon-Sat", "time": "9:00am"}, {"days": "Sun", "time": "Closed"}], "id": "7860200016", "name": "USPS COLLECTION BOX - BLUE BOX", "address": {"city": "BASTROP", "state": "TX", "street": "808 MAIN ST", "postcode": "78602"}}},
{"geometry": {"type": "Point", "coordinates": [-98.0588467816, 30.7440272743]}, "type": "Feature", "properties": {"collection_times": [{"days": "Mon-Sat", "time": "4:45pm"}, {"days": "Sun", "time": "Closed"}], "id": "7860500000", "name": "USPS COLLECTION BOX - BLUE BOX", "address": {"city": "BERTRAM", "state": "TX", "street": "135 W FM 243", "postcode": "78605"}}},
{"geometry": {"type": "Point", "coordinates": [-98.0588467816, 30.7440272743]}, "type": "Feature", "properties": {"collection_times": [{"days": "Mon-Fri", "time": "4:15pm"}, {"days": "Sat", "time": "11:00am"}, {"days": "Sun", "time": "Closed"}], "id": "7860500003", "name": "USPS COLLECTION BOX - PO LOBBY", "address": {"city": "BERTRAM", "state": "TX", "street": "135 W FM 243", "postcode": "78605"}}},
{"geometry": {"type": "Point", "coordinates": [-98.4210935567, 30.0976551462]}, "type": "Feature", "properties": {"collection_times": [{"days": "Mon-Sat", "time": "5:00pm"}, {"days": "Sun", "time": "Closed"}], "id": "7860600000", "name": "USPS COLLECTION BOX - BLUE BOX", "address": {"city": "BLANCO", "state": "TX", "street": "402 4TH ST", "postcode": "78606"}}},
{"geometry": {"type": "Point", "coordinates": [-98.4210935567, 30.0976551462]}, "type": "Feature", "properties": {"collection_times": [{"days": "Mon-Fri", "time": "4:30pm"}, {"days": "Sat", "time": "9:30am"}, {"days": "Sun", "time": "Closed"}], "id": "7860600005", "name": "USPS COLLECTION BOX - PO LOBBY", "address": {"city": "BLANCO", "state": "TX", "street": "402 4TH ST", "postcode": "78606"}}},
{"geometry": {"type": "Point", "coordinates": [-98.5180958619, 30.8373380419]}, "type": "Feature", "properties": {"collection_times": [{"days": "Mon-Fri", "time": "2:00pm"}, {"days": "Sat", "time": "1:30pm"}, {"days": "Sun", "time": "Closed"}], "id": "7860700000", "name": "USPS COLLECTION BOX - BLUE BOX", "address": {"city": "BLUFFTON", "state": "TX", "street": "11725 RANCH ROAD 2241", "postcode": "78607"}}},
{"geometry": {"type": "Point", "coordinates": [-98.5180958619, 30.8373380419]}, "type": "Feature", "properties": {"collection_times": [{"days": "Mon-Fri", "time": "11:45am"}, {"days": "Sat", "time": "9:30am"}, {"days": "Sun", "time": "Closed"}], "id": "7860700001", "name": "USPS COLLECTION BOX - PO LOBBY", "address": {"city": "BLUFFTON", "state": "TX", "street": "11725 RANCH ROAD 2241", "postcode": "78607"}}},
{"geometry": {"type": "Point", "coordinates": [-97.924067618, 30.8871545812]}, "type": "Feature", "properties": {"collection_times": [{"days": "Mon-Fri", "time": "11:30am"}, {"days": "Sat", "time": "10:00am"}, {"days": "Sun", "time": "Closed"}], "id": "7860800000", "name": "USPS COLLECTION BOX - BLUE BOX", "address": {"city": "BRIGGS", "state": "TX", "street": "140 LOOP 308", "postcode": "78608"}}},
{"geometry": {"type": "Point", "coordinates": [-97.924067618, 30.8871545812]}, "type": "Feature", "properties": {"collection_times": [{"days": "Mon-Fri", "time": "11:30am"}, {"days": "Sat", "time": "10:00am"}, {"days": "Sun", "time": "Closed"}], "id": "7860800001", "name": "USPS COLLECTION BOX - PO LOBBY", "address": {"city": "BRIGGS", "state": "TX", "street": "140 LOOP 308", "postcode": "78608"}}},
{"geometry": {"type": "Point", "coordinates": [-98.430826368, 30.739603663]}, "type": "Feature", "properties": {"collection_times": [{"days": "Mon-Sat", "time": "5:00pm"}, {"days": "Sun", "time": "Closed"}], "id": "7860900002", "name": "USPS COLLECTION BOX - BLUE BOX", "address": {"city": "BUCHANAN DAM", "state": "TX", "street": "17727 E STATE HIGHWAY 29", "postcode": "78609"}}},
{"geometry": {"type": "Point", "coordinates": [-98.430826368, 30.739603663]}, "type": "Feature", "properties": {"collection_times": [{"days": "Mon-Fri", "time": "3:30pm"}, {"days": "Sat", "time": "9:00am"}, {"days": "Sun", "time": "Closed"}], "id": "7860900005", "name": "USPS COLLECTION BOX - PO LOBBY", "address": {"city": "BUCHANAN DAM", "state": "TX", "street": "17727 E STATE HIGHWAY 29", "postcode": "78609"}}},
{"geometry": {"type": "Point", "coordinates": [-98.430826368, 30.739603663]}, "type": "Feature", "properties": {"collection_times": [{"days": "Mon-Fri", "time": "3:30pm"}, {"days": "Sat", "time": "9:00am"}, {"days": "Sun", "time": "Closed"}], "id": "7860900007", "name": "USPS COLLECTION BOX - PO LOBBY", "address": {"city": "BUCHANAN DAM", "state": "TX", "street": "17727 E STATE HIGHWAY 29", "postcode": "78609"}}},
{"geometry": {"type": "Point", "coordinates": [-97.8280301943, 30.0836688231]}, "type": "Feature", "properties": {"collection_times": [{"days": "Mon-Sat", "time": "6:00pm"}, {"days": "Sun", "time": "Closed"}], "id": "7861000000", "name": "USPS COLLECTION BOX - BLUE BOX", "address": {"city": "BUDA", "state": "TX", "street": "1320 CABELAS DR", "postcode": "78610"}}},
{"geometry": {"type": "Point", "coordinates": [-97.8280301943, 30.0836688231]}, "type": "Feature", "properties": {"collection_times": [{"days": "Mon-Fri", "time": "5:00pm"}, {"days": "Sat", "time": "12:00pm"}, {"days": "Sun", "time": "Closed"}], "id": "7861000005", "name": "USPS COLLECTION BOX - PO LOBBY", "address": {"city": "BUDA", "state": "TX", "street": "1320 CABELAS DR", "postcode": "78610"}}},
{"geometry": {"type": "Point", "coordinates": [-97.820592397, 30.0866422647]}, "type": "Feature", "properties": {"collection_times": [{"days": "Mon-Sat", "time": "12:00pm"}, {"days": "Sun", "time": "Closed"}], "id": "7861000007", "name": "USPS COLLECTION BOX - BLUE BOX", "address": {"city": "BUDA", "state": "TX", "street": "15300 S INTERSTATE 35", "postcode": "78610"}}},
{"geometry": {"type": "Point", "coordinates": [-97.8280301943, 30.0836688231]}, "type": "Feature", "properties": {"collection_times": [{"days": "Mon-Fri", "time": "5:00pm"}, {"days": "Sat", "time": "12:00pm"}, {"days": "Sun", "time": "Closed"}], "id": "7861000009", "name": "USPS COLLECTION BOX - PO LOBBY", "address": {"city": "BUDA", "state": "TX", "street": "1320 CABELAS DR", "postcode": "78610"}}},
{"geometry": {"type": "Point", "coordinates": [-98.2405208876, 30.7589503016]}, "type": "Feature", "properties": {"collection_times": [{"days": "Mon-Sat", "time": "10:00am"}, {"days": "Sun", "time": "Closed"}], "id": "7861100004", "name": "USPS COLLECTION BOX - BLUE BOX", "address": {"city": "BURNET", "state": "TX", "street": "1001 BUCHANAN DR", "postcode": "78611"}}},
{"geometry": {"type": "Point", "coordinates": [-98.2223991393, 30.7573994424]}, "type": "Feature", "properties": {"collection_times": [{"days": "Mon-Sat", "time": "5:30pm"}, {"days": "Sun", "time": "Closed"}], "id": "7861100008", "name": "USPS COLLECTION BOX - BLUE BOX", "address": {"city": "BURNET", "state": "TX", "street": "508 E JACKSON ST", "postcode": "78611"}}},
{"geometry": {"type": "Point", "coordinates": [-98.2223991393, 30.7573994424]}, "type": "Feature", "properties": {"collection_times": [{"days": "Mon-Fri", "time": "4:30pm"}, {"days": "Sat", "time": "10:30am"}, {"days": "Sun", "time": "Closed"}], "id": "7861100015", "name": "USPS COLLECTION BOX - PO LOBBY", "address": {"city": "BURNET", "state": "TX", "street": "508 E JACKSON ST", "postcode": "78611"}}},
{"geometry": {"type": "Point", "coordinates": [-97.4980550813, 30.0863598232]}, "type": "Feature", "properties": {"collection_times": [{"days": "Mon-Sat", "time": "4:30pm"}, {"days": "Sun", "time": "Closed"}], "id": "7861200002", "name": "USPS COLLECTION BOX - BLUE BOX", "address": {"city": "CEDAR CREEK", "state": "TX", "street": "1167 STATE HIGHWAY 21 W", "postcode": "78612"}}},
{"geometry": {"type": "Point", "coordinates": [-97.4980550813, 30.0863598232]}, "type": "Feature", "properties": {"collection_times": [{"days": "Mon-Fri", "time": "4:00pm"}, {"days": "Sat", "time": "11:00am"}, {"days": "Sun", "time": "Closed"}], "id": "7861200004", "name": "USPS COLLECTION BOX - PO LOBBY", "address": {"city": "CEDAR CREEK", "state": "TX", "street": "1167 STATE HIGHWAY 21 W", "postcode": "78612"}}},
{"geometry": {"type": "Point", "coordinates": [-97.826771526, 30.5158818083]}, "type": "Feature", "properties": {"collection_times": [{"days": "Mon-Sat", "time": "5:00pm"}, {"days": "Sun", "time": "Closed"}], "id": "7861300001", "name": "USPS COLLECTION BOX - BLUE BOX", "address": {"city": "CEDAR PARK", "state": "TX", "street": "600 N BELL BLVD", "postcode": "78613"}}},
{"geometry": {"type": "Point", "coordinates": [-97.8259968625, 30.5031719248]}, "type": "Feature", "properties": {"collection_times": [{"days": "Mon-Sat", "time": "4:00pm"}, {"days": "Sun", "time": "Closed"}], "id": "7861300005", "name": "USPS COLLECTION BOX - BLUE BOX", "address": {"city": "CEDAR PARK", "state": "TX", "street": "1405 W WHITESTONE BLVD", "postcode": "78613"}}},
{"geometry": {"type": "Point", "coordinates": [-97.8209667463, 30.5035388145]}, "type": "Feature", "properties": {"collection_times": [{"days": "Mon-Sat", "time": "4:45pm"}, {"days": "Sun", "time": "Closed"}], "id": "7861300011", "name": "USPS COLLECTION BOX - BLUE BOX", "address": {"city": "CEDAR PARK", "state": "TX", "street": "200 BUTTERCUP CREEK BLVD", "postcode": "78613"}}},
{"geometry": {"type": "Point", "coordinates": [-97.8038919166, 30.4702740084]}, "type": "Feature", "properties": {"collection_times": [{"days": "Mon-Sat", "time": "4:15pm"}, {"days": "Sun", "time": "Closed"}], "id": "7861300015", "name": "USPS COLLECTION BOX - BLUE BOX", "address": {"city": "CEDAR PARK", "state": "TX", "street": "11200 LAKELINE MALL DR", "postcode": "78613"}}},
{"geometry": {"type": "Point", "coordinates": [-97.8346145439, 30.5193845498]}, "type": "Feature", "properties": {"collection_times": [{"days": "Mon-Sat", "time": "5:15pm"}, {"days": "Sun", "time": "Closed"}], "id": "7861300019", "name": "USPS COLLECTION BOX - BLUE BOX", "address": {"city": "CEDAR PARK", "state": "TX", "street": "500 E WHITESTONE BLVD", "postcode": "78613"}}},
{"geometry": {"type": "Point", "coordinates": [-97.8259968625, 30.5031719248]}, "type": "Feature", "properties": {"collection_times": [{"days": "Mon-Sat", "time": "5:15pm"}, {"days": "Sun", "time": "Closed"}], "id": "7861300020", "name": "USPS COLLECTION BOX - EXPRESS", "address": {"city": "CEDAR PARK", "state": "TX", "street": "500 E WHITESTONE BLVD", "postcode": "78613"}}},
{"geometry": {"type": "Point", "coordinates": [-97.8329835646, 30.4806821785]}, "type": "Feature", "properties": {"collection_times": [{"days": "Mon-Sat", "time": "4:00pm"}, {"days": "Sun", "time": "Closed"}], "id": "7861300021", "name": "USPS COLLECTION BOX - BLUE BOX", "address": {"city": "CEDAR PARK", "state": "TX", "street": "1555 CYPRESS CREEK RD", "postcode": "78613"}}},
{"geometry": {"type": "Point", "coordinates": [-97.8346145439, 30.5193845498]}, "type": "Feature", "properties": {"collection_times": [{"days": "Mon-Fri", "time": "5:30pm"}, {"days": "Sat", "time": "12:00pm"}, {"days": "Sun", "time": "Closed"}], "id": "7861300022", "name": "USPS COLLECTION BOX - PO LOBBY", "address": {"city": "CEDAR PARK", "state": "TX", "street": "500 E WHITESTONE BLVD", "postcode": "78613"}}},
{"geometry": {"type": "Point", "coordinates": [-97.8346145439, 30.5193845498]}, "type": "Feature", "properties": {"collection_times": [{"days": "Mon-Fri", "time": "5:30pm"}, {"days": "Sat", "time": "12:00pm"}, {"days": "Sun", "time": "Closed"}], "id": "7861300023", "name": "USPS COLLECTION BOX - PO LOBBY", "address": {"city": "CEDAR PARK", "state": "TX", "street": "500 E WHITESTONE BLVD", "postcode": "78613"}}},
{"geometry": {"type": "Point", "coordinates": [-97.8346145439, 30.5193845498]}, "type": "Feature", "properties": {"collection_times": [{"days": "Mon-Fri", "time": "5:30pm"}, {"days": "Sat", "time": "12:00pm"}, {"days": "Sun", "time": "Closed"}], "id": "7861300024", "name": "USPS COLLECTION BOX - APC", "address": {"city": "CEDAR PARK", "state": "TX", "street": "500 E WHITESTONE BLVD", "postcode": "78613"}}},
{"geometry": {"type": "Point", "coordinates": [-97.7848770342, 30.5340000078]}, "type": "Feature", "properties": {"collection_times": [{"days": "Mon-Sat", "time": "3:30pm"}, {"days": "Sun", "time": "Closed"}], "id": "7861300025", "name": "USPS COLLECTION BOX - BLUE BOX", "address": {"city": "CEDAR PARK", "state": "TX", "street": "2800 E WHITESTONE BLVD", "postcode": "78613"}}},
{"geometry": {"type": "Point", "coordinates": [-97.5296928721, 29.4352378028]}, "type": "Feature", "properties": {"collection_times": [{"days": "Mon-Fri", "time": "2:00pm"}, {"days": "Sat", "time": "12:00pm"}, {"days": "Sun", "time": "Closed"}], "id": "7861400000", "name": "USPS COLLECTION BOX - BLUE BOX", "address": {"city": "COST", "state": "TX", "street": "136 S FM 466", "postcode": "78614"}}},
{"geometry": {"type": "Point", "coordinates": [-97.5296928721, 29.4352378028]}, "type": "Feature", "properties": {"collection_times": [{"days": "Mon-Sat", "time": "12:00pm"}, {"days": "Sun", "time": "Closed"}], "id": "7861400001", "name": "USPS COLLECTION BOX - PO LOBBY", "address": {"city": "COST", "state": "TX", "street": "136 S FM 466", "postcode": "78614"}}},
{"geometry": {"type": "Point", "coordinates": [-97.3944094437, 30.4597092888]}, "type": "Feature", "properties": {"collection_times": [{"days": "Mon-Sat", "time": "5:00pm"}, {"days": "Sun", "time": "Closed"}], "id": "7861500000", "name": "USPS COLLECTION BOX - BLUE BOX", "address": {"city": "COUPLAND", "state": "TX", "street": "13701 S STATE HIGHWAY 95", "postcode": "78615"}}},
{"geometry": {"type": "Point", "coordinates": [-97.3944094437, 30.4597092888]}, "type": "Feature", "properties": {"collection_times": [{"days": "Mon-Fri", "time": "11:30am"}, {"days": "Sat", "time": "8:30am"}, {"days": "Sun", "time": "Closed"}], "id": "7861500001", "name": "USPS COLLECTION BOX - PO LOBBY", "address": {"city": "COUPLAND", "state": "TX", "street": "13701 S STATE HIGHWAY 95", "postcode": "78615"}}},
{"geometry": {"type": "Point", "coordinates": [-97.4937837487, 29.8137888902]}, "type": "Feature", "properties": {"collection_times": [{"days": "Mon-Sat", "time": "4:45pm"}, {"days": "Sun", "time": "Closed"}], "id": "7861600001", "name": "USPS COLLECTION BOX - BLUE BOX", "address": {"city": "DALE", "state": "TX", "street": "1383 FM 1854", "postcode": "78616"}}},
{"geometry": {"type": "Point", "coordinates": [-97.4937837487, 29.8137888902]}, "type": "Feature", "properties": {"collection_times": [{"days": "Mon-Fri", "time": "3:30pm"}, {"days": "Sat", "time": "10:00am"}, {"days": "Sun", "time": "Closed"}], "id": "7861600003", "name": "USPS COLLECTION BOX - PO LOBBY", "address": {"city": "DALE", "state": "TX", "street": "1383 FM 1854", "postcode": "78616"}}},
{"geometry": {"type": "Point", "coordinates": [-97.6477448821, 30.1990309814]}, "type": "Feature", "properties": {"collection_times": [{"days": "Mon-Sat", "time": "10:00am"}, {"days": "Sun", "time": "Closed"}], "id": "7861700000", "name": "USPS COLLECTION BOX - BLUE BOX", "address": {"city": "DEL VALLE", "state": "TX", "street": "3614 BILL PRICE RD", "postcode": "78617"}}},
{"geometry": {"type": "Point", "coordinates": [-97.6498276268, 30.208665476]}, "type": "Feature", "properties": {"collection_times": [{"days": "Mon-Sat", "time": "6:00pm"}, {"days": "Sun", "time": "Closed"}], "id": "7861700004", "name": "USPS COLLECTION BOX - BLUE BOX", "address": {"city": "DEL VALLE", "state": "TX", "street": "2883 HIGHWAY 71 E", "postcode": "78617"}}},
{"geometry": {"type": "Point", "coordinates": [-97.6498276268, 30.208665476]}, "type": "Feature", "properties": {"collection_times": [{"days": "Mon-Sat", "time": "6:00pm"}, {"days": "Sun", "time": "Closed"}], "id": "7861700005", "name": "USPS COLLECTION BOX - BLUE BOX", "address": {"city": "DEL VALLE", "state": "TX", "street": "2883 HIGHWAY 71 E", "postcode": "78617"}}},
{"geometry": {"type": "Point", "coordinates": [-97.6498410854, 30.208612949]}, "type": "Feature", "properties": {"collection_times": [{"days": "Mon-Fri", "time": "4:45pm"}, {"days": "Sat", "time": "11:30am"}, {"days": "Sun", "time": "Closed"}], "id": "7861700006", "name": "USPS COLLECTION BOX - PO LOBBY", "address": {"city": "DEL VALLE", "state": "TX", "street": "2883 HIGHWAY 71 E", "postcode": "78617"}}},
{"geometry": {"type": "Point", "coordinates": [-97.6498410854, 30.208612949]}, "type": "Feature", "properties": {"collection_times": [{"days": "Mon-Fri", "time": "4:45pm"}, {"days": "Sat", "time": "11:30am"}, {"days": "Sun", "time": "Closed"}], "id": "7861700007", "name": "USPS COLLECTION BOX - PO LOBBY", "address": {"city": "DEL VALLE", "state": "TX", "street": "2883 HIGHWAY 71 E", "postcode": "78617"}}},
{"geometry": {"type": "Point", "coordinates": [-97.6491071464, 30.1600442332]}, "type": "Feature", "properties": {"collection_times": [{"days": "Mon-Sat", "time": "10:00am"}, {"days": "Sun", "time": "Closed"}], "id": "7861700009", "name": "USPS COLLECTION BOX - BLUE BOX", "address": {"city": "DEL VALLE", "state": "TX", "street": "6900 APPERSON ST", "postcode": "78617"}}},
{"geometry": {"type": "Point", "coordinates": [-99.1308475011, 30.4422656002]}, "type": "Feature", "properties": {"collection_times": [{"days": "Mon-Sat", "time": "11:30am"}, {"days": "Sun", "time": "Closed"}], "id": "7861800000", "name": "USPS COLLECTION BOX - PO LOBBY", "address": {"city": "DOSS", "state": "TX", "street": "14112 N RANCH ROAD 783", "postcode": "78618"}}},
{"geometry": {"type": "Point", "coordinates": [-99.1308475011, 30.4422656002]}, "type": "Feature", "properties": {"collection_times": [{"days": "Mon-Sat", "time": "11:30am"}, {"days": "Sun", "time": "Closed"}], "id": "7861800001", "name": "USPS COLLECTION BOX - BLUE BOX", "address": {"city": "DOSS", "state": "TX", "street": "14112 N RANCH ROAD 783", "postcode": "78618"}}},
{"geometry": {"type": "Point", "coordinates": [-98.0321828866, 30.1231524445]}, "type": "Feature", "properties": {"collection_times": [{"days": "Mon-Fri", "time": "1:00pm"}, {"days": "Sat", "time": "9:00am"}, {"days": "Sun", "time": "Closed"}], "id": "7861900000", "name": "USPS COLLECTION BOX - PO LOBBY", "address": {"city": "DRIFTWOOD", "state": "TX", "street": "100 ELDER HILL RD", "postcode": "78619"}}},
{"geometry": {"type": "Point", "coordinates": [-98.0321828866, 30.1231524445]}, "type": "Feature", "properties": {"collection_times": [{"days": "Mon-Sat", "time": "6:00pm"}, {"days": "Sun", "time": "Closed"}], "id": "7861900001", "name": "USPS COLLECTION BOX - BLUE BOX", "address": {"city": "DRIFTWOOD", "state": "TX", "street": "100 ELDER HILL RD", "postcode": "78619"}}},
{"geometry": {"type": "Point", "coordinates": [-98.1045840165, 30.1962758832]}, "type": "Feature", "properties": {"collection_times": [{"days": "Mon-Fri", "time": "4:00pm"}, {"days": "Sat", "time": "10:00am"}, {"days": "Sun", "time": "Closed"}], "id": "7862000000", "name": "USPS COLLECTION BOX - PO LOBBY", "address": {"city": "DRIPPING SPRINGS", "state": "TX", "street": "1450 W HIGHWAY 290", "postcode": "78620"}}},
{"geometry": {"type": "Point", "coordinates": [-98.1045840165, 30.1962758832]}, "type": "Feature", "properties": {"collection_times": [{"days": "Mon-Sat", "time": "6:00pm"}, {"days": "Sun", "time": "Closed"}], "id": "7862000003", "name": "USPS COLLECTION BOX - BLUE BOX", "address": {"city": "DRIPPING SPRINGS", "state": "TX", "street": "1450 W HIGHWAY 290", "postcode": "78620"}}},
{"geometry": {"type": "Point", "coordinates": [-98.1045840165, 30.1962758832]}, "type": "Feature", "properties": {"collection_times": [{"days": "Mon-Fri", "time": "4:00pm"}, {"days": "Sat", "time": "10:00am"}, {"days": "Sun", "time": "Closed"}], "id": "7862000008", "name": "USPS COLLECTION BOX - PO LOBBY", "address": {"city": "DRIPPING SPRINGS", "state": "TX", "street": "1450 W HIGHWAY 290", "postcode": "78620"}}},
{"geometry": {"type": "Point", "coordinates": [-98.0896936196, 30.1927624818]}, "type": "Feature", "properties": {"collection_times": [{"days": "Mon-Sat", "time": "12:00pm"}, {"days": "Sun", "time": "Closed"}], "id": "7862000009", "name": "USPS COLLECTION BOX - BLUE BOX", "address": {"city": "DRIPPING SPRINGS", "state": "TX", "street": "511 W MERCER ST", "postcode": "78620"}}},
{"geometry": {"type": "Point", "coordinates": [-97.382835421, 30.3471839001]}, "type": "Feature", "properties": {"collection_times": [{"days": "Mon-Sat", "time": "12:00pm"}, {"days": "Sun", "time": "Closed"}], "id": "7862100002", "name": "USPS COLLECTION BOX - BLUE BOX", "address": {"city": "ELGIN", "state": "TX", "street": "1080 HIGHWAY 290 E", "postcode": "78621"}}},
{"geometry": {"type": "Point", "coordinates": [-97.3714081071, 30.3473647252]}, "type": "Feature", "properties": {"collection_times": [{"days": "Mon-Sat", "time": "5:30pm"}, {"days": "Sun", "time": "Closed"}], "id": "7862100004", "name": "USPS COLLECTION BOX - BLUE BOX", "address": {"city": "ELGIN", "state": "TX", "street": "21 N AVENUE C", "postcode": "78621"}}},
{"geometry": {"type": "Point", "coordinates": [-97.3814609116, 30.3545843304]}, "type": "Feature", "properties": {"collection_times": [{"days": "Mon-Sat", "time": "12:00pm"}, {"days": "Sun", "time": "Closed"}], "id": "7862100008", "name": "USPS COLLECTION BOX - BLUE BOX", "address": {"city": "ELGIN", "state": "TX", "street": "1225 N AVENUE C", "postcode": "78621"}}},
{"geometry": {"type": "Point", "coordinates": [-97.3714081071, 30.3473647252]}, "type": "Feature", "properties": {"collection_times": [{"days": "Mon-Fri", "time": "4:30pm"}, {"days": "Sat", "time": "12:00pm"}, {"days": "Sun", "time": "Closed"}], "id": "7862100014", "name": "USPS COLLECTION BOX - PO LOBBY", "address": {"city": "ELGIN", "state": "TX", "street": "21 N AVENUE C", "postcode": "78621"}}},
{"geometry": {"type": "Point", "coordinates": [-97.369934, 30.337212]}, "type": "Feature", "properties": {"collection_times": [{"days": "Mon-Sat", "time": "12:00pm"}, {"days": "Sun", "time": "Closed"}], "id": "7862100015", "name": "USPS COLLECTION BOX - BLUE BOX", "address": {"city": "ELGIN", "state": "TX", "street": "186 HIGHWAY 290 E", "postcode": "78621"}}},
{"geometry": {"type": "Point", "coordinates": [-97.7742087419, 29.7511713724]}, "type": "Feature", "properties": {"collection_times": [{"days": "Mon-Fri", "time": "12:00pm"}, {"days": "Sat", "time": "8:45am"}, {"days": "Sun", "time": "Closed"}], "id": "7862200002", "name": "USPS COLLECTION BOX - PO LOBBY", "address": {"city": "FENTRESS", "state": "TX", "street": "109 GONZALES AVE", "postcode": "78622"}}},
{"geometry": {"type": "Point", "coordinates": [-98.267919277, 29.976799243]}, "type": "Feature", "properties": {"collection_times": [{"days": "Mon-Sat", "time": "4:45pm"}, {"days": "Sun", "time": "Closed"}], "id": "7862300000", "name": "USPS COLLECTION BOX - BLUE BOX", "address": {"city": "FISCHER", "state": "TX", "street": "4050 FM 484", "postcode": "78623"}}},
{"geometry": {"type": "Point", "coordinates": [-98.267919277, 29.976799243]}, "type": "Feature", "properties": {"collection_times": [{"days": "Mon-Fri", "time": "3:00pm"}, {"days": "Sat", "time": "11:00am"}, {"days": "Sun", "time": "Closed"}], "id": "7862300002", "name": "USPS COLLECTION BOX - PO LOBBY", "address": {"city": "FISCHER", "state": "TX", "street": "4050 FM 484", "postcode": "78623"}}},
{"geometry": {"type": "Point", "coordinates": [-98.8685178367, 30.2724023536]}, "type": "Feature", "properties": {"collection_times": [{"days": "Mon-Sat", "time": "10:30am"}, {"days": "Sun", "time": "Closed"}], "id": "7862400005", "name": "USPS COLLECTION BOX - BLUE BOX", "address": {"city": "FREDERICKSBURG", "state": "TX", "street": "324 E MAIN ST", "postcode": "78624"}}},
{"geometry": {"type": "Point", "coordinates": [-98.8644250799, 30.2802441537]}, "type": "Feature", "properties": {"collection_times": [{"days": "Mon-Sat", "time": "12:00pm"}, {"days": "Sun", "time": "Closed"}], "id": "7862400006", "name": "USPS COLLECTION BOX - BLUE BOX", "address": {"city": "FREDERICKSBURG", "state": "TX", "street": "202 E MORSE ST", "postcode": "78624"}}},
{"geometry": {"type": "Point", "coordinates": [-98.8732600953, 30.2756793287]}, "type": "Feature", "properties": {"collection_times": [{"days": "Mon-Sat", "time": "3:00pm"}, {"days": "Sun", "time": "Closed"}], "id": "7862400008", "name": "USPS COLLECTION BOX - BLUE BOX", "address": {"city": "FREDERICKSBURG", "state": "TX", "street": "125 S NIMITZ PKWY", "postcode": "78624"}}},
{"geometry": {"type": "Point", "coordinates": [-98.8734823845, 30.2746804353]}, "type": "Feature", "properties": {"collection_times": [{"days": "Mon-Sat", "time": "3:00pm"}, {"days": "Sun", "time": "Closed"}], "id": "7862400011", "name": "USPS COLLECTION BOX - BLUE BOX", "address": {"city": "FREDERICKSBURG", "state": "TX", "street": "125 S NIMITZ PKWY", "postcode": "78624"}}},
{"geometry": {"type": "Point", "coordinates": [-98.8734823845, 30.2746804353]}, "type": "Feature", "properties": {"collection_times": [{"days": "Mon-Sat", "time": "3:00pm"}, {"days": "Sun", "time": "Closed"}], "id": "7862400012", "name": "USPS COLLECTION BOX - BLUE BOX", "address": {"city": "FREDERICKSBURG", "state": "TX", "street": "125 S NIMITZ PKWY", "postcode": "78624"}}},
{"geometry": {"type": "Point", "coordinates": [-98.8753663023, 30.2716753585]}, "type": "Feature", "properties": {"collection_times": [{"days": "Mon-Sat", "time": "9:30am"}, {"days": "Sun", "time": "Closed"}], "id": "7862400013", "name": "USPS COLLECTION BOX - BLUE BOX", "address": {"city": "FREDERICKSBURG", "state": "TX", "street": "407 S ADAMS ST", "postcode": "78624"}}},
{"geometry": {"type": "Point", "coordinates": [-98.8792978846, 30.2633161332]}, "type": "Feature", "properties": {"collection_times": [{"days": "Mon-Sat", "time": "10:00am"}, {"days": "Sun", "time": "Closed"}], "id": "7862400014", "name": "USPS COLLECTION BOX - BLUE BOX", "address": {"city": "FREDERICKSBURG", "state": "TX", "street": "1020 S HIGHWAY 16", "postcode": "78624"}}},
{"geometry": {"type": "Point", "coordinates": [-98.8543011725, 30.2589802105]}, "type": "Feature", "properties": {"collection_times": [{"days": "Mon-Sat", "time": "11:30am"}, {"days": "Sun", "time": "Closed"}], "id": "7862400018", "name": "USPS COLLECTION BOX - BLUE BOX", "address": {"city": "FREDERICKSBURG", "state": "TX", "street": "1410 E MAIN ST", "postcode": "78624"}}},
{"geometry": {"type": "Point", "coordinates": [-98.879070593, 30.2634227173]}, "type": "Feature", "properties": {"collection_times": [{"days": "Mon-Sat", "time": "11:00am"}, {"days": "Sun", "time": "Closed"}], "id": "7862400019", "name": "USPS COLLECTION BOX - BLUE BOX", "address": {"city": "FREDERICKSBURG", "state": "TX", "street": "1017 S STATE HIGHWAY 16", "postcode": "78624"}}},
{"geometry": {"type": "Point", "coordinates": [-98.8882050652, 30.2865610649]}, "type": "Feature", "properties": {"collection_times": [{"days": "Mon-Fri", "time": "4:45pm"}, {"days": "Sat", "time": "4:30pm"}, {"days": "Sun", "time": "Closed"}], "id": "7862400021", "name": "USPS COLLECTION BOX - BLUE BOX", "address": {"city": "FREDERICKSBURG", "state": "TX", "street": "1150 N US HIGHWAY 87", "postcode": "78624"}}},
{"geometry": {"type": "Point", "coordinates": [-98.8882050652, 30.2865610649]}, "type": "Feature", "properties": {"collection_times": [{"days": "Mon-Fri", "time": "4:45pm"}, {"days": "Sat", "time": "4:30pm"}, {"days": "Sun", "time": "Closed"}], "id": "7862400022", "name": "USPS COLLECTION BOX - BLUE BOX", "address": {"city": "FREDERICKSBURG", "state": "TX", "street": "1150 N US HIGHWAY 87", "postcode": "78624"}}},
{"geometry": {"type": "Point", "coordinates": [-98.8820461042, 30.2770100435]}, "type": "Feature", "properties": {"collection_times": [{"days": "Mon-Fri", "time": "4:45pm"}, {"days": "Sat", "time": "4:30pm"}, {"days": "Sun", "time": "Closed"}], "id": "7862400023", "name": "USPS COLLECTION BOX - EXPRESS", "address": {"city": "FREDERICKSBURG", "state": "TX", "street": "1150 N US HIGHWAY 87", "postcode": "78624"}}},
{"geometry": {"type": "Point", "coordinates": [-98.8882050652, 30.2865610649]}, "type": "Feature", "properties": {"collection_times": [{"days": "Mon-Fri", "time": "4:45pm"}, {"days": "Sat", "time": "4:15pm"}, {"days": "Sun", "time": "Closed"}], "id": "7862400024", "name": "USPS COLLECTION BOX - PO LOBBY", "address": {"city": "FREDERICKSBURG", "state": "TX", "street": "1150 N US HIGHWAY 87", "postcode": "78624"}}},
{"geometry": {"type": "Point", "coordinates": [-98.8882050652, 30.2865610649]}, "type": "Feature", "properties": {"collection_times": [{"days": "Mon-Fri", "time": "4:45pm"}, {"days": "Sat", "time": "4:15pm"}, {"days": "Sun", "time": "Closed"}], "id": "7862400025", "name": "USPS COLLECTION BOX - PO LOBBY", "address": {"city": "FREDERICKSBURG", "state": "TX", "street": "1150 N US HIGHWAY 87", "postcode": "78624"}}},
{"geometry": {"type": "Point", "coordinates": [-98.8788267, 30.2639289834]}, "type": "Feature", "properties": {"collection_times": [{"days": "Mon-Sat", "time": "10:00am"}, {"days": "Sun", "time": "Closed"}], "id": "7862400026", "name": "USPS COLLECTION BOX - BLUE BOX", "address": {"city": "FREDERICKSBURG", "state": "TX", "street": "205 W WINDCREST ST", "postcode": "78624"}}},
{"geometry": {"type": "Point", "coordinates": [-98.8732600953, 30.2756793287]}, "type": "Feature", "properties": {"collection_times": [{"days": "Mon-Sat", "time": "3:00pm"}, {"days": "Sun", "time": "Closed"}], "id": "7862400027", "name": "USPS COLLECTION BOX - BLUE BOX", "address": {"city": "FREDERICKSBURG", "state": "TX", "street": "125 S NIMITZ PKWY", "postcode": "78624"}}},
{"geometry": {"type": "Point", "coordinates": [-99.3330489019, 31.4627353752]}, "type": "Feature", "properties": {"collection_times": [{"days": "Mon-Sat", "time": "12:00pm"}, {"days": "Sun", "time": "Closed"}], "id": "7862400028", "name": "USPS COLLECTION BOX - BLUE BOX", "address": {"city": "FREDERICKSBURG", "state": "TX", "street": "1435 E MAIN ST", "postcode": "78624"}}},
{"geometry": {"type": "Point", "coordinates": [-97.6621024551, 30.6752878947]}, "type": "Feature", "properties": {"collection_times": [{"days": "Mon-Sat", "time": "11:00am"}, {"days": "Sun", "time": "Closed"}], "id": "7862600000", "name": "USPS COLLECTION BOX - BLUE BOX", "address": {"city": "GEORGETOWN", "state": "TX", "street": "40204 INDUSTRIAL PARK CIR", "postcode": "78626"}}},
{"geometry": {"type": "Point", "coordinates": [-97.6429077629, 30.6306430234]}, "type": "Feature", "properties": {"collection_times": [{"days": "Mon-Sat", "time": "12:00pm"}, {"days": "Sun", "time": "Closed"}], "id": "7862600001", "name": "USPS COLLECTION BOX - BLUE BOX", "address": {"city": "GEORGETOWN", "state": "TX", "street": "100 BELMONT DR", "postcode": "78626"}}},
{"geometry": {"type": "Point", "coordinates": [-97.6779706666, 30.6338192682]}, "type": "Feature", "properties": {"collection_times": [{"days": "Mon-Sat", "time": "2:30pm"}, {"days": "Sun", "time": "Closed"}], "id": "7862600002", "name": "USPS COLLECTION BOX - BLUE BOX", "address": {"city": "GEORGETOWN", "state": "TX", "street": "1111 S AUSTIN AVE", "postcode": "78626"}}},
{"geometry": {"type": "Point", "coordinates": [-97.687272273, 30.6238043376]}, "type": "Feature", "properties": {"collection_times": [{"days": "Mon-Fri", "time": "5:30pm"}, {"days": "Sat", "time": "4:30pm"}, {"days": "Sun", "time": "Closed"}], "id": "7862600004", "name": "USPS COLLECTION BOX - PO LOBBY", "address": {"city": "GEORGETOWN", "state": "TX", "street": "2300 SCENIC DR", "postcode": "78626"}}},
{"geometry": {"type": "Point", "coordinates": [-97.687272273, 30.6238043376]}, "type": "Feature", "properties": {"collection_times": [{"days": "Mon-Fri", "time": "5:30pm"}, {"days": "Sat", "time": "4:30pm"}, {"days": "Sun", "time": "Closed"}], "id": "7862600005", "name": "USPS COLLECTION BOX - PO LOBBY", "address": {"city": "GEORGETOWN", "state": "TX", "street": "2300 SCENIC DR", "postcode": "78626"}}},
{"geometry": {"type": "Point", "coordinates": [-97.671008515, 30.664125147]}, "type": "Feature", "properties": {"collection_times": [{"days": "Mon-Fri", "time": "3:45pm"}, {"days": "Sat", "time": "3:15pm"}, {"days": "Sun", "time": "Closed"}], "id": "7862600007", "name": "USPS COLLECTION BOX - BLUE BOX", "address": {"city": "GEORGETOWN", "state": "TX", "street": "1101 S INTERSTATE 35", "postcode": "78626"}}},
{"geometry": {"type": "Point", "coordinates": [-97.6762909644, 30.6473736285]}, "type": "Feature", "properties": {"collection_times": [{"days": "Mon-Fri", "time": "4:45pm"}, {"days": "Sat", "time": "3:15pm"}, {"days": "Sun", "time": "Closed"}], "id": "7862600009", "name": "USPS COLLECTION BOX - BLUE BOX", "address": {"city": "GEORGETOWN", "state": "TX", "street": "700 S CHURCH ST", "postcode": "78626"}}},
{"geometry": {"type": "Point", "coordinates": [-97.6760279106, 30.6374023561]}, "type": "Feature", "properties": {"collection_times": [{"days": "Mon-Fri", "time": "4:45pm"}, {"days": "Sat", "time": "3:15pm"}, {"days": "Sun", "time": "Closed"}], "id": "7862600010", "name": "USPS COLLECTION BOX - BLUE BOX", "address": {"city": "GEORGETOWN", "state": "TX", "street": "700 S CHURCH ST", "postcode": "78626"}}},
{"geometry": {"type": "Point", "coordinates": [-97.6780345464, 30.6379123062]}, "type": "Feature", "properties": {"collection_times": [{"days": "Mon-Sat", "time": "3:15pm"}, {"days": "Sun", "time": "Closed"}], "id": "7862600011", "name": "USPS COLLECTION BOX - BLUE BOX", "address": {"city": "GEORGETOWN", "state": "TX", "street": "624 S AUSTIN AVE", "postcode": "78626"}}},
{"geometry": {"type": "Point", "coordinates": [-97.6809316129, 30.6395459726]}, "type": "Feature", "properties": {"collection_times": [{"days": "Mon-Fri", "time": "3:15pm"}, {"days": "Sat-Sun", "time": "Closed"}], "id": "7862600012", "name": "USPS COLLECTION BOX - BLUE BOX", "address": {"city": "GEORGETOWN", "state": "TX", "street": "405 MARTIN LUTHER KING ST", "postcode": "78626"}}},
{"geometry": {"type": "Point", "coordinates": [-97.6779860451, 30.6352932351]}, "type": "Feature", "properties": {"collection_times": [{"days": "Mon-Fri", "time": "4:15pm"}, {"days": "Sat", "time": "3:15pm"}, {"days": "Sun", "time": "Closed"}], "id": "7862600017", "name": "USPS COLLECTION BOX - BLUE BOX", "address": {"city": "GEORGETOWN", "state": "TX", "street": "900 N AUSTIN AVE STE 125", "postcode": "78626"}}},
{"geometry": {"type": "Point", "coordinates": [-97.667960647, 30.6334084171]}, "type": "Feature", "properties": {"collection_times": [{"days": "Mon-Sat", "time": "3:00pm"}, {"days": "Sun", "time": "Closed"}], "id": "7862600019", "name": "USPS COLLECTION BOX - BLUE BOX", "address": {"city": "GEORGETOWN", "state": "TX", "street": "1001 E UNIVERSITY AVE", "postcode": "78626"}}},
{"geometry": {"type": "Point", "coordinates": [-97.687272273, 30.6238043376]}, "type": "Feature", "properties": {"collection_times": [{"days": "Mon-Fri", "time": "5:30pm"}, {"days": "Sat", "time": "4:30pm"}, {"days": "Sun", "time": "Closed"}], "id": "7862600027", "name": "USPS COLLECTION BOX - APC", "address": {"city": "GEORGETOWN", "state": "TX", "street": "2300 SCENIC DR", "postcode": "78626"}}},
{"geometry": {"type": "Point", "coordinates": [-97.6896423883, 30.6603547526]}, "type": "Feature", "properties": {"collection_times": [{"days": "Mon-Fri", "time": "4:00pm"}, {"days": "Sat", "time": "3:15pm"}, {"days": "Sun", "time": "Closed"}], "id": "7862800000", "name": "USPS COLLECTION BOX - BLUE BOX", "address": {"city": "GEORGETOWN", "state": "TX", "street": "2415 WILLIAMS DR", "postcode": "78628"}}},
{"geometry": {"type": "Point", "coordinates": [-97.6924406207, 30.6636215534]}, "type": "Feature", "properties": {"collection_times": [{"days": "Mon-Fri", "time": "4:15pm"}, {"days": "Sat", "time": "3:15pm"}, {"days": "Sun", "time": "Closed"}], "id": "7862800001", "name": "USPS COLLECTION BOX - BLUE BOX", "address": {"city": "GEORGETOWN", "state": "TX", "street": "3010 WILLIAMS DR", "postcode": "78628"}}},
{"geometry": {"type": "Point", "coordinates": [-97.6736481346, 30.7045318233]}, "type": "Feature", "properties": {"collection_times": [{"days": "Mon-Sat", "time": "11:30am"}, {"days": "Sun", "time": "Closed"}], "id": "7862800005", "name": "USPS COLLECTION BOX - BLUE BOX", "address": {"city": "GEORGETOWN", "state": "TX", "street": "100 POPPY HILLS DR", "postcode": "78628"}}},
{"geometry": {"type": "Point", "coordinates": [-97.7195938738, 30.7142392138]}, "type": "Feature", "properties": {"collection_times": [{"days": "Mon-Sat", "time": "1:00pm"}, {"days": "Sun", "time": "Closed"}], "id": "7862800006", "name": "USPS COLLECTION BOX - BLUE BOX", "address": {"city": "GEORGETOWN", "state": "TX", "street": "400 DEL WEBB BLVD", "postcode": "78628"}}},
{"geometry": {"type": "Point", "coordinates": [-97.67107854, 30.705660044]}, "type": "Feature", "properties": {"collection_times": [{"days": "Mon-Sat", "time": "12:00pm"}, {"days": "Sun", "time": "Closed"}], "id": "7862800007", "name": "USPS COLLECTION BOX - BLUE BOX", "address": {"city": "GEORGETOWN", "state": "TX", "street": "30500 BERRY CREEK DR", "postcode": "78628"}}},
{"geometry": {"type": "Point", "coordinates": [-97.6786248429, 30.6602915239]}, "type": "Feature", "properties": {"collection_times": [{"days": "Mon-Sat", "time": "11:00am"}, {"days": "Sun", "time": "Closed"}], "id": "7862800008", "name": "USPS COLLECTION BOX - BLUE BOX", "address": {"city": "GEORGETOWN", "state": "TX", "street": "501 E JANIS DR", "postcode": "78628"}}},
{"geometry": {"type": "Point", "coordinates": [-97.718006621, 30.714467653]}, "type": "Feature", "properties": {"collection_times": [{"days": "Mon-Sat", "time": "1:00pm"}, {"days": "Sun", "time": "Closed"}], "id": "7862800009", "name": "USPS COLLECTION BOX - BLUE BOX", "address": {"city": "GEORGETOWN", "state": "TX", "street": "2 TEXAS DR BLDG A", "postcode": "78628"}}},
{"geometry": {"type": "Point", "coordinates": [-97.7186963949, 30.6833604067]}, "type": "Feature", "properties": {"collection_times": [{"days": "Mon-Fri", "time": "4:15pm"}, {"days": "Sat", "time": "3:15pm"}, {"days": "Sun", "time": "Closed"}], "id": "7862800010", "name": "USPS COLLECTION BOX - BLUE BOX", "address": {"city": "GEORGETOWN", "state": "TX", "street": "4500 WILLIAMS DR", "postcode": "78628"}}},
{"geometry": {"type": "Point", "coordinates": [-97.6896423883, 30.6603547526]}, "type": "Feature", "properties": {"collection_times": [{"days": "Mon-Fri", "time": "4:00pm"}, {"days": "Sat", "time": "3:15pm"}, {"days": "Sun", "time": "Closed"}], "id": "7862800012", "name": "USPS COLLECTION BOX - BLUE BOX", "address": {"city": "GEORGETOWN", "state": "TX", "street": "2415 WILLIAMS DR", "postcode": "78628"}}},
{"geometry": {"type": "Point", "coordinates": [-97.4441815009, 29.5216388841]}, "type": "Feature", "properties": {"collection_times": [{"days": "Mon-Sat", "time": "1:15pm"}, {"days": "Sun", "time": "Closed"}], "id": "7862900009", "name": "USPS COLLECTION BOX - BLUE BOX", "address": {"city": "GONZALES", "state": "TX", "street": "1624 E SARAH DEWITT DR", "postcode": "78629"}}},
{"geometry": {"type": "Point", "coordinates": [-97.4543117541, 29.5051403327]}, "type": "Feature", "properties": {"collection_times": [{"days": "Mon-Sat", "time": "5:15pm"}, {"days": "Sun", "time": "Closed"}], "id": "7862900015", "name": "USPS COLLECTION BOX - BLUE BOX", "address": {"city": "GONZALES", "state": "TX", "street": "920 N SAINT JOSEPH ST", "postcode": "78629"}}},
{"geometry": {"type": "Point", "coordinates": [-97.4543117541, 29.5051403327]}, "type": "Feature", "properties": {"collection_times": [{"days": "Mon-Sat", "time": "5:15pm"}, {"days": "Sun", "time": "Closed"}], "id": "7862900016", "name": "USPS COLLECTION BOX - BLUE BOX", "address": {"city": "GONZALES", "state": "TX", "street": "920 N SAINT JOSEPH ST", "postcode": "78629"}}},
{"geometry": {"type": "Point", "coordinates": [-97.4543117541, 29.5051403327]}, "type": "Feature", "properties": {"collection_times": [{"days": "Mon-Fri", "time": "4:45pm"}, {"days": "Sat", "time": "3:00pm"}, {"days": "Sun", "time": "Closed"}], "id": "7862900020", "name": "USPS COLLECTION BOX - PO LOBBY", "address": {"city": "GONZALES", "state": "TX", "street": "920 N SAINT JOSEPH ST", "postcode": "78629"}}},
{"geometry": {"type": "Point", "coordinates": [-99.2351035432, 30.2830571304]}, "type": "Feature", "properties": {"collection_times": [{"days": "Mon-Fri", "time": "3:45pm"}, {"days": "Sat", "time": "12:30pm"}, {"days": "Sun", "time": "Closed"}], "id": "7863100001", "name": "USPS COLLECTION BOX - BLUE BOX", "address": {"city": "HARPER", "state": "TX", "street": "23557 W US HIGHWAY 290", "postcode": "78631"}}},
{"geometry": {"type": "Point", "coordinates": [-99.2351035432, 30.2830571304]}, "type": "Feature", "properties": {"collection_times": [{"days": "Mon-Fri", "time": "4:15pm"}, {"days": "Sat", "time": "11:00am"}, {"days": "Sun", "time": "Closed"}], "id": "7863100002", "name": "USPS COLLECTION BOX - PO LOBBY", "address": {"city": "HARPER", "state": "TX", "street": "23557 W US HIGHWAY 290", "postcode": "78631"}}},
{"geometry": {"type": "Point", "coordinates": [-97.4766561854, 29.6912461829]}, "type": "Feature", "properties": {"collection_times": [{"days": "Mon-Sat", "time": "5:00pm"}, {"days": "Sun", "time": "Closed"}], "id": "7863200000", "name": "USPS COLLECTION BOX - BLUE BOX", "address": {"city": "HARWOOD", "state": "TX", "street": "13078 US HIGHWAY 90 W", "postcode": "78632"}}},
{"geometry": {"type": "Point", "coordinates": [-97.5042353214, 29.6663251136]}, "type": "Feature", "properties": {"collection_times": [{"days": "Mon-Fri", "time": "2:00pm"}, {"days": "Sat", "time": "11:00am"}, {"days": "Sun", "time": "Closed"}], "id": "7863200001", "name": "USPS COLLECTION BOX - PO LOBBY", "address": {"city": "HARWOOD", "state": "TX", "street": "13078 US HIGHWAY 90 W", "postcode": "78632"}}},
{"geometry": {"type": "Point", "coordinates": [-97.7310150631, 30.721435599]}, "type": "Feature", "properties": {"collection_times": [{"days": "Mon-Sat", "time": "12:00pm"}, {"days": "Sun", "time": "Closed"}], "id": "7863300001", "name": "USPS COLLECTION BOX - BLUE BOX", "address": {"city": "GEORGETOWN", "state": "TX", "street": "1433 COWAN CREEK DR", "postcode": "78633"}}},
{"geometry": {"type": "Point", "coordinates": [-97.5546005852, 30.5456827097]}, "type": "Feature", "properties": {"collection_times": [{"days": "Mon-Sat", "time": "5:30pm"}, {"days": "Sun", "time": "Closed"}], "id": "7863400000", "name": "USPS COLLECTION BOX - BLUE BOX", "address": {"city": "HUTTO", "state": "TX", "street": "388 EXCHANGE BLVD", "postcode": "78634"}}},
{"geometry": {"type": "Point", "coordinates": [-97.5546005852, 30.5456827097]}, "type": "Feature", "properties": {"collection_times": [{"days": "Mon-Fri", "time": "5:00pm"}, {"days": "Sat", "time": "12:00pm"}, {"days": "Sun", "time": "Closed"}], "id": "7863400005", "name": "USPS COLLECTION BOX - PO LOBBY", "address": {"city": "HUTTO", "state": "TX", "street": "388 EXCHANGE BLVD", "postcode": "78634"}}},
{"geometry": {"type": "Point", "coordinates": [-97.592698148, 30.540151239]}, "type": "Feature", "properties": {"collection_times": [{"days": "Mon-Sat", "time": "11:30am"}, {"days": "Sun", "time": "Closed"}], "id": "7863400008", "name": "USPS COLLECTION BOX - BLUE BOX", "address": {"city": "HUTTO", "state": "TX", "street": "402 TRADESMENS PARK DR", "postcode": "78634"}}},
{"geometry": {"type": "Point", "coordinates": [-98.5353626622, 30.1864721653]}, "type": "Feature", "properties": {"collection_times": [{"days": "Mon-Fri", "time": "10:00am"}, {"days": "Sat", "time": "12:30pm"}, {"days": "Sun", "time": "Closed"}], "id": "7863500002", "name": "USPS COLLECTION BOX - PO LOBBY", "address": {"city": "HYE", "state": "TX", "street": "10261 W US HIGHWAY 290", "postcode": "78635"}}},
{"geometry": {"type": "Point", "coordinates": [-98.4107857215, 30.2757378709]}, "type": "Feature", "properties": {"collection_times": [{"days": "Mon-Fri", "time": "5:00pm"}, {"days": "Sat", "time": "9:00am"}, {"days": "Sun", "time": "Closed"}], "id": "7863600000", "name": "USPS COLLECTION BOX - PO LOBBY", "address": {"city": "JOHNSON CITY", "state": "TX", "street": "201 S AVENUE G", "postcode": "78636"}}},
{"geometry": {"type": "Point", "coordinates": [-98.4107857215, 30.2757378709]}, "type": "Feature", "properties": {"collection_times": [{"days": "Mon-Fri", "time": "5:30pm"}, {"days": "Sat", "time": "5:00pm"}, {"days": "Sun", "time": "Closed"}], "id": "7863600001", "name": "USPS COLLECTION BOX - BLUE BOX", "address": {"city": "JOHNSON CITY", "state": "TX", "street": "201 S AVENUE G", "postcode": "78636"}}},
{"geometry": {"type": "Point", "coordinates": [-98.4107857215, 30.2757378709]}, "type": "Feature", "properties": {"collection_times": [{"days": "Mon-Fri", "time": "5:00pm"}, {"days": "Sat", "time": "9:00am"}, {"days": "Sun", "time": "Closed"}], "id": "7863600004", "name": "USPS COLLECTION BOX - PO LOBBY", "address": {"city": "JOHNSON CITY", "state": "TX", "street": "201 S AVENUE G", "postcode": "78636"}}},
{"geometry": {"type": "Point", "coordinates": [-97.824309582, 29.648690363]}, "type": "Feature", "properties": {"collection_times": [{"days": "Mon-Fri", "time": "12:00pm"}, {"days": "Sat", "time": "9:00am"}, {"days": "Sun", "time": "Closed"}], "id": "7863800000", "name": "USPS COLLECTION BOX - PO LOBBY", "address": {"city": "KINGSBURY", "state": "TX", "street": "10055 E HIGHWAY 90", "postcode": "78638"}}},
{"geometry": {"type": "Point", "coordinates": [-97.824309582, 29.648690363]}, "type": "Feature", "properties": {"collection_times": [{"days": "Mon-Sat", "time": "1:00pm"}, {"days": "Sun", "time": "Closed"}], "id": "7863800001", "name": "USPS COLLECTION BOX - BLUE BOX", "address": {"city": "KINGSBURY", "state": "TX", "street": "10055 E HIGHWAY 90", "postcode": "78638"}}},
{"geometry": {"type": "Point", "coordinates": [-98.4363581001, 30.6679250578]}, "type": "Feature", "properties": {"collection_times": [{"days": "Mon-Fri", "time": "4:15pm"}, {"days": "Sat", "time": "12:00pm"}, {"days": "Sun", "time": "Closed"}], "id": "7863900000", "name": "USPS COLLECTION BOX - PO LOBBY", "address": {"city": "KINGSLAND", "state": "TX", "street": "19010 HWY 1431", "postcode": "78639"}}},
{"geometry": {"type": "Point", "coordinates": [-98.4363581001, 30.6679250578]}, "type": "Feature", "properties": {"collection_times": [{"days": "Mon-Sat", "time": "4:15pm"}, {"days": "Sun", "time": "Closed"}], "id": "7863900002", "name": "USPS COLLECTION BOX - BLUE BOX", "address": {"city": "KINGSLAND", "state": "TX", "street": "19010 HWY 1431", "postcode": "78639"}}},
{"geometry": {"type": "Point", "coordinates": [-98.4363581001, 30.6679250578]}, "type": "Feature", "properties": {"collection_times": [{"days": "Mon-Sat", "time": "4:15pm"}, {"days": "Sun", "time": "Closed"}], "id": "7863900003", "name": "USPS COLLECTION BOX - BLUE BOX", "address": {"city": "KINGSLAND", "state": "TX", "street": "19010 HWY 1431", "postcode": "78639"}}},
{"geometry": {"type": "Point", "coordinates": [-97.8843201137, 29.9944441431]}, "type": "Feature", "properties": {"collection_times": [{"days": "Mon-Fri", "time": "4:30pm"}, {"days": "Sat", "time": "11:00am"}, {"days": "Sun", "time": "Closed"}], "id": "7864000001", "name": "USPS COLLECTION BOX - PO LOBBY", "address": {"city": "KYLE", "state": "TX", "street": "555 REBEL RD", "postcode": "78640"}}},
{"geometry": {"type": "Point", "coordinates": [-97.8843201137, 29.9944441431]}, "type": "Feature", "properties": {"collection_times": [{"days": "Mon-Sat", "time": "5:30pm"}, {"days": "Sun", "time": "Closed"}], "id": "7864000003", "name": "USPS COLLECTION BOX - BLUE BOX", "address": {"city": "KYLE", "state": "TX", "street": "555 REBEL RD", "postcode": "78640"}}},
{"geometry": {"type": "Point", "coordinates": [-97.8843201137, 29.9944441431]}, "type": "Feature", "properties": {"collection_times": [{"days": "Mon-Fri", "time": "4:30pm"}, {"days": "Sat", "time": "11:00am"}, {"days": "Sun", "time": "Closed"}], "id": "7864000005", "name": "USPS COLLECTION BOX - PO LOBBY", "address": {"city": "KYLE", "state": "TX", "street": "555 REBEL RD", "postcode": "78640"}}},
{"geometry": {"type": "Point", "coordinates": [-97.8734964626, 30.5590704205]}, "type": "Feature", "properties": {"collection_times": [{"days": "Mon-Fri", "time": "5:00pm"}, {"days": "Sat", "time": "1:00pm"}, {"days": "Sun", "time": "Closed"}], "id": "7864100010", "name": "USPS COLLECTION BOX - EXPRESS", "address": {"city": "LEANDER", "state": "TX", "street": "801 S HIGHWAY 183", "postcode": "78641"}}},
{"geometry": {"type": "Point", "coordinates": [-97.8484527979, 30.5683543191]}, "type": "Feature", "properties": {"collection_times": [{"days": "Mon-Fri", "time": "5:00pm"}, {"days": "Sat", "time": "1:00pm"}, {"days": "Sun", "time": "Closed"}], "id": "7864100011", "name": "USPS COLLECTION BOX - BLUE BOX", "address": {"city": "LEANDER", "state": "TX", "street": "801 S HIGHWAY 183", "postcode": "78641"}}},
{"geometry": {"type": "Point", "coordinates": [-97.9042747158, 30.4358483817]}, "type": "Feature", "properties": {"collection_times": [{"days": "Mon-Sat", "time": "11:30am"}, {"days": "Sun", "time": "Closed"}], "id": "7864100017", "name": "USPS COLLECTION BOX - BLUE BOX", "address": {"city": "LEANDER", "state": "TX", "street": "15406 FM 2769", "postcode": "78641"}}},
{"geometry": {"type": "Point", "coordinates": [-97.8484527979, 30.5683543191]}, "type": "Feature", "properties": {"collection_times": [{"days": "Mon-Fri", "time": "5:00pm"}, {"days": "Sat", "time": "1:00pm"}, {"days": "Sun", "time": "Closed"}], "id": "7864100023", "name": "USPS COLLECTION BOX - PO LOBBY", "address": {"city": "LEANDER", "state": "TX", "street": "801 S HIGHWAY 183", "postcode": "78641"}}},
{"geometry": {"type": "Point", "coordinates": [-97.9148434833, 30.6676457026]}, "type": "Feature", "properties": {"collection_times": [{"days": "Mon-Fri", "time": "4:30pm"}, {"days": "Sat-Sun", "time": "Closed"}], "id": "7864200003", "name": "USPS COLLECTION BOX - PO LOBBY", "address": {"city": "LIBERTY HILL", "state": "TX", "street": "2655 RR 1869", "postcode": "78642"}}},
{"geometry": {"type": "Point", "coordinates": [-97.9148434833, 30.6676457026]}, "type": "Feature", "properties": {"collection_times": [{"days": "Mon-Sat", "time": "5:00pm"}, {"days": "Sun", "time": "Closed"}], "id": "7864200006", "name": "USPS COLLECTION BOX - BLUE BOX", "address": {"city": "LIBERTY HILL", "state": "TX", "street": "2655 RR 1869", "postcode": "78642"}}},
{"geometry": {"type": "Point", "coordinates": [-98.6771956295, 30.7500860056]}, "type": "Feature", "properties": {"collection_times": [{"days": "Mon-Sat", "time": "4:15pm"}, {"days": "Sun", "time": "Closed"}], "id": "7864300001", "name": "USPS COLLECTION BOX - BLUE BOX", "address": {"city": "LLANO", "state": "TX", "street": "819 BERRY ST", "postcode": "78643"}}},
{"geometry": {"type": "Point", "coordinates": [-98.6771956295, 30.7500860056]}, "type": "Feature", "properties": {"collection_times": [{"days": "Mon-Fri", "time": "4:15pm"}, {"days": "Sat", "time": "12:00pm"}, {"days": "Sun", "time": "Closed"}], "id": "7864300003", "name": "USPS COLLECTION BOX - PO LOBBY", "address": {"city": "LLANO", "state": "TX", "street": "819 BERRY ST", "postcode": "78643"}}},
{"geometry": {"type": "Point", "coordinates": [-98.6760698171, 30.7595145731]}, "type": "Feature", "properties": {"collection_times": [{"days": "Mon-Sat", "time": "1:45pm"}, {"days": "Sun", "time": "Closed"}], "id": "7864300004", "name": "USPS COLLECTION BOX - BLUE BOX", "address": {"city": "LLANO", "state": "TX", "street": "104 W YOUNG ST", "postcode": "78643"}}},
{"geometry": {"type": "Point", "coordinates": [-97.6715874201, 29.884845361]}, "type": "Feature", "properties": {"collection_times": [{"days": "Mon-Fri", "time": "2:00pm"}, {"days": "Sat-Sun", "time": "Closed"}], "id": "7864400000", "name": "USPS COLLECTION BOX - BLUE BOX", "address": {"city": "LOCKHART", "state": "TX", "street": "119 E SAN ANTONIO ST", "postcode": "78644"}}},
{"geometry": {"type": "Point", "coordinates": [-97.6702371053, 29.8795202504]}, "type": "Feature", "properties": {"collection_times": [{"days": "Mon-Sat", "time": "5:00pm"}, {"days": "Sun", "time": "Closed"}], "id": "7864400003", "name": "USPS COLLECTION BOX - BLUE BOX", "address": {"city": "LOCKHART", "state": "TX", "street": "117 S BLANCO ST", "postcode": "78644"}}},
{"geometry": {"type": "Point", "coordinates": [-97.6702371053, 29.8795202504]}, "type": "Feature", "properties": {"collection_times": [{"days": "Mon-Sat", "time": "5:00pm"}, {"days": "Sun", "time": "Closed"}], "id": "7864400004", "name": "USPS COLLECTION BOX - EXPRESS", "address": {"city": "LOCKHART", "state": "TX", "street": "117 S BLANCO ST", "postcode": "78644"}}},
{"geometry": {"type": "Point", "coordinates": [-97.6694325582, 29.8710067442]}, "type": "Feature", "properties": {"collection_times": [{"days": "Mon-Fri", "time": "1:00pm"}, {"days": "Sat-Sun", "time": "Closed"}], "id": "7864400005", "name": "USPS COLLECTION BOX - BLUE BOX", "address": {"city": "LOCKHART", "state": "TX", "street": "1403 E FM 20", "postcode": "78644"}}},
{"geometry": {"type": "Point", "coordinates": [-97.6720355547, 29.8838234048]}, "type": "Feature", "properties": {"collection_times": [{"days": "Mon-Fri", "time": "2:00pm"}, {"days": "Sat-Sun", "time": "Closed"}], "id": "7864400009", "name": "USPS COLLECTION BOX - BLUE BOX", "address": {"city": "LOCKHART", "state": "TX", "street": "100 E MARKET ST", "postcode": "78644"}}},
{"geometry": {"type": "Point", "coordinates": [-97.6712857655, 29.8841604277]}, "type": "Feature", "properties": {"collection_times": [{"days": "Mon-Fri", "time": "2:00pm"}, {"days": "Sat-Sun", "time": "Closed"}], "id": "7864400011", "name": "USPS COLLECTION BOX - BLUE BOX", "address": {"city": "LOCKHART", "state": "TX", "street": "1703 S COLORADO ST", "postcode": "78644"}}},
{"geometry": {"type": "Point", "coordinates": [-97.6702371053, 29.8795202504]}, "type": "Feature", "properties": {"collection_times": [{"days": "Mon-Sat", "time": "2:00pm"}, {"days": "Sun", "time": "Closed"}], "id": "7864400016", "name": "USPS COLLECTION BOX - BLUE BOX", "address": {"city": "LOCKHART", "state": "TX", "street": "1904 S COLORADO ST", "postcode": "78644"}}},
{"geometry": {"type": "Point", "coordinates": [-97.6688358575, 29.8712046611]}, "type": "Feature", "properties": {"collection_times": [{"days": "Mon-Sat", "time": "2:00pm"}, {"days": "Sun", "time": "Closed"}], "id": "7864400018", "name": "USPS COLLECTION BOX - BLUE BOX", "address": {"city": "LOCKHART", "state": "TX", "street": "1206 S COLORADO ST", "postcode": "78644"}}},
{"geometry": {"type": "Point", "coordinates": [-97.6741035738, 29.883519264]}, "type": "Feature", "properties": {"collection_times": [{"days": "Mon-Fri", "time": "4:30pm"}, {"days": "Sat", "time": "3:00pm"}, {"days": "Sun", "time": "Closed"}], "id": "7864400021", "name": "USPS COLLECTION BOX - PO LOBBY", "address": {"city": "LOCKHART", "state": "TX", "street": "217 W MARKET ST", "postcode": "78644"}}},
{"geometry": {"type": "Point", "coordinates": [-97.6741035738, 29.883519264]}, "type": "Feature", "properties": {"collection_times": [{"days": "Mon-Fri", "time": "4:30pm"}, {"days": "Sat", "time": "3:00pm"}, {"days": "Sun", "time": "Closed"}], "id": "7864400023", "name": "USPS COLLECTION BOX - PO LOBBY", "address": {"city": "LOCKHART", "state": "TX", "street": "217 W MARKET ST", "postcode": "78644"}}},
{"geometry": {"type": "Point", "coordinates": [-97.6697680292, 29.8819778684]}, "type": "Feature", "properties": {"collection_times": [{"days": "Mon-Sat", "time": "2:00pm"}, {"days": "Sun", "time": "Closed"}], "id": "7864400024", "name": "USPS COLLECTION BOX - BLUE BOX", "address": {"city": "LOCKHART", "state": "TX", "street": "403 S COLORADO ST", "postcode": "78644"}}},
{"geometry": {"type": "Point", "coordinates": [-97.9798598976, 30.4548776125]}, "type": "Feature", "properties": {"collection_times": [{"days": "Mon-Sat", "time": "1:00pm"}, {"days": "Sun", "time": "Closed"}], "id": "7864500024", "name": "USPS COLLECTION BOX - BLUE BOX", "address": {"city": "LAGO VISTA", "state": "TX", "street": "20200 DAWN DR", "postcode": "78645"}}},
{"geometry": {"type": "Point", "coordinates": [-97.9749927942, 30.4795184186]}, "type": "Feature", "properties": {"collection_times": [{"days": "Mon-Sat", "time": "5:30pm"}, {"days": "Sun", "time": "Closed"}], "id": "7864500025", "name": "USPS COLLECTION BOX - BLUE BOX", "address": {"city": "LAGO VISTA", "state": "TX", "street": "8027 BRONCO LN", "postcode": "78645"}}},
{"geometry": {"type": "Point", "coordinates": [-97.9879905423, 30.4524552508]}, "type": "Feature", "properties": {"collection_times": [{"days": "Mon-Sat", "time": "1:00pm"}, {"days": "Sun", "time": "Closed"}], "id": "7864500026", "name": "USPS COLLECTION BOX - BLUE BOX", "address": {"city": "LAGO VISTA", "state": "TX", "street": "5803 THUNDERBIRD ST", "postcode": "78645"}}},
{"geometry": {"type": "Point", "coordinates": [-97.9237546078, 30.4913432589]}, "type": "Feature", "properties": {"collection_times": [{"days": "Mon-Sat", "time": "5:30pm"}, {"days": "Sun", "time": "Closed"}], "id": "7864500027", "name": "USPS COLLECTION BOX - BLUE BOX", "address": {"city": "LAGO VISTA", "state": "TX", "street": "18649 FM 1431", "postcode": "78645"}}},
{"geometry": {"type": "Point", "coordinates": [-97.9749927942, 30.4795184186]}, "type": "Feature", "properties": {"collection_times": [{"days": "Mon-Fri", "time": "4:30pm"}, {"days": "Sat", "time": "12:00pm"}, {"days": "Sun", "time": "Closed"}], "id": "7864500028", "name": "USPS COLLECTION BOX - PO LOBBY", "address": {"city": "LAGO VISTA", "state": "TX", "street": "8027 BRONCO LN", "postcode": "78645"}}},
{"geometry": {"type": "Point", "coordinates": [-97.9749927942, 30.4795184186]}, "type": "Feature", "properties": {"collection_times": [{"days": "Mon-Fri", "time": "4:30pm"}, {"days": "Sat", "time": "12:00pm"}, {"days": "Sun", "time": "Closed"}], "id": "7864500029", "name": "USPS COLLECTION BOX - PO LOBBY", "address": {"city": "LAGO VISTA", "state": "TX", "street": "8027 BRONCO LN", "postcode": "78645"}}},
{"geometry": {"type": "Point", "coordinates": [-97.9763775028, 30.4511317939]}, "type": "Feature", "properties": {"collection_times": [{"days": "Mon-Sat", "time": "5:30pm"}, {"days": "Sun", "time": "Closed"}], "id": "7864500030", "name": "USPS COLLECTION BOX - EXPRESS", "address": {"city": "LAGO VISTA", "state": "TX", "street": "8027 BRONCO LN", "postcode": "78645"}}},
{"geometry": {"type": "Point", "coordinates": [-97.9936148754, 30.3830414313]}, "type": "Feature", "properties": {"collection_times": [{"days": "Mon-Sat", "time": "12:00pm"}, {"days": "Sun", "time": "Closed"}], "id": "7864500032", "name": "USPS COLLECTION BOX - BLUE BOX", "address": {"city": "LAGO VISTA", "state": "TX", "street": "308 VENTURE BLVD N", "postcode": "78645"}}},
{"geometry": {"type": "Point", "coordinates": [-97.6493466086, 29.6796847877]}, "type": "Feature", "properties": {"collection_times": [{"days": "Mon-Sat", "time": "5:30pm"}, {"days": "Sun", "time": "Closed"}], "id": "7864800001", "name": "USPS COLLECTION BOX - BLUE BOX", "address": {"city": "LULING", "state": "TX", "street": "517 E CROCKETT ST", "postcode": "78648"}}},
{"geometry": {"type": "Point", "coordinates": [-97.6365854295, 29.6989667286]}, "type": "Feature", "properties": {"collection_times": [{"days": "Mon-Sat", "time": "5:15pm"}, {"days": "Sun", "time": "Closed"}], "id": "7864800002", "name": "USPS COLLECTION BOX - BLUE BOX", "address": {"city": "LULING", "state": "TX", "street": "10070 W INTERSTATE 10", "postcode": "78648"}}},
{"geometry": {"type": "Point", "coordinates": [-97.64626571, 29.6890134842]}, "type": "Feature", "properties": {"collection_times": [{"days": "Mon-Sat", "time": "5:30pm"}, {"days": "Sun", "time": "Closed"}], "id": "7864800003", "name": "USPS COLLECTION BOX - EXPRESS", "address": {"city": "LULING", "state": "TX", "street": "517 E CROCKETT ST", "postcode": "78648"}}},
{"geometry": {"type": "Point", "coordinates": [-97.6493466086, 29.6796847877]}, "type": "Feature", "properties": {"collection_times": [{"days": "Mon-Fri", "time": "4:30pm"}, {"days": "Sat", "time": "12:00pm"}, {"days": "Sun", "time": "Closed"}], "id": "7864800012", "name": "USPS COLLECTION BOX - PO LOBBY", "address": {"city": "LULING", "state": "TX", "street": "517 E CROCKETT ST", "postcode": "78648"}}},
{"geometry": {"type": "Point", "coordinates": [-97.241185545, 30.2864386363]}, "type": "Feature", "properties": {"collection_times": [{"days": "Mon-Sat", "time": "5:30pm"}, {"days": "Sun", "time": "Closed"}], "id": "7865000000", "name": "USPS COLLECTION BOX - BLUE BOX", "address": {"city": "MC DADE", "state": "TX", "street": "161 WACO ST", "postcode": "78650"}}},
{"geometry": {"type": "Point", "coordinates": [-97.2240931792, 30.2882927232]}, "type": "Feature", "properties": {"collection_times": [{"days": "Mon-Sat", "time": "11:00am"}, {"days": "Sun", "time": "Closed"}], "id": "7865000004", "name": "USPS COLLECTION BOX - BLUE BOX", "address": {"city": "MC DADE", "state": "TX", "street": "1469 HIGHWAY 290 E", "postcode": "78650"}}},
{"geometry": {"type": "Point", "coordinates": [-97.7209829009, 30.4549422805]}, "type": "Feature", "properties": {"collection_times": [{"days": "Mon-Sat", "time": "4:15pm"}, {"days": "Sun", "time": "Closed"}], "id": "7865100000", "name": "USPS COLLECTION BOX - BLUE BOX", "address": {"city": "MCNEIL", "state": "TX", "street": "14005 MCNEIL RD", "postcode": "78651"}}},
{"geometry": {"type": "Point", "coordinates": [-97.8315142917, 30.1268759171]}, "type": "Feature", "properties": {"collection_times": [{"days": "Mon-Sat", "time": "6:00pm"}, {"days": "Sun", "time": "Closed"}], "id": "7865200001", "name": "USPS COLLECTION BOX - BLUE BOX", "address": {"city": "MANCHACA", "state": "TX", "street": "780 W FM 1626", "postcode": "78652"}}},
{"geometry": {"type": "Point", "coordinates": [-97.8315142917, 30.1268759171]}, "type": "Feature", "properties": {"collection_times": [{"days": "Mon-Fri", "time": "4:30pm"}, {"days": "Sat", "time": "11:00am"}, {"days": "Sun", "time": "Closed"}], "id": "7865200004", "name": "USPS COLLECTION BOX - PO LOBBY", "address": {"city": "MANCHACA", "state": "TX", "street": "780 W FM 1626", "postcode": "78652"}}},
{"geometry": {"type": "Point", "coordinates": [-97.8315142917, 30.1268759171]}, "type": "Feature", "properties": {"collection_times": [{"days": "Mon-Fri", "time": "4:30pm"}, {"days": "Sat", "time": "11:00am"}, {"days": "Sun", "time": "Closed"}], "id": "7865200006", "name": "USPS COLLECTION BOX - PO LOBBY", "address": {"city": "MANCHACA", "state": "TX", "street": "780 W FM 1626", "postcode": "78652"}}},
{"geometry": {"type": "Point", "coordinates": [-97.8315142917, 30.1268759171]}, "type": "Feature", "properties": {"collection_times": [{"days": "Mon-Fri", "time": "4:30pm"}, {"days": "Sat", "time": "11:00am"}, {"days": "Sun", "time": "Closed"}], "id": "7865200007", "name": "USPS COLLECTION BOX - PO LOBBY", "address": {"city": "MANCHACA", "state": "TX", "street": "780 W FM 1626", "postcode": "78652"}}},
{"geometry": {"type": "Point", "coordinates": [-97.8315142917, 30.1268759171]}, "type": "Feature", "properties": {"collection_times": [{"days": "Mon-Fri", "time": "4:30pm"}, {"days": "Sat", "time": "11:00am"}, {"days": "Sun", "time": "Closed"}], "id": "7865200008", "name": "USPS COLLECTION BOX - PO LOBBY", "address": {"city": "MANCHACA", "state": "TX", "street": "780 W FM 1626", "postcode": "78652"}}},
{"geometry": {"type": "Point", "coordinates": [-97.5519963384, 30.3488191607]}, "type": "Feature", "properties": {"collection_times": [{"days": "Mon-Sat", "time": "5:15pm"}, {"days": "Sun", "time": "Closed"}], "id": "7865300000", "name": "USPS COLLECTION BOX - BLUE BOX", "address": {"city": "MANOR", "state": "TX", "street": "11401 US HIGHWAY 290 E", "postcode": "78653"}}},
{"geometry": {"type": "Point", "coordinates": [-97.5519963384, 30.3488191607]}, "type": "Feature", "properties": {"collection_times": [{"days": "Mon-Fri", "time": "4:30pm"}, {"days": "Sat", "time": "9:30am"}, {"days": "Sun", "time": "Closed"}], "id": "7865300003", "name": "USPS COLLECTION BOX - PO LOBBY", "address": {"city": "MANOR", "state": "TX", "street": "11401 US HIGHWAY 290 E", "postcode": "78653"}}},
{"geometry": {"type": "Point", "coordinates": [-97.5519963384, 30.3488191607]}, "type": "Feature", "properties": {"collection_times": [{"days": "Mon-Fri", "time": "4:30pm"}, {"days": "Sat", "time": "9:30am"}, {"days": "Sun", "time": "Closed"}], "id": "7865300004", "name": "USPS COLLECTION BOX - PO LOBBY", "address": {"city": "MANOR", "state": "TX", "street": "11401 US HIGHWAY 290 E", "postcode": "78653"}}},
{"geometry": {"type": "Point", "coordinates": [-98.2723223734, 30.5821842928]}, "type": "Feature", "properties": {"collection_times": [{"days": "Mon-Fri", "time": "3:00pm"}, {"days": "Sat", "time": "1:00pm"}, {"days": "Sun", "time": "Closed"}], "id": "7865400000", "name": "USPS COLLECTION BOX - BLUE BOX", "address": {"city": "MARBLE FALLS", "state": "TX", "street": "1307 MORMON MILL RD", "postcode": "78654"}}},
{"geometry": {"type": "Point", "coordinates": [-98.2731484555, 30.5813676202]}, "type": "Feature", "properties": {"collection_times": [{"days": "Mon-Fri", "time": "4:45pm"}, {"days": "Sat", "time": "2:45pm"}, {"days": "Sun", "time": "Closed"}], "id": "7865400001", "name": "USPS COLLECTION BOX - PO LOBBY", "address": {"city": "MARBLE FALLS", "state": "TX", "street": "1212 US HIGHWAY 281", "postcode": "78654"}}},
{"geometry": {"type": "Point", "coordinates": [-98.2769922497, 30.570572698]}, "type": "Feature", "properties": {"collection_times": [{"days": "Mon-Fri", "time": "3:00pm"}, {"days": "Sat", "time": "1:00pm"}, {"days": "Sun", "time": "Closed"}], "id": "7865400003", "name": "USPS COLLECTION BOX - BLUE BOX", "address": {"city": "MARBLE FALLS", "state": "TX", "street": "808 2ND ST", "postcode": "78654"}}},
{"geometry": {"type": "Point", "coordinates": [-98.2723223734, 30.5821842928]}, "type": "Feature", "properties": {"collection_times": [{"days": "Mon-Fri", "time": "3:00pm"}, {"days": "Sat", "time": "1:00pm"}, {"days": "Sun", "time": "Closed"}], "id": "7865400007", "name": "USPS COLLECTION BOX - BLUE BOX", "address": {"city": "MARBLE FALLS", "state": "TX", "street": "1307 MORMON MILL RD", "postcode": "78654"}}},
{"geometry": {"type": "Point", "coordinates": [-98.2731484555, 30.5813676202]}, "type": "Feature", "properties": {"collection_times": [{"days": "Mon-Fri", "time": "4:45pm"}, {"days": "Sat", "time": "2:45pm"}, {"days": "Sun", "time": "Closed"}], "id": "7865400009", "name": "USPS COLLECTION BOX - PO LOBBY", "address": {"city": "MARBLE FALLS", "state": "TX", "street": "1212 US HIGHWAY 281", "postcode": "78654"}}},
{"geometry": {"type": "Point", "coordinates": [-98.288433682, 30.5656236271]}, "type": "Feature", "properties": {"collection_times": [{"days": "Mon-Sat", "time": "1:00pm"}, {"days": "Sun", "time": "Closed"}], "id": "7865400016", "name": "USPS COLLECTION BOX - BLUE BOX", "address": {"city": "MARBLE FALLS", "state": "TX", "street": "111 MEADOWLAKES DR", "postcode": "78654"}}},
{"geometry": {"type": "Point", "coordinates": [-98.2696394223, 30.598807232]}, "type": "Feature", "properties": {"collection_times": [{"days": "Mon-Sat", "time": "10:00am"}, {"days": "Sun", "time": "Closed"}], "id": "7865400017", "name": "USPS COLLECTION BOX - BLUE BOX", "address": {"city": "MARBLE FALLS", "state": "TX", "street": "2700 US HIGHWAY 281", "postcode": "78654"}}},
{"geometry": {"type": "Point", "coordinates": [-98.3705316269, 30.6051739167]}, "type": "Feature", "properties": {"collection_times": [{"days": "Mon-Sat", "time": "4:30pm"}, {"days": "Sun", "time": "Closed"}], "id": "7865400018", "name": "USPS COLLECTION BOX - BLUE BOX", "address": {"city": "MARBLE FALLS", "state": "TX", "street": "8101 FM 1431", "postcode": "78654"}}},
{"geometry": {"type": "Point", "coordinates": [-97.8435904782, 29.8438153981]}, "type": "Feature", "properties": {"collection_times": [{"days": "Mon-Sat", "time": "5:30pm"}, {"days": "Sun", "time": "Closed"}], "id": "7865500000", "name": "USPS COLLECTION BOX - BLUE BOX", "address": {"city": "MARTINDALE", "state": "TX", "street": "307 LOCKHART ST", "postcode": "78655"}}},
{"geometry": {"type": "Point", "coordinates": [-97.7958265024, 29.8783911368]}, "type": "Feature", "properties": {"collection_times": [{"days": "Mon-Sat", "time": "5:30pm"}, {"days": "Sun", "time": "Closed"}], "id": "7865600000", "name": "USPS COLLECTION BOX - BLUE BOX", "address": {"city": "MAXWELL", "state": "TX", "street": "32 FM 1966", "postcode": "78656"}}},
{"geometry": {"type": "Point", "coordinates": [-97.7958265024, 29.8783911368]}, "type": "Feature", "properties": {"collection_times": [{"days": "Mon-Fri", "time": "2:15pm"}, {"days": "Sat", "time": "9:00am"}, {"days": "Sun", "time": "Closed"}], "id": "7865600001", "name": "USPS COLLECTION BOX - PO LOBBY", "address": {"city": "MAXWELL", "state": "TX", "street": "32 FM 1966", "postcode": "78656"}}},
{"geometry": {"type": "Point", "coordinates": [-98.3640258585, 30.544410372]}, "type": "Feature", "properties": {"collection_times": [{"days": "Mon-Sat", "time": "4:00pm"}, {"days": "Sun", "time": "Closed"}], "id": "7865700000", "name": "USPS COLLECTION BOX - EXPRESS", "address": {"city": "MARBLE FALLS", "state": "TX", "street": "9740 W FM 2147", "postcode": "78657"}}},
{"geometry": {"type": "Point", "coordinates": [-98.391443833, 30.531496038]}, "type": "Feature", "properties": {"collection_times": [{"days": "Mon-Sat", "time": "4:00pm"}, {"days": "Sun", "time": "Closed"}], "id": "7865700001", "name": "USPS COLLECTION BOX - BLUE BOX", "address": {"city": "MARBLE FALLS", "state": "TX", "street": "9740 W FM 2147", "postcode": "78657"}}},
{"geometry": {"type": "Point", "coordinates": [-98.326383657, 30.5230902336]}, "type": "Feature", "properties": {"collection_times": [{"days": "Mon-Sat", "time": "4:00pm"}, {"days": "Sun", "time": "Closed"}], "id": "7865700002", "name": "USPS COLLECTION BOX - BLUE BOX", "address": {"city": "MARBLE FALLS", "state": "TX", "street": "9740 W FM 2147", "postcode": "78657"}}},
{"geometry": {"type": "Point", "coordinates": [-98.326383657, 30.5230902336]}, "type": "Feature", "properties": {"collection_times": [{"days": "Mon-Fri", "time": "3:00pm"}, {"days": "Sat", "time": "12:00pm"}, {"days": "Sun", "time": "Closed"}], "id": "7865700003", "name": "USPS COLLECTION BOX - PO LOBBY", "address": {"city": "MARBLE FALLS", "state": "TX", "street": "9740 W FM 2147", "postcode": "78657"}}},
{"geometry": {"type": "Point", "coordinates": [-98.326383657, 30.5230902336]}, "type": "Feature", "properties": {"collection_times": [{"days": "Mon-Fri", "time": "3:00pm"}, {"days": "Sat", "time": "12:00pm"}, {"days": "Sun", "time": "Closed"}], "id": "7865700004", "name": "USPS COLLECTION BOX - PO LOBBY", "address": {"city": "MARBLE FALLS", "state": "TX", "street": "9740 W FM 2147", "postcode": "78657"}}},
{"geometry": {"type": "Point", "coordinates": [-97.1138636716, 30.211292351]}, "type": "Feature", "properties": {"collection_times": [{"days": "Mon-Sat", "time": "5:00pm"}, {"days": "Sun", "time": "Closed"}], "id": "7865900000", "name": "USPS COLLECTION BOX - BLUE BOX", "address": {"city": "PAIGE", "state": "TX", "street": "114 GONZALES ST", "postcode": "78659"}}},
{"geometry": {"type": "Point", "coordinates": [-97.1138636716, 30.211292351]}, "type": "Feature", "properties": {"collection_times": [{"days": "Mon-Fri", "time": "2:00pm"}, {"days": "Sat", "time": "9:00am"}, {"days": "Sun", "time": "Closed"}], "id": "7865900003", "name": "USPS COLLECTION BOX - PO LOBBY", "address": {"city": "PAIGE", "state": "TX", "street": "114 GONZALES ST", "postcode": "78659"}}},
{"geometry": {"type": "Point", "coordinates": [-97.6652905295, 30.44128205]}, "type": "Feature", "properties": {"collection_times": [{"days": "Mon-Sat", "time": "10:00am"}, {"days": "Sun", "time": "Closed"}], "id": "7866000000", "name": "USPS COLLECTION BOX - BLUE BOX", "address": {"city": "PFLUGERVILLE", "state": "TX", "street": "1434 W WELLS BRANCH PKWY", "postcode": "78660"}}},
{"geometry": {"type": "Point", "coordinates": [-97.6606462326, 30.455755553]}, "type": "Feature", "properties": {"collection_times": [{"days": "Mon-Sat", "time": "9:00am"}, {"days": "Sun", "time": "Closed"}], "id": "7866000001", "name": "USPS COLLECTION BOX - BLUE BOX", "address": {"city": "PFLUGERVILLE", "state": "TX", "street": "1701 GRAND AVENUE PKWY", "postcode": "78660"}}},
{"geometry": {"type": "Point", "coordinates": [-97.6482233249, 30.4459597583]}, "type": "Feature", "properties": {"collection_times": [{"days": "Mon-Sat", "time": "11:00am"}, {"days": "Sun", "time": "Closed"}], "id": "7866000002", "name": "USPS COLLECTION BOX - BLUE BOX", "address": {"city": "PFLUGERVILLE", "state": "TX", "street": "15803 WINDERMERE DR", "postcode": "78660"}}},
{"geometry": {"type": "Point", "coordinates": [-97.6394559328, 30.4450160855]}, "type": "Feature", "properties": {"collection_times": [{"days": "Mon-Sat", "time": "6:00pm"}, {"days": "Sun", "time": "Closed"}], "id": "7866000003", "name": "USPS COLLECTION BOX - BLUE BOX", "address": {"city": "PFLUGERVILLE", "state": "TX", "street": "301 S HEATHERWILDE BLVD", "postcode": "78660"}}},
{"geometry": {"type": "Point", "coordinates": [-97.6394559328, 30.4450160855]}, "type": "Feature", "properties": {"collection_times": [{"days": "Mon-Sat", "time": "6:00pm"}, {"days": "Sun", "time": "Closed"}], "id": "7866000004", "name": "USPS COLLECTION BOX - BLUE BOX", "address": {"city": "PFLUGERVILLE", "state": "TX", "street": "301 S HEATHERWILDE BLVD", "postcode": "78660"}}},
{"geometry": {"type": "Point", "coordinates": [-97.5910394992, 30.4250136861]}, "type": "Feature", "properties": {"collection_times": [{"days": "Mon-Fri", "time": "11:00am"}, {"days": "Sat", "time": "10:00am"}, {"days": "Sun", "time": "Closed"}], "id": "7866000007", "name": "USPS COLLECTION BOX - BLUE BOX", "address": {"city": "PFLUGERVILLE", "state": "TX", "street": "2700 PECAN ST W", "postcode": "78660"}}},
{"geometry": {"type": "Point", "coordinates": [-97.6394559328, 30.4450160855]}, "type": "Feature", "properties": {"collection_times": [{"days": "Mon-Fri", "time": "5:00pm"}, {"days": "Sat", "time": "1:00pm"}, {"days": "Sun", "time": "Closed"}], "id": "7866000008", "name": "USPS COLLECTION BOX - PO LOBBY", "address": {"city": "PFLUGERVILLE", "state": "TX", "street": "301 S HEATHERWILDE BLVD", "postcode": "78660"}}},
{"geometry": {"type": "Point", "coordinates": [-97.6394559328, 30.4450160855]}, "type": "Feature", "properties": {"collection_times": [{"days": "Mon-Fri", "time": "5:00pm"}, {"days": "Sat", "time": "1:00pm"}, {"days": "Sun", "time": "Closed"}], "id": "7866000009", "name": "USPS COLLECTION BOX - PO LOBBY", "address": {"city": "PFLUGERVILLE", "state": "TX", "street": "301 S HEATHERWILDE BLVD", "postcode": "78660"}}},
{"geometry": {"type": "Point", "coordinates": [-97.6394559328, 30.4450160855]}, "type": "Feature", "properties": {"collection_times": [{"days": "Mon-Fri", "time": "5:00pm"}, {"days": "Sat", "time": "1:00pm"}, {"days": "Sun", "time": "Closed"}], "id": "7866000010", "name": "USPS COLLECTION BOX - PO LOBBY", "address": {"city": "PFLUGERVILLE", "state": "TX", "street": "301 S HEATHERWILDE BLVD", "postcode": "78660"}}},
{"geometry": {"type": "Point", "coordinates": [-97.6127730231, 30.4361278067]}, "type": "Feature", "properties": {"collection_times": [{"days": "Mon-Sat", "time": "11:00am"}, {"days": "Sun", "time": "Closed"}], "id": "7866000011", "name": "USPS COLLECTION BOX - BLUE BOX", "address": {"city": "PFLUGERVILLE", "state": "TX", "street": "900 PECAN ST E", "postcode": "78660"}}},
{"geometry": {"type": "Point", "coordinates": [-97.6394559328, 30.4450160855]}, "type": "Feature", "properties": {"collection_times": [{"days": "Mon-Fri", "time": "5:00pm"}, {"days": "Sat", "time": "1:00pm"}, {"days": "Sun", "time": "Closed"}], "id": "7866000013", "name": "USPS COLLECTION BOX - APC", "address": {"city": "PFLUGERVILLE", "state": "TX", "street": "301 S HEATHERWILDE BLVD", "postcode": "78660"}}},
{"geometry": {"type": "Point", "coordinates": [-97.7524007201, 29.7306033484]}, "type": "Feature", "properties": {"collection_times": [{"days": "Mon-Sat", "time": "4:45pm"}, {"days": "Sun", "time": "Closed"}], "id": "7866100000", "name": "USPS COLLECTION BOX - BLUE BOX", "address": {"city": "PRAIRIE LEA", "state": "TX", "street": "6855 SAN MARCOS HWY", "postcode": "78661"}}},
{"geometry": {"type": "Point", "coordinates": [-97.7524007201, 29.7306033484]}, "type": "Feature", "properties": {"collection_times": [{"days": "Mon-Fri", "time": "4:30pm"}, {"days": "Sat", "time": "8:45am"}, {"days": "Sun", "time": "Closed"}], "id": "7866100002", "name": "USPS COLLECTION BOX - PO LOBBY", "address": {"city": "PRAIRIE LEA", "state": "TX", "street": "6855 SAN MARCOS HWY", "postcode": "78661"}}},
{"geometry": {"type": "Point", "coordinates": [-97.4463461183, 29.9592676754]}, "type": "Feature", "properties": {"collection_times": [{"days": "Mon-Sat", "time": "4:30pm"}, {"days": "Sun", "time": "Closed"}], "id": "7866200000", "name": "USPS COLLECTION BOX - BLUE BOX", "address": {"city": "RED ROCK", "state": "TX", "street": "105 LENTZ MAIN ST", "postcode": "78662"}}},
{"geometry": {"type": "Point", "coordinates": [-97.4463461183, 29.9592676754]}, "type": "Feature", "properties": {"collection_times": [{"days": "Mon-Fri", "time": "2:30pm"}, {"days": "Sat", "time": "10:00am"}, {"days": "Sun", "time": "Closed"}], "id": "7866200002", "name": "USPS COLLECTION BOX - PO LOBBY", "address": {"city": "RED ROCK", "state": "TX", "street": "105 LENTZ MAIN ST", "postcode": "78662"}}},
{"geometry": {"type": "Point", "coordinates": [-98.3841513549, 30.4392283982]}, "type": "Feature", "properties": {"collection_times": [{"days": "Mon-Sat", "time": "5:00pm"}, {"days": "Sun", "time": "Closed"}], "id": "7866300000", "name": "USPS COLLECTION BOX - BLUE BOX", "address": {"city": "ROUND MOUNTAIN", "state": "TX", "street": "10603 US HIGHWAY 281 N", "postcode": "78663"}}},
{"geometry": {"type": "Point", "coordinates": [-98.3841513549, 30.4392283982]}, "type": "Feature", "properties": {"collection_times": [{"days": "Mon-Fri", "time": "4:45pm"}, {"days": "Sat", "time": "9:15am"}, {"days": "Sun", "time": "Closed"}], "id": "7866300002", "name": "USPS COLLECTION BOX - PO LOBBY", "address": {"city": "ROUND MOUNTAIN", "state": "TX", "street": "10603 US HIGHWAY 281 N", "postcode": "78663"}}},
{"geometry": {"type": "Point", "coordinates": [-97.6757863333, 30.4941328599]}, "type": "Feature", "properties": {"collection_times": [{"days": "Mon-Sat", "time": "4:10pm"}, {"days": "Sun", "time": "Closed"}], "id": "7866400003", "name": "USPS COLLECTION BOX - BLUE BOX", "address": {"city": "ROUND ROCK", "state": "TX", "street": "1700 S MAYS", "postcode": "78664"}}},
{"geometry": {"type": "Point", "coordinates": [-97.6755271557, 30.4912001773]}, "type": "Feature", "properties": {"collection_times": [{"days": "Mon-Sat", "time": "4:00pm"}, {"days": "Sun", "time": "Closed"}], "id": "7866400010", "name": "USPS COLLECTION BOX - BLUE BOX", "address": {"city": "ROUND ROCK", "state": "TX", "street": "2000 S MAYS ST", "postcode": "78664"}}},
{"geometry": {"type": "Point", "coordinates": [-97.662045673, 30.4867325164]}, "type": "Feature", "properties": {"collection_times": [{"days": "Mon-Sat", "time": "4:00pm"}, {"days": "Sun", "time": "Closed"}], "id": "7866400020", "name": "USPS COLLECTION BOX - BLUE BOX", "address": {"city": "ROUND ROCK", "state": "TX", "street": "2300 GREENLAWN BLVD", "postcode": "78664"}}},
{"geometry": {"type": "Point", "coordinates": [-97.677382736, 30.509057318]}, "type": "Feature", "properties": {"collection_times": [{"days": "Mon-Fri", "time": "5:00pm"}, {"days": "Sat", "time": "4:30pm"}, {"days": "Sun", "time": "Closed"}], "id": "7866400023", "name": "USPS COLLECTION BOX - BLUE BOX", "address": {"city": "ROUND ROCK", "state": "TX", "street": "206 E MAIN ST", "postcode": "78664"}}},
{"geometry": {"type": "Point", "coordinates": [-97.677382736, 30.509057318]}, "type": "Feature", "properties": {"collection_times": [{"days": "Mon-Fri", "time": "5:00pm"}, {"days": "Sat", "time": "4:30pm"}, {"days": "Sun", "time": "Closed"}], "id": "7866400024", "name": "USPS COLLECTION BOX - BLUE BOX", "address": {"city": "ROUND ROCK", "state": "TX", "street": "206 E MAIN ST", "postcode": "78664"}}},
{"geometry": {"type": "Point", "coordinates": [-97.6657992018, 30.4961323084]}, "type": "Feature", "properties": {"collection_times": [{"days": "Mon-Fri", "time": "5:15pm"}, {"days": "Sat", "time": "4:30pm"}, {"days": "Sun", "time": "Closed"}], "id": "7866400028", "name": "USPS COLLECTION BOX - BLUE BOX", "address": {"city": "ROUND ROCK", "state": "TX", "street": "1100 GATTIS SCHOOL RD", "postcode": "78664"}}},
{"geometry": {"type": "Point", "coordinates": [-97.6739568869, 30.4822538338]}, "type": "Feature", "properties": {"collection_times": [{"days": "Mon-Sat", "time": "4:00pm"}, {"days": "Sun", "time": "Closed"}], "id": "7866400038", "name": "USPS COLLECTION BOX - BLUE BOX", "address": {"city": "ROUND ROCK", "state": "TX", "street": "2701 S IH 35", "postcode": "78664"}}},
{"geometry": {"type": "Point", "coordinates": [-97.6454319699, 30.4923772346]}, "type": "Feature", "properties": {"collection_times": [{"days": "Mon-Sat", "time": "5:30pm"}, {"days": "Sun", "time": "Closed"}], "id": "7866400044", "name": "USPS COLLECTION BOX - BLUE BOX", "address": {"city": "ROUND ROCK", "state": "TX", "street": "2250 DOUBLE CREEK DR", "postcode": "78664"}}},
{"geometry": {"type": "Point", "coordinates": [-97.6571890538, 30.508112196]}, "type": "Feature", "properties": {"collection_times": [{"days": "Mon-Sat", "time": "5:30pm"}, {"days": "Sun", "time": "Closed"}], "id": "7866400045", "name": "USPS COLLECTION BOX - EXPRESS", "address": {"city": "ROUND ROCK", "state": "TX", "street": "2250 DOUBLE CREEK DR", "postcode": "78664"}}},
{"geometry": {"type": "Point", "coordinates": [-97.6454319699, 30.4923772346]}, "type": "Feature", "properties": {"collection_times": [{"days": "Mon-Sat", "time": "5:30pm"}, {"days": "Sun", "time": "Closed"}], "id": "7866400046", "name": "USPS COLLECTION BOX - BLUE BOX", "address": {"city": "ROUND ROCK", "state": "TX", "street": "2250 DOUBLE CREEK DR", "postcode": "78664"}}},
{"geometry": {"type": "Point", "coordinates": [-97.6454319699, 30.4923772346]}, "type": "Feature", "properties": {"collection_times": [{"days": "Mon-Sat", "time": "5:15pm"}, {"days": "Sun", "time": "Closed"}], "id": "7866400054", "name": "USPS COLLECTION BOX - PO LOBBY", "address": {"city": "ROUND ROCK", "state": "TX", "street": "2250 DOUBLE CREEK DR", "postcode": "78664"}}},
{"geometry": {"type": "Point", "coordinates": [-97.6454319699, 30.4923772346]}, "type": "Feature", "properties": {"collection_times": [{"days": "Mon-Sat", "time": "5:15pm"}, {"days": "Sun", "time": "Closed"}], "id": "7866400055", "name": "USPS COLLECTION BOX - PO LOBBY", "address": {"city": "ROUND ROCK", "state": "TX", "street": "2250 DOUBLE CREEK DR", "postcode": "78664"}}},
{"geometry": {"type": "Point", "coordinates": [-97.6571890538, 30.508112196]}, "type": "Feature", "properties": {"collection_times": [{"days": "Mon-Sat", "time": "5:15pm"}, {"days": "Sun", "time": "Closed"}], "id": "7866400056", "name": "USPS COLLECTION BOX - EXPRESS", "address": {"city": "ROUND ROCK", "state": "TX", "street": "2250 DOUBLE CREEK DR", "postcode": "78664"}}},
{"geometry": {"type": "Point", "coordinates": [-97.6707061156, 30.5190580531]}, "type": "Feature", "properties": {"collection_times": [{"days": "Mon-Sat", "time": "4:15pm"}, {"days": "Sun", "time": "Closed"}], "id": "7866400059", "name": "USPS COLLECTION BOX - BLUE BOX", "address": {"city": "ROUND ROCK", "state": "TX", "street": "1101 N GEORGETOWN ST", "postcode": "78664"}}},
{"geometry": {"type": "Point", "coordinates": [-97.6882771801, 30.528787467]}, "type": "Feature", "properties": {"collection_times": [{"days": "Mon-Sat", "time": "4:30pm"}, {"days": "Sun", "time": "Closed"}], "id": "7866400061", "name": "USPS COLLECTION BOX - BLUE BOX", "address": {"city": "ROUND ROCK", "state": "TX", "street": "2000 N MAYS ST", "postcode": "78664"}}},
{"geometry": {"type": "Point", "coordinates": [-97.6892333327, 30.5309177958]}, "type": "Feature", "properties": {"collection_times": [{"days": "Mon-Sat", "time": "4:30pm"}, {"days": "Sun", "time": "Closed"}], "id": "7866400062", "name": "USPS COLLECTION BOX - BLUE BOX", "address": {"city": "ROUND ROCK", "state": "TX", "street": "2120 N MAYS ST", "postcode": "78664"}}},
{"geometry": {"type": "Point", "coordinates": [-97.6701226966, 30.5182813783]}, "type": "Feature", "properties": {"collection_times": [{"days": "Mon-Sat", "time": "4:15pm"}, {"days": "Sun", "time": "Closed"}], "id": "7866400071", "name": "USPS COLLECTION BOX - BLUE BOX", "address": {"city": "ROUND ROCK", "state": "TX", "street": "901 E PALM VLY", "postcode": "78664"}}},
{"geometry": {"type": "Point", "coordinates": [-97.6670666888, 30.5180233213]}, "type": "Feature", "properties": {"collection_times": [{"days": "Mon-Sat", "time": "4:15pm"}, {"days": "Sun", "time": "Closed"}], "id": "7866400072", "name": "USPS COLLECTION BOX - BLUE BOX", "address": {"city": "ROUND ROCK", "state": "TX", "street": "1240 E PALM VLY", "postcode": "78664"}}},
{"geometry": {"type": "Point", "coordinates": [-97.6853629772, 30.5322681559]}, "type": "Feature", "properties": {"collection_times": [{"days": "Mon-Fri", "time": "4:20pm"}, {"days": "Sat-Sun", "time": "Closed"}], "id": "7866400073", "name": "USPS COLLECTION BOX - BLUE BOX", "address": {"city": "ROUND ROCK", "state": "TX", "street": "211 COMMERCE BLVD", "postcode": "78664"}}},
{"geometry": {"type": "Point", "coordinates": [-97.6849252824, 30.514565175]}, "type": "Feature", "properties": {"collection_times": [{"days": "Mon-Fri", "time": "4:45pm"}, {"days": "Sat-Sun", "time": "Closed"}], "id": "7866400074", "name": "USPS COLLECTION BOX - BLUE BOX", "address": {"city": "ROUND ROCK", "state": "TX", "street": "896 SUMMIT ST", "postcode": "78664"}}},
{"geometry": {"type": "Point", "coordinates": [-97.6805723028, 30.5069885152]}, "type": "Feature", "properties": {"collection_times": [{"days": "Mon-Fri", "time": "5:00pm"}, {"days": "Sat-Sun", "time": "Closed"}], "id": "7866400075", "name": "USPS COLLECTION BOX - BLUE BOX", "address": {"city": "ROUND ROCK", "state": "TX", "street": "301 W BAGDAD AVE", "postcode": "78664"}}},
{"geometry": {"type": "Point", "coordinates": [-97.6805723028, 30.5069885152]}, "type": "Feature", "properties": {"collection_times": [{"days": "Mon-Fri", "time": "5:00pm"}, {"days": "Sat-Sun", "time": "Closed"}], "id": "7866400076", "name": "USPS COLLECTION BOX - BLUE BOX", "address": {"city": "ROUND ROCK", "state": "TX", "street": "301 W BAGDAD AVE", "postcode": "78664"}}},
{"geometry": {"type": "Point", "coordinates": [-97.6454319699, 30.4923772346]}, "type": "Feature", "properties": {"collection_times": [{"days": "Mon-Sat", "time": "5:15pm"}, {"days": "Sun", "time": "Closed"}], "id": "7866400077", "name": "USPS COLLECTION BOX - APC", "address": {"city": "ROUND ROCK", "state": "TX", "street": "2250 DOUBLE CREEK DR", "postcode": "78664"}}},
{"geometry": {"type": "Point", "coordinates": [-97.9415559302, 29.8842863905]}, "type": "Feature", "properties": {"collection_times": [{"days": "Mon-Fri", "time": "5:20pm"}, {"days": "Sat", "time": "3:30pm"}, {"days": "Sun", "time": "Closed"}], "id": "7866600000", "name": "USPS COLLECTION BOX - BLUE BOX", "address": {"city": "SAN MARCOS", "state": "TX", "street": "210 S STAGECOACH TRL", "postcode": "78666"}}},
{"geometry": {"type": "Point", "coordinates": [-97.9509592207, 29.8794203152]}, "type": "Feature", "properties": {"collection_times": [{"days": "Mon-Fri", "time": "5:20pm"}, {"days": "Sat", "time": "3:30pm"}, {"days": "Sun", "time": "Closed"}], "id": "7866600001", "name": "USPS COLLECTION BOX - EXPRESS", "address": {"city": "SAN MARCOS", "state": "TX", "street": "210 S STAGECOACH TRL", "postcode": "78666"}}},
{"geometry": {"type": "Point", "coordinates": [-97.9416699643, 29.8845910248]}, "type": "Feature", "properties": {"collection_times": [{"days": "Mon-Fri", "time": "5:20pm"}, {"days": "Sat", "time": "3:30pm"}, {"days": "Sun", "time": "Closed"}], "id": "7866600003", "name": "USPS COLLECTION BOX - BLUE BOX", "address": {"city": "SAN MARCOS", "state": "TX", "street": "210 S STAGECOACH TRL", "postcode": "78666"}}},
{"geometry": {"type": "Point", "coordinates": [-97.9413104349, 29.8914548229]}, "type": "Feature", "properties": {"collection_times": [{"days": "Mon-Fri", "time": "4:40pm"}, {"days": "Sat", "time": "3:00pm"}, {"days": "Sun", "time": "Closed"}], "id": "7866600005", "name": "USPS COLLECTION BOX - BLUE BOX", "address": {"city": "SAN MARCOS", "state": "TX", "street": "700 N LBJ DR", "postcode": "78666"}}},
{"geometry": {"type": "Point", "coordinates": [-97.9417338441, 29.8830721055]}, "type": "Feature", "properties": {"collection_times": [{"days": "Mon-Fri", "time": "4:55pm"}, {"days": "Sat", "time": "3:15pm"}, {"days": "Sun", "time": "Closed"}], "id": "7866600008", "name": "USPS COLLECTION BOX - BLUE BOX", "address": {"city": "SAN MARCOS", "state": "TX", "street": "100 W HOPKINS ST", "postcode": "78666"}}},
{"geometry": {"type": "Point", "coordinates": [-97.9626414609, 29.8650639211]}, "type": "Feature", "properties": {"collection_times": [{"days": "Mon-Fri", "time": "3:00pm"}, {"days": "Sat", "time": "1:45pm"}, {"days": "Sun", "time": "Closed"}], "id": "7866600010", "name": "USPS COLLECTION BOX - BLUE BOX", "address": {"city": "SAN MARCOS", "state": "TX", "street": "102 WONDER WORLD DR", "postcode": "78666"}}},
{"geometry": {"type": "Point", "coordinates": [-97.9399039597, 29.8824690202]}, "type": "Feature", "properties": {"collection_times": [{"days": "Mon-Fri", "time": "4:55pm"}, {"days": "Sat", "time": "3:15pm"}, {"days": "Sun", "time": "Closed"}], "id": "7866600011", "name": "USPS COLLECTION BOX - BLUE BOX", "address": {"city": "SAN MARCOS", "state": "TX", "street": "100 N LBJ DR", "postcode": "78666"}}},
{"geometry": {"type": "Point", "coordinates": [-97.9509592207, 29.8794203152]}, "type": "Feature", "properties": {"collection_times": [{"days": "Mon-Fri", "time": "4:55pm"}, {"days": "Sat", "time": "3:15pm"}, {"days": "Sun", "time": "Closed"}], "id": "7866600013", "name": "USPS COLLECTION BOX - EXPRESS", "address": {"city": "SAN MARCOS", "state": "TX", "street": "100 N LBJ DR", "postcode": "78666"}}},
{"geometry": {"type": "Point", "coordinates": [-97.9433923526, 29.8819672218]}, "type": "Feature", "properties": {"collection_times": [{"days": "Mon-Fri", "time": "4:55pm"}, {"days": "Sat", "time": "3:15pm"}, {"days": "Sun", "time": "Closed"}], "id": "7866600014", "name": "USPS COLLECTION BOX - BLUE BOX", "address": {"city": "SAN MARCOS", "state": "TX", "street": "215 W SAN ANTONIO ST", "postcode": "78666"}}},
{"geometry": {"type": "Point", "coordinates": [-97.9387596518, 29.866598445]}, "type": "Feature", "properties": {"collection_times": [{"days": "Mon-Fri", "time": "4:10pm"}, {"days": "Sat", "time": "2:30pm"}, {"days": "Sun", "time": "Closed"}], "id": "7866600023", "name": "USPS COLLECTION BOX - BLUE BOX", "address": {"city": "SAN MARCOS", "state": "TX", "street": "1000 HIGHWAY 123", "postcode": "78666"}}},
{"geometry": {"type": "Point", "coordinates": [-97.9509592207, 29.8794203152]}, "type": "Feature", "properties": {"collection_times": [{"days": "Mon-Fri", "time": "3:50pm"}, {"days": "Sat", "time": "2:15pm"}, {"days": "Sun", "time": "Closed"}], "id": "7866600028", "name": "USPS COLLECTION BOX - EXPRESS", "address": {"city": "SAN MARCOS", "state": "TX", "street": "3939 S IH 35", "postcode": "78666"}}},
{"geometry": {"type": "Point", "coordinates": [-97.9844948263, 29.8282299376]}, "type": "Feature", "properties": {"collection_times": [{"days": "Mon-Fri", "time": "3:50pm"}, {"days": "Sat", "time": "2:15pm"}, {"days": "Sun", "time": "Closed"}], "id": "7866600029", "name": "USPS COLLECTION BOX - BLUE BOX", "address": {"city": "SAN MARCOS", "state": "TX", "street": "3939 S IH 35", "postcode": "78666"}}},
{"geometry": {"type": "Point", "coordinates": [-97.9266381048, 29.8857716178]}, "type": "Feature", "properties": {"collection_times": [{"days": "Mon-Fri", "time": "4:25pm"}, {"days": "Sat", "time": "2:45pm"}, {"days": "Sun", "time": "Closed"}], "id": "7866600030", "name": "USPS COLLECTION BOX - BLUE BOX", "address": {"city": "SAN MARCOS", "state": "TX", "street": "641 E HOPKINS ST", "postcode": "78666"}}},
{"geometry": {"type": "Point", "coordinates": [-97.98609247, 29.8267896204]}, "type": "Feature", "properties": {"collection_times": [{"days": "Mon-Fri", "time": "3:45pm"}, {"days": "Sat", "time": "2:00pm"}, {"days": "Sun", "time": "Closed"}], "id": "7866600033", "name": "USPS COLLECTION BOX - BLUE BOX", "address": {"city": "SAN MARCOS", "state": "TX", "street": "4015 S IH 35", "postcode": "78666"}}},
{"geometry": {"type": "Point", "coordinates": [-97.9802846903, 29.8837185077]}, "type": "Feature", "properties": {"collection_times": [{"days": "Mon-Fri", "time": "3:10pm"}, {"days": "Sat", "time": "1:45pm"}, {"days": "Sun", "time": "Closed"}], "id": "7866600034", "name": "USPS COLLECTION BOX - BLUE BOX", "address": {"city": "SAN MARCOS", "state": "TX", "street": "1700 RNCH RD 12", "postcode": "78666"}}},
{"geometry": {"type": "Point", "coordinates": [-97.9183088907, 29.8986788831]}, "type": "Feature", "properties": {"collection_times": [{"days": "Mon-Fri", "time": "4:25pm"}, {"days": "Sat", "time": "2:45pm"}, {"days": "Sun", "time": "Closed"}], "id": "7866600038", "name": "USPS COLLECTION BOX - BLUE BOX", "address": {"city": "SAN MARCOS", "state": "TX", "street": "101 UHLAND RD", "postcode": "78666"}}},
{"geometry": {"type": "Point", "coordinates": [-97.9463272738, 29.8511606044]}, "type": "Feature", "properties": {"collection_times": [{"days": "Mon-Fri", "time": "4:00pm"}, {"days": "Sat", "time": "2:15pm"}, {"days": "Sun", "time": "Closed"}], "id": "7866600039", "name": "USPS COLLECTION BOX - BLUE BOX", "address": {"city": "SAN MARCOS", "state": "TX", "street": "1305 WONDER WORLD DR", "postcode": "78666"}}},
{"geometry": {"type": "Point", "coordinates": [-97.947561841, 29.8535658954]}, "type": "Feature", "properties": {"collection_times": [{"days": "Mon-Fri", "time": "4:00pm"}, {"days": "Sat", "time": "2:15pm"}, {"days": "Sun", "time": "Closed"}], "id": "7866600040", "name": "USPS COLLECTION BOX - BLUE BOX", "address": {"city": "SAN MARCOS", "state": "TX", "street": "2000 MEDICAL PKWY", "postcode": "78666"}}},
{"geometry": {"type": "Point", "coordinates": [-97.9415559302, 29.8842863905]}, "type": "Feature", "properties": {"collection_times": [{"days": "Mon-Fri", "time": "5:20pm"}, {"days": "Sat", "time": "3:30pm"}, {"days": "Sun", "time": "Closed"}], "id": "7866600043", "name": "USPS COLLECTION BOX - BLUE BOX", "address": {"city": "SAN MARCOS", "state": "TX", "street": "300 N GUADALUPE ST", "postcode": "78666"}}},
{"geometry": {"type": "Point", "coordinates": [-97.9415559302, 29.8842863905]}, "type": "Feature", "properties": {"collection_times": [{"days": "Mon-Fri", "time": "5:20pm"}, {"days": "Sat", "time": "3:30pm"}, {"days": "Sun", "time": "Closed"}], "id": "7866600044", "name": "USPS COLLECTION BOX - BLUE BOX", "address": {"city": "SAN MARCOS", "state": "TX", "street": "300 N GUADALUPE ST", "postcode": "78666"}}},
{"geometry": {"type": "Point", "coordinates": [-97.9194412109, 29.8820464822]}, "type": "Feature", "properties": {"collection_times": [{"days": "Mon-Fri", "time": "4:10pm"}, {"days": "Sat", "time": "2:30pm"}, {"days": "Sun", "time": "Closed"}], "id": "7866600045", "name": "USPS COLLECTION BOX - BLUE BOX", "address": {"city": "SAN MARCOS", "state": "TX", "street": "921 HIGHWAY 80", "postcode": "78666"}}},
{"geometry": {"type": "Point", "coordinates": [-97.9407765373, 29.8801350465]}, "type": "Feature", "properties": {"collection_times": [{"days": "Mon-Fri", "time": "4:55pm"}, {"days": "Sat", "time": "3:15pm"}, {"days": "Sun", "time": "Closed"}], "id": "7866600047", "name": "USPS COLLECTION BOX - BLUE BOX", "address": {"city": "SAN MARCOS", "state": "TX", "street": "712 S STAGECOACH TRL", "postcode": "78666"}}},
{"geometry": {"type": "Point", "coordinates": [-97.9416699643, 29.8845910248]}, "type": "Feature", "properties": {"collection_times": [{"days": "Mon-Fri", "time": "5:15pm"}, {"days": "Sat", "time": "1:00pm"}, {"days": "Sun", "time": "Closed"}], "id": "7866600049", "name": "USPS COLLECTION BOX - PO LOBBY", "address": {"city": "SAN MARCOS", "state": "TX", "street": "210 S STAGECOACH TRL", "postcode": "78666"}}},
{"geometry": {"type": "Point", "coordinates": [-97.9416699643, 29.8845910248]}, "type": "Feature", "properties": {"collection_times": [{"days": "Mon-Fri", "time": "5:15pm"}, {"days": "Sat", "time": "1:00pm"}, {"days": "Sun", "time": "Closed"}], "id": "7866600051", "name": "USPS COLLECTION BOX - APC", "address": {"city": "SAN MARCOS", "state": "TX", "street": "210 S STAGECOACH TRL", "postcode": "78666"}}},
{"geometry": {"type": "Point", "coordinates": [-97.9415559302, 29.8842863905]}, "type": "Feature", "properties": {"collection_times": [{"days": "Mon-Fri", "time": "5:20pm"}, {"days": "Sat", "time": "3:30pm"}, {"days": "Sun", "time": "Closed"}], "id": "7866600053", "name": "USPS COLLECTION BOX - BLUE BOX", "address": {"city": "SAN MARCOS", "state": "TX", "street": "300 N GUADALUPE ST", "postcode": "78666"}}},
{"geometry": {"type": "Point", "coordinates": [-98.1594136721, 30.4628698682]}, "type": "Feature", "properties": {"collection_times": [{"days": "Mon-Sat", "time": "5:30pm"}, {"days": "Sun", "time": "Closed"}], "id": "7866900000", "name": "USPS COLLECTION BOX - BLUE BOX", "address": {"city": "SPICEWOOD", "state": "TX", "street": "121 SPUR 191", "postcode": "78669"}}},
{"geometry": {"type": "Point", "coordinates": [-98.1594136721, 30.4628698682]}, "type": "Feature", "properties": {"collection_times": [{"days": "Mon-Fri", "time": "4:00pm"}, {"days": "Sat", "time": "12:00pm"}, {"days": "Sun", "time": "Closed"}], "id": "7866900004", "name": "USPS COLLECTION BOX - PO LOBBY", "address": {"city": "SPICEWOOD", "state": "TX", "street": "121 SPUR 191", "postcode": "78669"}}},
{"geometry": {"type": "Point", "coordinates": [-98.0847749002, 30.3863111364]}, "type": "Feature", "properties": {"collection_times": [{"days": "Mon-Sat", "time": "5:30pm"}, {"days": "Sun", "time": "Closed"}], "id": "7866900006", "name": "USPS COLLECTION BOX - BLUE BOX", "address": {"city": "SPICEWOOD", "state": "TX", "street": "3610 PACE BEND RD S", "postcode": "78669"}}},
{"geometry": {"type": "Point", "coordinates": [-98.1594136721, 30.4628698682]}, "type": "Feature", "properties": {"collection_times": [{"days": "Mon-Fri", "time": "4:00pm"}, {"days": "Sat", "time": "12:00pm"}, {"days": "Sun", "time": "Closed"}], "id": "7866900007", "name": "USPS COLLECTION BOX - PO LOBBY", "address": {"city": "SPICEWOOD", "state": "TX", "street": "121 SPUR 191", "postcode": "78669"}}},
{"geometry": {"type": "Point", "coordinates": [-98.0644075897, 30.3528689989]}, "type": "Feature", "properties": {"collection_times": [{"days": "Mon-Sat", "time": "5:30pm"}, {"days": "Sun", "time": "Closed"}], "id": "7866900008", "name": "USPS COLLECTION BOX - BLUE BOX", "address": {"city": "SPICEWOOD", "state": "TX", "street": "21120 HIGHWAY 71 W", "postcode": "78669"}}},
{"geometry": {"type": "Point", "coordinates": [-97.8362213524, 29.7812813291]}, "type": "Feature", "properties": {"collection_times": [{"days": "Mon-Sat", "time": "5:15pm"}, {"days": "Sun", "time": "Closed"}], "id": "7867000000", "name": "USPS COLLECTION BOX - BLUE BOX", "address": {"city": "STAPLES", "state": "TX", "street": "2585 ALLISON RD", "postcode": "78670"}}},
{"geometry": {"type": "Point", "coordinates": [-97.8362213524, 29.7812813291]}, "type": "Feature", "properties": {"collection_times": [{"days": "Mon-Fri", "time": "11:00am"}, {"days": "Sat-Sun", "time": "Closed"}], "id": "7867000002", "name": "USPS COLLECTION BOX - PO LOBBY", "address": {"city": "STAPLES", "state": "TX", "street": "2585 ALLISON RD", "postcode": "78670"}}},
{"geometry": {"type": "Point", "coordinates": [-98.5885472483, 30.2394681926]}, "type": "Feature", "properties": {"collection_times": [{"days": "Mon-Sat", "time": "4:45pm"}, {"days": "Sun", "time": "Closed"}], "id": "7867100000", "name": "USPS COLLECTION BOX - BLUE BOX", "address": {"city": "STONEWALL", "state": "TX", "street": "14490 E US HIGHWAY 290", "postcode": "78671"}}},
{"geometry": {"type": "Point", "coordinates": [-98.5885472483, 30.2394681926]}, "type": "Feature", "properties": {"collection_times": [{"days": "Mon-Fri", "time": "12:00pm"}, {"days": "Sat", "time": "9:30am"}, {"days": "Sun", "time": "Closed"}], "id": "7867100002", "name": "USPS COLLECTION BOX - PO LOBBY", "address": {"city": "STONEWALL", "state": "TX", "street": "14490 E US HIGHWAY 290", "postcode": "78671"}}},
{"geometry": {"type": "Point", "coordinates": [-98.4727343216, 30.8787844865]}, "type": "Feature", "properties": {"collection_times": [{"days": "Mon-Fri", "time": "3:30pm"}, {"days": "Sat", "time": "11:00am"}, {"days": "Sun", "time": "Closed"}], "id": "7867200000", "name": "USPS COLLECTION BOX - PO LOBBY", "address": {"city": "TOW", "state": "TX", "street": "16910 RANCH ROAD 2241", "postcode": "78672"}}},
{"geometry": {"type": "Point", "coordinates": [-98.4507087182, 30.8611134779]}, "type": "Feature", "properties": {"collection_times": [{"days": "Mon-Sat", "time": "12:00pm"}, {"days": "Sun", "time": "Closed"}], "id": "7867200003", "name": "USPS COLLECTION BOX - BLUE BOX", "address": {"city": "TOW", "state": "TX", "street": "110 FRAZIER ST", "postcode": "78672"}}},
{"geometry": {"type": "Point", "coordinates": [-97.5814916491, 30.7376841811]}, "type": "Feature", "properties": {"collection_times": [{"days": "Mon-Fri", "time": "1:30pm"}, {"days": "Sat", "time": "11:00am"}, {"days": "Sun", "time": "Closed"}], "id": "7867300000", "name": "USPS COLLECTION BOX - BLUE BOX", "address": {"city": "WALBURG", "state": "TX", "street": "3745 FM 972", "postcode": "78673"}}},
{"geometry": {"type": "Point", "coordinates": [-97.5814916491, 30.7376841811]}, "type": "Feature", "properties": {"collection_times": [{"days": "Mon-Fri", "time": "11:30am"}, {"days": "Sat", "time": "11:00am"}, {"days": "Sun", "time": "Closed"}], "id": "7867300001", "name": "USPS COLLECTION BOX - PO LOBBY", "address": {"city": "WALBURG", "state": "TX", "street": "3745 FM 972", "postcode": "78673"}}},
{"geometry": {"type": "Point", "coordinates": [-97.5868563042, 30.6769539125]}, "type": "Feature", "properties": {"collection_times": [{"days": "Mon-Fri", "time": "1:30pm"}, {"days": "Sat", "time": "12:00pm"}, {"days": "Sun", "time": "Closed"}], "id": "7867400000", "name": "USPS COLLECTION BOX - BLUE BOX", "address": {"city": "WEIR", "state": "TX", "street": "200 FM 1105", "postcode": "78674"}}},
{"geometry": {"type": "Point", "coordinates": [-97.5868563042, 30.6769539125]}, "type": "Feature", "properties": {"collection_times": [{"days": "Mon-Fri", "time": "2:30pm"}, {"days": "Sat", "time": "12:00pm"}, {"days": "Sun", "time": "Closed"}], "id": "7867400001", "name": "USPS COLLECTION BOX - PO LOBBY", "address": {"city": "WEIR", "state": "TX", "street": "200 FM 1105", "postcode": "78674"}}},
{"geometry": {"type": "Point", "coordinates": [-98.1230084034, 30.0171613346]}, "type": "Feature", "properties": {"collection_times": [{"days": "Mon-Sat", "time": "5:30pm"}, {"days": "Sun", "time": "Closed"}], "id": "7867600001", "name": "USPS COLLECTION BOX - EXPRESS", "address": {"city": "WIMBERLY", "state": "TX", "street": "111 JOE WIMBERLEY BLVD", "postcode": "78676"}}},
{"geometry": {"type": "Point", "coordinates": [-98.1230084034, 30.0171613346]}, "type": "Feature", "properties": {"collection_times": [{"days": "Mon-Sat", "time": "5:30pm"}, {"days": "Sun", "time": "Closed"}], "id": "7867600003", "name": "USPS COLLECTION BOX - BLUE BOX", "address": {"city": "WIMBERLY", "state": "TX", "street": "111 JOE WIMBERLEY BLVD", "postcode": "78676"}}},
{"geometry": {"type": "Point", "coordinates": [-98.1230084034, 30.0171613346]}, "type": "Feature", "properties": {"collection_times": [{"days": "Mon-Fri", "time": "4:30pm"}, {"days": "Sat", "time": "12:00pm"}, {"days": "Sun", "time": "Closed"}], "id": "7867600008", "name": "USPS COLLECTION BOX - PO LOBBY", "address": {"city": "WIMBERLY", "state": "TX", "street": "111 JOE WIMBERLEY BLVD", "postcode": "78676"}}},
{"geometry": {"type": "Point", "coordinates": [-97.7129838861, 30.5090999045]}, "type": "Feature", "properties": {"collection_times": [{"days": "Mon-Sat", "time": "4:00pm"}, {"days": "Sun", "time": "Closed"}], "id": "7868100004", "name": "USPS COLLECTION BOX - BLUE BOX", "address": {"city": "ROUND ROCK", "state": "TX", "street": "2400 ROUND ROCK AVE", "postcode": "78681"}}},
{"geometry": {"type": "Point", "coordinates": [-97.690731245, 30.5114859328]}, "type": "Feature", "properties": {"collection_times": [{"days": "Mon-Sat", "time": "4:00pm"}, {"days": "Sun", "time": "Closed"}], "id": "7868100005", "name": "USPS COLLECTION BOX - BLUE BOX", "address": {"city": "ROUND ROCK", "state": "TX", "street": "900 ROUND ROCK AVE", "postcode": "78681"}}},
{"geometry": {"type": "Point", "coordinates": [-97.7063936217, 30.5245150428]}, "type": "Feature", "properties": {"collection_times": [{"days": "Mon-Sat", "time": "3:00pm"}, {"days": "Sun", "time": "Closed"}], "id": "7868100007", "name": "USPS COLLECTION BOX - BLUE BOX", "address": {"city": "ROUND ROCK", "state": "TX", "street": "1910 HERMITAGE DR", "postcode": "78681"}}},
{"geometry": {"type": "Point", "coordinates": [-97.7349325067, 30.5149271604]}, "type": "Feature", "properties": {"collection_times": [{"days": "Mon-Sat", "time": "11:00am"}, {"days": "Sun", "time": "Closed"}], "id": "7868100009", "name": "USPS COLLECTION BOX - BLUE BOX", "address": {"city": "ROUND ROCK", "state": "TX", "street": "17303 GREAT OAKS DR", "postcode": "78681"}}},
{"geometry": {"type": "Point", "coordinates": [-97.7193120577, 30.5205001425]}, "type": "Feature", "properties": {"collection_times": [{"days": "Mon-Sat", "time": "11:00am"}, {"days": "Sun", "time": "Closed"}], "id": "7868100010", "name": "USPS COLLECTION BOX - BLUE BOX", "address": {"city": "ROUND ROCK", "state": "TX", "street": "1431 VISTA HILLS BLVD", "postcode": "78681"}}},
{"geometry": {"type": "Point", "coordinates": [-97.7113582374, 30.512791767]}, "type": "Feature", "properties": {"collection_times": [{"days": "Mon-Sat", "time": "4:00pm"}, {"days": "Sun", "time": "Closed"}], "id": "7868100013", "name": "USPS COLLECTION BOX - EXPRESS", "address": {"city": "ROUND ROCK", "state": "TX", "street": "2400 ROUND ROCK AVE", "postcode": "78681"}}},
{"geometry": {"type": "Point", "coordinates": [-97.7198900005, 30.5146101274]}, "type": "Feature", "properties": {"collection_times": [{"days": "Mon-Sat", "time": "4:00pm"}, {"days": "Sun", "time": "Closed"}], "id": "7868100016", "name": "USPS COLLECTION BOX - BLUE BOX", "address": {"city": "ROUND ROCK", "state": "TX", "street": "17806 PARK VALLEY DR", "postcode": "78681"}}},
{"geometry": {"type": "Point", "coordinates": [-97.7113582374, 30.512791767]}, "type": "Feature", "properties": {"collection_times": [{"days": "Mon-Sat", "time": "4:00pm"}, {"days": "Sun", "time": "Closed"}], "id": "7868100019", "name": "USPS COLLECTION BOX - EXPRESS", "address": {"city": "ROUND ROCK", "state": "TX", "street": "16900 R R 620", "postcode": "78681"}}},
{"geometry": {"type": "Point", "coordinates": [-97.7217055023, 30.4991827899]}, "type": "Feature", "properties": {"collection_times": [{"days": "Mon-Sat", "time": "4:00pm"}, {"days": "Sun", "time": "Closed"}], "id": "7868100020", "name": "USPS COLLECTION BOX - BLUE BOX", "address": {"city": "ROUND ROCK", "state": "TX", "street": "16900 R R 620", "postcode": "78681"}}},
{"geometry": {"type": "Point", "coordinates": [-97.6893758798, 30.5130069387]}, "type": "Feature", "properties": {"collection_times": [{"days": "Mon-Sat", "time": "4:00pm"}, {"days": "Sun", "time": "Closed"}], "id": "7868100021", "name": "USPS COLLECTION BOX - BLUE BOX", "address": {"city": "ROUND ROCK", "state": "TX", "street": "1 CHISHOLM TRL", "postcode": "78681"}}},
{"geometry": {"type": "Point", "coordinates": [-97.689663033, 30.5171605869]}, "type": "Feature", "properties": {"collection_times": [{"days": "Mon-Sat", "time": "5:30pm"}, {"days": "Sun", "time": "Closed"}], "id": "7868100030", "name": "USPS COLLECTION BOX - BLUE BOX", "address": {"city": "ROUND ROCK", "state": "TX", "street": "797 SAM BASS RD", "postcode": "78681"}}},
{"geometry": {"type": "Point", "coordinates": [-97.7113582374, 30.512791767]}, "type": "Feature", "properties": {"collection_times": [{"days": "Mon-Sat", "time": "5:30pm"}, {"days": "Sun", "time": "Closed"}], "id": "7868100031", "name": "USPS COLLECTION BOX - EXPRESS", "address": {"city": "ROUND ROCK", "state": "TX", "street": "797 SAM BASS RD", "postcode": "78681"}}},
{"geometry": {"type": "Point", "coordinates": [-97.689663033, 30.5171605869]}, "type": "Feature", "properties": {"collection_times": [{"days": "Mon-Sat", "time": "5:00pm"}, {"days": "Sun", "time": "Closed"}], "id": "7868100035", "name": "USPS COLLECTION BOX - PO LOBBY", "address": {"city": "ROUND ROCK", "state": "TX", "street": "797 SAM BASS RD", "postcode": "78681"}}},
{"geometry": {"type": "Point", "coordinates": [-97.689663033, 30.5171605869]}, "type": "Feature", "properties": {"collection_times": [{"days": "Mon-Sat", "time": "5:00pm"}, {"days": "Sun", "time": "Closed"}], "id": "7868100036", "name": "USPS COLLECTION BOX - PO LOBBY", "address": {"city": "ROUND ROCK", "state": "TX", "street": "797 SAM BASS RD", "postcode": "78681"}}},
{"geometry": {"type": "Point", "coordinates": [-97.6781871481, 30.4903180651]}, "type": "Feature", "properties": {"collection_times": [{"days": "Mon-Sat", "time": "3:00pm"}, {"days": "Sun", "time": "Closed"}], "id": "7868100038", "name": "USPS COLLECTION BOX - BLUE BOX", "address": {"city": "ROUND ROCK", "state": "TX", "street": "2000 S IH 35", "postcode": "78681"}}},
{"geometry": {"type": "Point", "coordinates": [-97.6781871481, 30.4903180651]}, "type": "Feature", "properties": {"collection_times": [{"days": "Mon-Sat", "time": "3:00pm"}, {"days": "Sun", "time": "Closed"}], "id": "7868100039", "name": "USPS COLLECTION BOX - BLUE BOX", "address": {"city": "ROUND ROCK", "state": "TX", "street": "2000 S IH 35", "postcode": "78681"}}},
{"geometry": {"type": "Point", "coordinates": [-97.6863769457, 30.5087905027]}, "type": "Feature", "properties": {"collection_times": [{"days": "Mon-Fri", "time": "4:00pm"}, {"days": "Sat", "time": "3:00pm"}, {"days": "Sun", "time": "Closed"}], "id": "7868100040", "name": "USPS COLLECTION BOX - BLUE BOX", "address": {"city": "ROUND ROCK", "state": "TX", "street": "220 IH 35 N", "postcode": "78681"}}},
{"geometry": {"type": "Point", "coordinates": [-97.689663033, 30.5171605869]}, "type": "Feature", "properties": {"collection_times": [{"days": "Mon-Sat", "time": "5:00pm"}, {"days": "Sun", "time": "Closed"}], "id": "7868100041", "name": "USPS COLLECTION BOX - APC", "address": {"city": "ROUND ROCK", "state": "TX", "street": "797 SAM BASS RD", "postcode": "78681"}}},
{"geometry": {"type": "Point", "coordinates": [-97.71190221, 30.512645813]}, "type": "Feature", "properties": {"collection_times": [{"days": "Mon-Sat", "time": "4:00pm"}, {"days": "Sun", "time": "Closed"}], "id": "7868100042", "name": "USPS COLLECTION BOX - BLUE BOX", "address": {"city": "ROUND ROCK", "state": "TX", "street": "16040 PARK VALLEY DR", "postcode": "78681"}}},
{"geometry": {"type": "Point", "coordinates": [-97.71190221, 30.512645813]}, "type": "Feature", "properties": {"collection_times": [{"days": "Mon-Sat", "time": "4:00pm"}, {"days": "Sun", "time": "Closed"}], "id": "7868100043", "name": "USPS COLLECTION BOX - BLUE BOX", "address": {"city": "ROUND ROCK", "state": "TX", "street": "16040 PARK VALLEY DR", "postcode": "78681"}}}
]}
