{"type": "FeatureCollection", "features": [
{"geometry": {"type": "Point", "coordinates": [-97.743140056, 30.267291367]}, "type": "Feature", "properties": {"collection_times": [{"days": "Mon-Fri", "time": "2:00pm"}, {"days": "Sat-Sun", "time": "Closed"}], "id": "7870100005", "name": "USPS COLLECTION BOX - BLUE BOX", "address": {"city": "AUSTIN", "state": "TX", "street": "500 CONGRESS AVE", "postcode": "78701"}}},
{"geometry": {"type": "Point", "coordinates": [-97.743531671, 30.266050088]}, "type": "Feature", "properties": {"collection_times": [{"days": "Mon-Fri", "time": "2:15pm"}, {"days": "Sat", "time": "3:15pm"}, {"days": "Sun", "time": "Closed"}], "id": "7870100006", "name": "USPS COLLECTION BOX - BLUE BOX", "address": {"city": "AUSTIN", "state": "TX", "street": "327 CONGRESS AVE", "postcode": "78701"}}},
{"geometry": {"type": "Point", "coordinates": [-97.735622449, 30.267127029]}, "type": "Feature", "properties": {"collection_times": [{"days": "Mon-Fri", "time": "4:30pm"}, {"days": "Sat-Sun", "time": "Closed"}], "id": "7870100009", "name": "USPS COLLECTION BOX - BLUE BOX", "address": {"city": "AUSTIN", "state": "TX", "street": "700 E 7TH ST", "postcode": "78701"}}},
{"geometry": {"type": "Point", "coordinates": [-97.733357843, 30.275163292]}, "type": "Feature", "properties": {"collection_times": [{"days": "Mon-Fri", "time": "1:15pm"}, {"days": "Sat", "time": "3:30pm"}, {"days": "Sun", "time": "Closed"}], "id": "7870100010", "name": "USPS COLLECTION BOX - BLUE BOX", "address": {"city": "AUSTIN", "state": "TX", "street": "601 E 15TH ST", "postcode": "78701"}}},
{"geometry": {"type": "Point", "coordinates": [-97.7395745216, 30.2723292814]}, "type": "Feature", "properties": {"collection_times": [{"days": "Mon-Fri", "time": "5:00pm"}, {"days": "Sat-Sun", "time": "Closed"}], "id": "7870100012", "name": "USPS COLLECTION BOX - BLUE BOX", "address": {"city": "AUSTIN", "state": "TX", "street": "220 E 11TH ST", "postcode": "78701"}}},
{"geometry": {"type": "Point", "coordinates": [-97.744129912, 30.268550595]}, "type": "Feature", "properties": {"collection_times": [{"days": "Mon-Fri", "time": "5:00pm"}, {"days": "Sat-Sun", "time": "Closed"}], "id": "7870100019", "name": "USPS COLLECTION BOX - BLUE BOX", "address": {"city": "AUSTIN", "state": "TX", "street": "602 COLORADO ST", "postcode": "78701"}}},
{"geometry": {"type": "Point", "coordinates": [-97.7433583733, 30.2703929412]}, "type": "Feature", "properties": {"collection_times": [{"days": "Mon-Fri", "time": "3:00pm"}, {"days": "Sat-Sun", "time": "Closed"}], "id": "7870100020", "name": "USPS COLLECTION BOX - BLUE BOX", "address": {"city": "AUSTIN", "state": "TX", "street": "805 COLORADO ST", "postcode": "78701"}}},
{"geometry": {"type": "Point", "coordinates": [-97.748821968, 30.271659738]}, "type": "Feature", "properties": {"collection_times": [{"days": "Mon-Fri", "time": "4:30pm"}, {"days": "Sat-Sun", "time": "Closed"}], "id": "7870100028", "name": "USPS COLLECTION BOX - BLUE BOX", "address": {"city": "AUSTIN", "state": "TX", "street": "709 RIO GRANDE ST", "postcode": "78701"}}},
{"geometry": {"type": "Point", "coordinates": [-97.746459458, 30.271791442]}, "type": "Feature", "properties": {"collection_times": [{"days": "Mon-Fri", "time": "4:30pm"}, {"days": "Sat-Sun", "time": "Closed"}], "id": "7870100029", "name": "USPS COLLECTION BOX - BLUE BOX", "address": {"city": "AUSTIN", "state": "TX", "street": "812 SAN ANTONIO ST", "postcode": "78701"}}},
{"geometry": {"type": "Point", "coordinates": [-97.744869688, 30.27293132]}, "type": "Feature", "properties": {"collection_times": [{"days": "Mon-Fri", "time": "4:30pm"}, {"days": "Sat-Sun", "time": "Closed"}], "id": "7870100030", "name": "USPS COLLECTION BOX - BLUE BOX", "address": {"city": "AUSTIN", "state": "TX", "street": "1000 GUADALUPE ST", "postcode": "78701"}}},
{"geometry": {"type": "Point", "coordinates": [-97.745651752, 30.280179692]}, "type": "Feature", "properties": {"collection_times": [{"days": "Mon-Fri", "time": "4:45pm"}, {"days": "Sat-Sun", "time": "Closed"}], "id": "7870100043", "name": "USPS COLLECTION BOX - BLUE BOX", "address": {"city": "AUSTIN", "state": "TX", "street": "1601 RIO GRANDE ST", "postcode": "78701"}}},
{"geometry": {"type": "Point", "coordinates": [-97.746360018, 30.278799826]}, "type": "Feature", "properties": {"collection_times": [{"days": "Mon-Fri", "time": "2:00pm"}, {"days": "Sat-Sun", "time": "Closed"}], "id": "7870100044", "name": "USPS COLLECTION BOX - BLUE BOX", "address": {"city": "AUSTIN", "state": "TX", "street": "707 W 15TH ST", "postcode": "78701"}}},
{"geometry": {"type": "Point", "coordinates": [-97.743849857, 30.275711087]}, "type": "Feature", "properties": {"collection_times": [{"days": "Mon-Fri", "time": "5:00pm"}, {"days": "Sat-Sun", "time": "Closed"}], "id": "7870100046", "name": "USPS COLLECTION BOX - BLUE BOX", "address": {"city": "AUSTIN", "state": "TX", "street": "1212 GUADALUPE ST", "postcode": "78701"}}},
{"geometry": {"type": "Point", "coordinates": [-97.745682055, 30.276929056]}, "type": "Feature", "properties": {"collection_times": [{"days": "Mon-Fri", "time": "5:00pm"}, {"days": "Sat-Sun", "time": "Closed"}], "id": "7870100047", "name": "USPS COLLECTION BOX - BLUE BOX", "address": {"city": "AUSTIN", "state": "TX", "street": "1301 NUECES ST", "postcode": "78701"}}},
{"geometry": {"type": "Point", "coordinates": [-97.746669252, 30.277671492]}, "type": "Feature", "properties": {"collection_times": [{"days": "Mon-Fri", "time": "5:00pm"}, {"days": "Sat-Sun", "time": "Closed"}], "id": "7870100048", "name": "USPS COLLECTION BOX - BLUE BOX", "address": {"city": "AUSTIN", "state": "TX", "street": "1306 RIO GRANDE ST", "postcode": "78701"}}},
{"geometry": {"type": "Point", "coordinates": [-97.747010749, 30.276539771]}, "type": "Feature", "properties": {"collection_times": [{"days": "Mon-Fri", "time": "4:30pm"}, {"days": "Sat-Sun", "time": "Closed"}], "id": "7870100049", "name": "USPS COLLECTION BOX - BLUE BOX", "address": {"city": "AUSTIN", "state": "TX", "street": "1209 RIO GRANDE ST", "postcode": "78701"}}},
{"geometry": {"type": "Point", "coordinates": [-97.750581903, 30.275459334]}, "type": "Feature", "properties": {"collection_times": [{"days": "Mon-Fri", "time": "5:00pm"}, {"days": "Sat", "time": "2:00pm"}, {"days": "Sun", "time": "Closed"}], "id": "7870100052", "name": "USPS COLLECTION BOX - BLUE BOX", "address": {"city": "AUSTIN", "state": "TX", "street": "825 W 11TH ST", "postcode": "78701"}}},
{"geometry": {"type": "Point", "coordinates": [-97.748996795, 30.273874227]}, "type": "Feature", "properties": {"collection_times": [{"days": "Mon-Fri", "time": "4:30pm"}, {"days": "Sat-Sun", "time": "Closed"}], "id": "7870100053", "name": "USPS COLLECTION BOX - BLUE BOX", "address": {"city": "AUSTIN", "state": "TX", "street": "707 W 10TH ST", "postcode": "78701"}}},
{"geometry": {"type": "Point", "coordinates": [-97.744173872, 30.273607322]}, "type": "Feature", "properties": {"collection_times": [{"days": "Mon-Fri", "time": "4:30pm"}, {"days": "Sat-Sun", "time": "Closed"}], "id": "7870100054", "name": "USPS COLLECTION BOX - BLUE BOX", "address": {"city": "AUSTIN", "state": "TX", "street": "314 W 11TH ST", "postcode": "78701"}}},
{"geometry": {"type": "Point", "coordinates": [-97.744129912, 30.268550595]}, "type": "Feature", "properties": {"collection_times": [{"days": "Mon-Fri", "time": "5:00pm"}, {"days": "Sat-Sun", "time": "Closed"}], "id": "7870100092", "name": "USPS COLLECTION BOX - BLUE BOX", "address": {"city": "AUSTIN", "state": "TX", "street": "602 COLORADO ST", "postcode": "78701"}}},
{"geometry": {"type": "Point", "coordinates": [-97.7356224491, 30.2671270289]}, "type": "Feature", "properties": {"collection_times": [{"days": "Mon-Fri", "time": "4:30pm"}, {"days": "Sat-Sun", "time": "Closed"}], "id": "7870100096", "name": "USPS COLLECTION BOX - BLUE BOX", "address": {"city": "AUSTIN", "state": "TX", "street": "700 E 7TH ST", "postcode": "78701"}}},
{"geometry": {"type": "Point", "coordinates": [-97.738779844, 30.255800502]}, "type": "Feature", "properties": {"collection_times": [{"days": "Mon-Fri", "time": "12:15pm"}, {"days": "Sat-Sun", "time": "Closed"}], "id": "7870100104", "name": "USPS COLLECTION BOX - BLUE BOX", "address": {"city": "AUSTIN", "state": "TX", "street": "44 EAST AVE", "postcode": "78701"}}},
{"geometry": {"type": "Point", "coordinates": [-97.746469948, 30.26866202]}, "type": "Feature", "properties": {"collection_times": [{"days": "Mon-Fri", "time": "5:00pm"}, {"days": "Sat", "time": "12:00pm"}, {"days": "Sun", "time": "Closed"}], "id": "7870100123", "name": "USPS COLLECTION BOX - EXPRESS", "address": {"city": "AUSTIN", "state": "TX", "street": "510 GUADALUPE ST", "postcode": "78701"}}},
{"geometry": {"type": "Point", "coordinates": [-97.746469948, 30.26866202]}, "type": "Feature", "properties": {"collection_times": [{"days": "Mon-Fri", "time": "5:00pm"}, {"days": "Sat", "time": "12:00pm"}, {"days": "Sun", "time": "Closed"}], "id": "7870100124", "name": "USPS COLLECTION BOX - BLUE BOX", "address": {"city": "AUSTIN", "state": "TX", "street": "510 GUADALUPE ST", "postcode": "78701"}}},
{"geometry": {"type": "Point", "coordinates": [-97.7464699475, 30.2686620196]}, "type": "Feature", "properties": {"collection_times": [{"days": "Mon-Fri", "time": "5:00pm"}, {"days": "Sat", "time": "12:00pm"}, {"days": "Sun", "time": "Closed"}], "id": "7870100125", "name": "USPS COLLECTION BOX - BLUE BOX", "address": {"city": "AUSTIN", "state": "TX", "street": "510 GUADALUPE ST", "postcode": "78701"}}},
{"geometry": {"type": "Point", "coordinates": [-97.7464699475, 30.2686620196]}, "type": "Feature", "properties": {"collection_times": [{"days": "Mon-Fri", "time": "5:00pm"}, {"days": "Sat", "time": "12:00pm"}, {"days": "Sun", "time": "Closed"}], "id": "7870100126", "name": "USPS COLLECTION BOX - EXPRESS", "address": {"city": "AUSTIN", "state": "TX", "street": "510 GUADALUPE ST", "postcode": "78701"}}},
{"geometry": {"type": "Point", "coordinates": [-97.7464699475, 30.2686620196]}, "type": "Feature", "properties": {"collection_times": [{"days": "Mon-Fri", "time": "5:00pm"}, {"days": "Sat", "time": "12:00pm"}, {"days": "Sun", "time": "Closed"}], "id": "7870100127", "name": "USPS COLLECTION BOX - BLUE BOX", "address": {"city": "AUSTIN", "state": "TX", "street": "510 GUADALUPE ST", "postcode": "78701"}}},
{"geometry": {"type": "Point", "coordinates": [-97.7464699475, 30.2686620196]}, "type": "Feature", "properties": {"collection_times": [{"days": "Mon-Fri", "time": "5:00pm"}, {"days": "Sat", "time": "12:00pm"}, {"days": "Sun", "time": "Closed"}], "id": "7870100128", "name": "USPS COLLECTION BOX - BLUE BOX", "address": {"city": "AUSTIN", "state": "TX", "street": "510 GUADALUPE ST", "postcode": "78701"}}},
{"geometry": {"type": "Point", "coordinates": [-97.750048095, 30.271103784]}, "type": "Feature", "properties": {"collection_times": [{"days": "Mon-Fri", "time": "3:00pm"}, {"days": "Sat-Sun", "time": "Closed"}], "id": "7870100137", "name": "USPS COLLECTION BOX - BLUE BOX", "address": {"city": "AUSTIN", "state": "TX", "street": "711 W 7TH ST", "postcode": "78701"}}},
{"geometry": {"type": "Point", "coordinates": [-97.741811362, 30.270659721]}, "type": "Feature", "properties": {"collection_times": [{"days": "Mon-Fri", "time": "5:00pm"}, {"days": "Sat", "time": "12:00pm"}, {"days": "Sun", "time": "Closed"}], "id": "7870100179", "name": "USPS COLLECTION BOX - BLUE BOX", "address": {"city": "AUSTIN", "state": "TX", "street": "823 CONGRESS AVE", "postcode": "78701"}}},
{"geometry": {"type": "Point", "coordinates": [-97.741811362, 30.270659721]}, "type": "Feature", "properties": {"collection_times": [{"days": "Mon-Fri", "time": "6:00pm"}, {"days": "Sat", "time": "12:00pm"}, {"days": "Sun", "time": "Closed"}], "id": "7870100180", "name": "USPS COLLECTION BOX - PO LOBBY", "address": {"city": "AUSTIN", "state": "TX", "street": "823 CONGRESS AVE STE 150", "postcode": "78701"}}},
{"geometry": {"type": "Point", "coordinates": [-97.7382681808, 30.2785339767]}, "type": "Feature", "properties": {"collection_times": [{"days": "Mon-Fri", "time": "4:00pm"}, {"days": "Sat", "time": "12:00pm"}, {"days": "Sun", "time": "Closed"}], "id": "7870100184", "name": "USPS COLLECTION BOX - PO LOBBY", "address": {"city": "AUSTIN", "state": "TX", "street": "111 E 17TH ST", "postcode": "78701"}}},
{"geometry": {"type": "Point", "coordinates": [-97.738268181, 30.278533977]}, "type": "Feature", "properties": {"collection_times": [{"days": "Mon-Fri", "time": "4:00pm"}, {"days": "Sat", "time": "12:00pm"}, {"days": "Sun", "time": "Closed"}], "id": "7870100185", "name": "USPS COLLECTION BOX - PO LOBBY", "address": {"city": "AUSTIN", "state": "TX", "street": "111 E 17TH ST", "postcode": "78701"}}},
{"geometry": {"type": "Point", "coordinates": [-97.7393915699, 30.2771564446]}, "type": "Feature", "properties": {"collection_times": [{"days": "Mon-Fri", "time": "3:00pm"}, {"days": "Sat-Sun", "time": "Closed"}], "id": "7870100187", "name": "USPS COLLECTION BOX - BLUE BOX", "address": {"city": "AUSTIN", "state": "TX", "street": "1501 CONGRESS AVE", "postcode": "78701"}}},
{"geometry": {"type": "Point", "coordinates": [-97.73939157, 30.277156445]}, "type": "Feature", "properties": {"collection_times": [{"days": "Mon-Fri", "time": "3:00pm"}, {"days": "Sat-Sun", "time": "Closed"}], "id": "7870100188", "name": "USPS COLLECTION BOX - BLUE BOX", "address": {"city": "AUSTIN", "state": "TX", "street": "1501 CONGRESS AVE", "postcode": "78701"}}},
{"geometry": {"type": "Point", "coordinates": [-97.741242589, 30.261868201]}, "type": "Feature", "properties": {"collection_times": [{"days": "Mon-Fri", "time": "12:00pm"}, {"days": "Sat-Sun", "time": "Closed"}], "id": "7870100189", "name": "USPS COLLECTION BOX - BLUE BOX", "address": {"city": "AUSTIN", "state": "TX", "street": "85 TRINITY ST", "postcode": "78701"}}},
{"geometry": {"type": "Point", "coordinates": [-97.733357843, 30.275163292]}, "type": "Feature", "properties": {"collection_times": [{"days": "Mon-Fri", "time": "1:15pm"}, {"days": "Sat", "time": "3:30pm"}, {"days": "Sun", "time": "Closed"}], "id": "7870100191", "name": "USPS COLLECTION BOX - BLUE BOX", "address": {"city": "AUSTIN", "state": "TX", "street": "601 E 15TH ST", "postcode": "78701"}}},
{"geometry": {"type": "Point", "coordinates": [-97.738799658, 30.278901116]}, "type": "Feature", "properties": {"collection_times": [{"days": "Mon-Fri", "time": "2:00pm"}, {"days": "Sat-Sun", "time": "Closed"}], "id": "7870100192", "name": "USPS COLLECTION BOX - BLUE BOX", "address": {"city": "AUSTIN", "state": "TX", "street": "1700 CONGRESS AVE", "postcode": "78701"}}},
{"geometry": {"type": "Point", "coordinates": [-97.7418113622, 30.2706597215]}, "type": "Feature", "properties": {"collection_times": [{"days": "Mon-Fri", "time": "6:00pm"}, {"days": "Sat", "time": "12:00pm"}, {"days": "Sun", "time": "Closed"}], "id": "7870100193", "name": "USPS COLLECTION BOX - APC", "address": {"city": "AUSTIN", "state": "TX", "street": "823 CONGRESS AVE STE 150", "postcode": "78701"}}},
{"geometry": {"type": "Point", "coordinates": [-97.742102743, 30.277747251]}, "type": "Feature", "properties": {"collection_times": [{"days": "Mon-Fri", "time": "4:45pm"}, {"days": "Sat-Sun", "time": "Closed"}], "id": "7870100194", "name": "USPS COLLECTION BOX - BLUE BOX", "address": {"city": "AUSTIN", "state": "TX", "street": "300 W 15TH ST", "postcode": "78701"}}},
{"geometry": {"type": "Point", "coordinates": [-97.7360456711, 30.2557526808]}, "type": "Feature", "properties": {"collection_times": [{"days": "Mon-Fri", "time": "12:15pm"}, {"days": "Sat-Sun", "time": "Closed"}], "id": "7870200004", "name": "USPS COLLECTION BOX - BLUE BOX", "address": {"city": "AUSTIN", "state": "TX", "street": "55 N IH 35", "postcode": "78702"}}},
{"geometry": {"type": "Point", "coordinates": [-97.7144558145, 30.263187452]}, "type": "Feature", "properties": {"collection_times": [{"days": "Mon-Fri", "time": "12:15pm"}, {"days": "Sat", "time": "3:30pm"}, {"days": "Sun", "time": "Closed"}], "id": "7870200015", "name": "USPS COLLECTION BOX - BLUE BOX", "address": {"city": "AUSTIN", "state": "TX", "street": "1107 N I H 35", "postcode": "78702"}}},
{"geometry": {"type": "Point", "coordinates": [-97.6975226124, 30.2722809834]}, "type": "Feature", "properties": {"collection_times": [{"days": "Mon-Fri", "time": "12:15pm"}, {"days": "Sat", "time": "4:00pm"}, {"days": "Sun", "time": "Closed"}], "id": "7870200020", "name": "USPS COLLECTION BOX - BLUE BOX", "address": {"city": "AUSTIN", "state": "TX", "street": "1144 AIRPORT BLVD", "postcode": "78702"}}},
{"geometry": {"type": "Point", "coordinates": [-97.7216505054, 30.2613662372]}, "type": "Feature", "properties": {"collection_times": [{"days": "Mon-Sat", "time": "4:00pm"}, {"days": "Sun", "time": "Closed"}], "id": "7870200022", "name": "USPS COLLECTION BOX - BLUE BOX", "address": {"city": "AUSTIN", "state": "TX", "street": "1914 E 6TH ST", "postcode": "78702"}}},
{"geometry": {"type": "Point", "coordinates": [-97.7216505054, 30.2613662372]}, "type": "Feature", "properties": {"collection_times": [{"days": "Mon-Fri", "time": "4:00pm"}, {"days": "Sat-Sun", "time": "Closed"}], "id": "7870200035", "name": "USPS COLLECTION BOX - PO LOBBY", "address": {"city": "AUSTIN", "state": "TX", "street": "1914 E 6TH ST", "postcode": "78702"}}},
{"geometry": {"type": "Point", "coordinates": [-97.766725526, 30.297287199]}, "type": "Feature", "properties": {"collection_times": [{"days": "Mon-Fri", "time": "12:00pm"}, {"days": "Sat", "time": "2:15pm"}, {"days": "Sun", "time": "Closed"}], "id": "7870300001", "name": "USPS COLLECTION BOX - BLUE BOX", "address": {"city": "AUSTIN", "state": "TX", "street": "2418 SPRING LN", "postcode": "78703"}}},
{"geometry": {"type": "Point", "coordinates": [-97.760900548, 30.282765705]}, "type": "Feature", "properties": {"collection_times": [{"days": "Mon-Fri", "time": "2:15pm"}, {"days": "Sat", "time": "2:00pm"}, {"days": "Sun", "time": "Closed"}], "id": "7870300004", "name": "USPS COLLECTION BOX - BLUE BOX", "address": {"city": "AUSTIN", "state": "TX", "street": "1400 WOODLAWN BLVD", "postcode": "78703"}}},
{"geometry": {"type": "Point", "coordinates": [-97.775941331, 30.282819527]}, "type": "Feature", "properties": {"collection_times": [{"days": "Mon-Fri", "time": "2:30pm"}, {"days": "Sat", "time": "2:15pm"}, {"days": "Sun", "time": "Closed"}], "id": "7870300006", "name": "USPS COLLECTION BOX - BLUE BOX", "address": {"city": "AUSTIN", "state": "TX", "street": "710 NEWMAN DR", "postcode": "78703"}}},
{"geometry": {"type": "Point", "coordinates": [-97.772697652, 30.278147024]}, "type": "Feature", "properties": {"collection_times": [{"days": "Mon-Fri", "time": "2:30pm"}, {"days": "Sat", "time": "3:00pm"}, {"days": "Sun", "time": "Closed"}], "id": "7870300007", "name": "USPS COLLECTION BOX - BLUE BOX", "address": {"city": "AUSTIN", "state": "TX", "street": "2407 LAKE AUSTIN BLVD", "postcode": "78703"}}},
{"geometry": {"type": "Point", "coordinates": [-97.766725526, 30.297287199]}, "type": "Feature", "properties": {"collection_times": [{"days": "Mon-Fri", "time": "5:00pm"}, {"days": "Sat", "time": "1:15pm"}, {"days": "Sun", "time": "Closed"}], "id": "7870300008", "name": "USPS COLLECTION BOX - PO LOBBY", "address": {"city": "AUSTIN", "state": "TX", "street": "2418 SPRING LN", "postcode": "78703"}}},
{"geometry": {"type": "Point", "coordinates": [-97.756940983, 30.272677237]}, "type": "Feature", "properties": {"collection_times": [{"days": "Mon-Fri", "time": "2:45pm"}, {"days": "Sat", "time": "3:00pm"}, {"days": "Sun", "time": "Closed"}], "id": "7870300010", "name": "USPS COLLECTION BOX - BLUE BOX", "address": {"city": "AUSTIN", "state": "TX", "street": "1130 W 6TH ST", "postcode": "78703"}}},
{"geometry": {"type": "Point", "coordinates": [-97.7591554713, 30.2800829537]}, "type": "Feature", "properties": {"collection_times": [{"days": "Mon-Fri", "time": "2:15pm"}, {"days": "Sat", "time": "3:15pm"}, {"days": "Sun", "time": "Closed"}], "id": "7870300012", "name": "USPS COLLECTION BOX - BLUE BOX", "address": {"city": "AUSTIN", "state": "TX", "street": "1115 W LYNN ST", "postcode": "78703"}}},
{"geometry": {"type": "Point", "coordinates": [-97.7521285484, 30.2754138786]}, "type": "Feature", "properties": {"collection_times": [{"days": "Mon-Fri", "time": "2:45pm"}, {"days": "Sat", "time": "3:00pm"}, {"days": "Sun", "time": "Closed"}], "id": "7870300014", "name": "USPS COLLECTION BOX - BLUE BOX", "address": {"city": "AUSTIN", "state": "TX", "street": "1010 N LAMAR BLVD", "postcode": "78703"}}},
{"geometry": {"type": "Point", "coordinates": [-97.761890947, 30.27314461]}, "type": "Feature", "properties": {"collection_times": [{"days": "Mon-Fri", "time": "2:30pm"}, {"days": "Sat", "time": "3:00pm"}, {"days": "Sun", "time": "Closed"}], "id": "7870300016", "name": "USPS COLLECTION BOX - BLUE BOX", "address": {"city": "AUSTIN", "state": "TX", "street": "1501 W 5TH ST", "postcode": "78703"}}},
{"geometry": {"type": "Point", "coordinates": [-97.765122935, 30.276194777]}, "type": "Feature", "properties": {"collection_times": [{"days": "Mon-Fri", "time": "2:15pm"}, {"days": "Sat-Sun", "time": "Closed"}], "id": "7870300020", "name": "USPS COLLECTION BOX - BLUE BOX", "address": {"city": "AUSTIN", "state": "TX", "street": "1717 W 6TH ST", "postcode": "78703"}}},
{"geometry": {"type": "Point", "coordinates": [-97.753963078, 30.296945702]}, "type": "Feature", "properties": {"collection_times": [{"days": "Mon-Sat", "time": "11:00am"}, {"days": "Sun", "time": "Closed"}], "id": "7870300021", "name": "USPS COLLECTION BOX - BLUE BOX", "address": {"city": "AUSTIN", "state": "TX", "street": "1425 PRESTON AVE", "postcode": "78703"}}},
{"geometry": {"type": "Point", "coordinates": [-97.753792912, 30.271926641]}, "type": "Feature", "properties": {"collection_times": [{"days": "Mon-Fri", "time": "2:45pm"}, {"days": "Sat", "time": "3:00pm"}, {"days": "Sun", "time": "Closed"}], "id": "7870300023", "name": "USPS COLLECTION BOX - BLUE BOX", "address": {"city": "AUSTIN", "state": "TX", "street": "601 N LAMAR BLVD", "postcode": "78703"}}},
{"geometry": {"type": "Point", "coordinates": [-97.766725526, 30.297287199]}, "type": "Feature", "properties": {"collection_times": [{"days": "Mon-Fri", "time": "5:00pm"}, {"days": "Sat", "time": "1:15pm"}, {"days": "Sun", "time": "Closed"}], "id": "7870300025", "name": "USPS COLLECTION BOX - APC", "address": {"city": "AUSTIN", "state": "TX", "street": "2418 SPRING LN", "postcode": "78703"}}},
{"geometry": {"type": "Point", "coordinates": [-97.767208051, 30.224487631]}, "type": "Feature", "properties": {"collection_times": [{"days": "Mon-Fri", "time": "12:00pm"}, {"days": "Sat-Sun", "time": "Closed"}], "id": "7870400004", "name": "USPS COLLECTION BOX - BLUE BOX", "address": {"city": "AUSTIN", "state": "TX", "street": "321 W BEN WHITE BLVD", "postcode": "78704"}}},
{"geometry": {"type": "Point", "coordinates": [-97.769108337, 30.241028093]}, "type": "Feature", "properties": {"collection_times": [{"days": "Mon-Fri", "time": "12:45pm"}, {"days": "Sat", "time": "12:00pm"}, {"days": "Sun", "time": "Closed"}], "id": "7870400010", "name": "USPS COLLECTION BOX - BLUE BOX", "address": {"city": "AUSTIN", "state": "TX", "street": "2520 S IH 35", "postcode": "78704"}}},
{"geometry": {"type": "Point", "coordinates": [-97.7691083368, 30.2410280934]}, "type": "Feature", "properties": {"collection_times": [{"days": "Mon-Fri", "time": "12:30pm"}, {"days": "Sat-Sun", "time": "Closed"}], "id": "7870400011", "name": "USPS COLLECTION BOX - BLUE BOX", "address": {"city": "AUSTIN", "state": "TX", "street": "2100 S IH 35", "postcode": "78704"}}},
{"geometry": {"type": "Point", "coordinates": [-97.7691083368, 30.2410280934]}, "type": "Feature", "properties": {"collection_times": [{"days": "Mon-Fri", "time": "12:30pm"}, {"days": "Sat-Sun", "time": "Closed"}], "id": "7870400012", "name": "USPS COLLECTION BOX - BLUE BOX", "address": {"city": "AUSTIN", "state": "TX", "street": "1524 S IH 35", "postcode": "78704"}}},
{"geometry": {"type": "Point", "coordinates": [-97.742105074, 30.252394851]}, "type": "Feature", "properties": {"collection_times": [{"days": "Mon-Fri", "time": "12:15pm"}, {"days": "Sat-Sun", "time": "Closed"}], "id": "7870400015", "name": "USPS COLLECTION BOX - BLUE BOX", "address": {"city": "AUSTIN", "state": "TX", "street": "512 E RIVERSIDE DR", "postcode": "78704"}}},
{"geometry": {"type": "Point", "coordinates": [-97.769108337, 30.241028093]}, "type": "Feature", "properties": {"collection_times": [{"days": "Mon-Fri", "time": "12:45pm"}, {"days": "Sat-Sun", "time": "Closed"}], "id": "7870400033", "name": "USPS COLLECTION BOX - BLUE BOX", "address": {"city": "AUSTIN", "state": "TX", "street": "2900 S IH 35", "postcode": "78704"}}},
{"geometry": {"type": "Point", "coordinates": [-97.793234122, 30.236075235]}, "type": "Feature", "properties": {"collection_times": [{"days": "Mon-Fri", "time": "12:30pm"}, {"days": "Sat", "time": "2:30pm"}, {"days": "Sun", "time": "Closed"}], "id": "7870400037", "name": "USPS COLLECTION BOX - BLUE BOX", "address": {"city": "AUSTIN", "state": "TX", "street": "4032 S LAMAR BLVD", "postcode": "78704"}}},
{"geometry": {"type": "Point", "coordinates": [-97.775072983, 30.261558172]}, "type": "Feature", "properties": {"collection_times": [{"days": "Mon-Sat", "time": "1:00pm"}, {"days": "Sun", "time": "Closed"}], "id": "7870400040", "name": "USPS COLLECTION BOX - BLUE BOX", "address": {"city": "AUSTIN", "state": "TX", "street": "1220 BARTON HILLS DR", "postcode": "78704"}}},
{"geometry": {"type": "Point", "coordinates": [-97.794156048, 30.235085708]}, "type": "Feature", "properties": {"collection_times": [{"days": "Mon-Fri", "time": "12:00pm"}, {"days": "Sat", "time": "2:00pm"}, {"days": "Sun", "time": "Closed"}], "id": "7870400047", "name": "USPS COLLECTION BOX - BLUE BOX", "address": {"city": "AUSTIN", "state": "TX", "street": "4211 S LAMAR BLVD", "postcode": "78704"}}},
{"geometry": {"type": "Point", "coordinates": [-97.762716136, 30.254086021]}, "type": "Feature", "properties": {"collection_times": [{"days": "Mon-Fri", "time": "12:15pm"}, {"days": "Sat-Sun", "time": "Closed"}], "id": "7870400048", "name": "USPS COLLECTION BOX - BLUE BOX", "address": {"city": "AUSTIN", "state": "TX", "street": "1224 S LAMAR BLVD", "postcode": "78704"}}},
{"geometry": {"type": "Point", "coordinates": [-97.7823310032, 30.2437134825]}, "type": "Feature", "properties": {"collection_times": [{"days": "Mon-Fri", "time": "12:30pm"}, {"days": "Sat", "time": "2:30pm"}, {"days": "Sun", "time": "Closed"}], "id": "7870400052", "name": "USPS COLLECTION BOX - BLUE BOX", "address": {"city": "AUSTIN", "state": "TX", "street": "2200 BARTON SKWY", "postcode": "78704"}}},
{"geometry": {"type": "Point", "coordinates": [-97.771333993, 30.228485367]}, "type": "Feature", "properties": {"collection_times": [{"days": "Mon-Fri", "time": "5:00pm"}, {"days": "Sat", "time": "2:00pm"}, {"days": "Sun", "time": "Closed"}], "id": "7870400054", "name": "USPS COLLECTION BOX - BLUE BOX", "address": {"city": "AUSTIN", "state": "TX", "street": "3809 S 2ND ST", "postcode": "78704"}}},
{"geometry": {"type": "Point", "coordinates": [-97.7997213384, 30.2398133197]}, "type": "Feature", "properties": {"collection_times": [{"days": "Mon-Fri", "time": "12:45pm"}, {"days": "Sat-Sun", "time": "Closed"}], "id": "7870400056", "name": "USPS COLLECTION BOX - BLUE BOX", "address": {"city": "AUSTIN", "state": "TX", "street": "4029 S CAPITAL OF TEXAS HWY", "postcode": "78704"}}},
{"geometry": {"type": "Point", "coordinates": [-97.769108337, 30.241028093]}, "type": "Feature", "properties": {"collection_times": [{"days": "Mon-Fri", "time": "12:30pm"}, {"days": "Sat-Sun", "time": "Closed"}], "id": "7870400065", "name": "USPS COLLECTION BOX - BLUE BOX", "address": {"city": "AUSTIN", "state": "TX", "street": "1124 S IH 35", "postcode": "78704"}}},
{"geometry": {"type": "Point", "coordinates": [-97.747686751, 30.258887966]}, "type": "Feature", "properties": {"collection_times": [{"days": "Mon-Fri", "time": "12:30pm"}, {"days": "Sat-Sun", "time": "Closed"}], "id": "7870400069", "name": "USPS COLLECTION BOX - BLUE BOX", "address": {"city": "AUSTIN", "state": "TX", "street": "300 BARTON SPRINGS RD", "postcode": "78704"}}},
{"geometry": {"type": "Point", "coordinates": [-97.76299353, 30.224456162]}, "type": "Feature", "properties": {"collection_times": [{"days": "Mon-Sat", "time": "5:00pm"}, {"days": "Sun", "time": "Closed"}], "id": "7870400072", "name": "USPS COLLECTION BOX - BLUE BOX", "address": {"city": "AUSTIN", "state": "TX", "street": "3903 S CONGRESS AVE", "postcode": "78704"}}},
{"geometry": {"type": "Point", "coordinates": [-97.76299353, 30.224456162]}, "type": "Feature", "properties": {"collection_times": [{"days": "Mon-Sat", "time": "5:00pm"}, {"days": "Sun", "time": "Closed"}], "id": "7870400073", "name": "USPS COLLECTION BOX - BLUE BOX", "address": {"city": "AUSTIN", "state": "TX", "street": "3903 S CONGRESS AVE", "postcode": "78704"}}},
{"geometry": {"type": "Point", "coordinates": [-97.76299353, 30.224456162]}, "type": "Feature", "properties": {"collection_times": [{"days": "Mon-Sat", "time": "5:00pm"}, {"days": "Sun", "time": "Closed"}], "id": "7870400075", "name": "USPS COLLECTION BOX - PO LOBBY", "address": {"city": "AUSTIN", "state": "TX", "street": "3903 S CONGRESS AVE", "postcode": "78704"}}},
{"geometry": {"type": "Point", "coordinates": [-97.76299353, 30.224456162]}, "type": "Feature", "properties": {"collection_times": [{"days": "Mon-Sat", "time": "5:00pm"}, {"days": "Sun", "time": "Closed"}], "id": "7870400076", "name": "USPS COLLECTION BOX - PO LOBBY", "address": {"city": "AUSTIN", "state": "TX", "street": "3903 S CONGRESS AVE", "postcode": "78704"}}},
{"geometry": {"type": "Point", "coordinates": [-97.76299353, 30.224456162]}, "type": "Feature", "properties": {"collection_times": [{"days": "Mon-Sat", "time": "5:00pm"}, {"days": "Sun", "time": "Closed"}], "id": "7870400077", "name": "USPS COLLECTION BOX - APC", "address": {"city": "AUSTIN", "state": "TX", "street": "3903 S CONGRESS AVE", "postcode": "78704"}}},
{"geometry": {"type": "Point", "coordinates": [-97.7540831268, 30.2382197921]}, "type": "Feature", "properties": {"collection_times": [{"days": "Mon-Fri", "time": "12:00pm"}, {"days": "Sat", "time": "2:00pm"}, {"days": "Sun", "time": "Closed"}], "id": "7870400078", "name": "USPS COLLECTION BOX - BLUE BOX", "address": {"city": "AUSTIN", "state": "TX", "street": "2400 S CONGRESS AVE", "postcode": "78704"}}},
{"geometry": {"type": "Point", "coordinates": [-97.769108337, 30.241028093]}, "type": "Feature", "properties": {"collection_times": [{"days": "Mon-Fri", "time": "12:30pm"}, {"days": "Sat-Sun", "time": "Closed"}], "id": "7870400079", "name": "USPS COLLECTION BOX - BLUE BOX", "address": {"city": "AUSTIN", "state": "TX", "street": "4000 S IH 35", "postcode": "78704"}}},
{"geometry": {"type": "Point", "coordinates": [-97.774260615, 30.227273225]}, "type": "Feature", "properties": {"collection_times": [{"days": "Mon-Sat", "time": "12:00pm"}, {"days": "Sun", "time": "Closed"}], "id": "7870400080", "name": "USPS COLLECTION BOX - BLUE BOX", "address": {"city": "AUSTIN", "state": "TX", "street": "901 W BEN WHITE BLVD", "postcode": "78704"}}},
{"geometry": {"type": "Point", "coordinates": [-97.7419707292, 30.2849631309]}, "type": "Feature", "properties": {"collection_times": [{"days": "Mon-Fri", "time": "12:30pm"}, {"days": "Sat-Sun", "time": "Closed"}], "id": "7870500004", "name": "USPS COLLECTION BOX - BLUE BOX", "address": {"city": "AUSTIN", "state": "TX", "street": "407 W 22ND ST", "postcode": "78705"}}},
{"geometry": {"type": "Point", "coordinates": [-97.741900135, 30.2877197809]}, "type": "Feature", "properties": {"collection_times": [{"days": "Mon-Fri", "time": "12:30pm"}, {"days": "Sat", "time": "1:45pm"}, {"days": "Sun", "time": "Closed"}], "id": "7870500006", "name": "USPS COLLECTION BOX - BLUE BOX", "address": {"city": "AUSTIN", "state": "TX", "street": "407 W 24TH ST", "postcode": "78705"}}},
{"geometry": {"type": "Point", "coordinates": [-97.7401860252, 30.2898973079]}, "type": "Feature", "properties": {"collection_times": [{"days": "Mon-Fri", "time": "1:00pm"}, {"days": "Sat", "time": "2:00pm"}, {"days": "Sun", "time": "Closed"}], "id": "7870500007", "name": "USPS COLLECTION BOX - BLUE BOX", "address": {"city": "AUSTIN", "state": "TX", "street": "2605 WHITIS AVE", "postcode": "78705"}}},
{"geometry": {"type": "Point", "coordinates": [-97.7241391891, 30.2896338085]}, "type": "Feature", "properties": {"collection_times": [{"days": "Mon-Sat", "time": "1:15pm"}, {"days": "Sun", "time": "Closed"}], "id": "7870500015", "name": "USPS COLLECTION BOX - BLUE BOX", "address": {"city": "AUSTIN", "state": "TX", "street": "1015 E 32ND ST", "postcode": "78705"}}},
{"geometry": {"type": "Point", "coordinates": [-97.7506280063, 30.2906606169]}, "type": "Feature", "properties": {"collection_times": [{"days": "Mon-Fri", "time": "12:15pm"}, {"days": "Sat-Sun", "time": "Closed"}], "id": "7870500020", "name": "USPS COLLECTION BOX - BLUE BOX", "address": {"city": "AUSTIN", "state": "TX", "street": "2520 LONGVIEW ST", "postcode": "78705"}}},
{"geometry": {"type": "Point", "coordinates": [-97.7469087833, 30.3037536067]}, "type": "Feature", "properties": {"collection_times": [{"days": "Mon-Fri", "time": "2:15pm"}, {"days": "Sat-Sun", "time": "Closed"}], "id": "7870500023", "name": "USPS COLLECTION BOX - BLUE BOX", "address": {"city": "AUSTIN", "state": "TX", "street": "1207 W 34TH ST", "postcode": "78705"}}},
{"geometry": {"type": "Point", "coordinates": [-97.7457684108, 30.3064069836]}, "type": "Feature", "properties": {"collection_times": [{"days": "Mon-Fri", "time": "2:15pm"}, {"days": "Sat-Sun", "time": "Closed"}], "id": "7870500026", "name": "USPS COLLECTION BOX - BLUE BOX", "address": {"city": "AUSTIN", "state": "TX", "street": "1301 W 38TH ST", "postcode": "78705"}}},
{"geometry": {"type": "Point", "coordinates": [-97.7515897519, 30.2897296282]}, "type": "Feature", "properties": {"collection_times": [{"days": "Mon-Fri", "time": "12:15pm"}, {"days": "Sat-Sun", "time": "Closed"}], "id": "7870500028", "name": "USPS COLLECTION BOX - BLUE BOX", "address": {"city": "AUSTIN", "state": "TX", "street": "1301 W 25TH ST", "postcode": "78705"}}},
{"geometry": {"type": "Point", "coordinates": [-97.7427057301, 30.2933187257]}, "type": "Feature", "properties": {"collection_times": [{"days": "Mon-Fri", "time": "12:15pm"}, {"days": "Sat", "time": "2:00pm"}, {"days": "Sun", "time": "Closed"}], "id": "7870500030", "name": "USPS COLLECTION BOX - BLUE BOX", "address": {"city": "AUSTIN", "state": "TX", "street": "600 W 28TH ST", "postcode": "78705"}}},
{"geometry": {"type": "Point", "coordinates": [-97.7302177206, 30.2889737566]}, "type": "Feature", "properties": {"collection_times": [{"days": "Mon-Fri", "time": "1:00pm"}, {"days": "Sat-Sun", "time": "Closed"}], "id": "7870500038", "name": "USPS COLLECTION BOX - BLUE BOX", "address": {"city": "AUSTIN", "state": "TX", "street": "727 E DEAN KEETON ST", "postcode": "78705"}}},
{"geometry": {"type": "Point", "coordinates": [-97.7288507634, 30.2885759695]}, "type": "Feature", "properties": {"collection_times": [{"days": "Mon-Fri", "time": "1:00pm"}, {"days": "Sat", "time": "1:30pm"}, {"days": "Sun", "time": "Closed"}], "id": "7870500039", "name": "USPS COLLECTION BOX - BLUE BOX", "address": {"city": "AUSTIN", "state": "TX", "street": "2905 MEDICAL ARTS ST", "postcode": "78705"}}},
{"geometry": {"type": "Point", "coordinates": [-97.7241391891, 30.2896338085]}, "type": "Feature", "properties": {"collection_times": [{"days": "Mon-Sat", "time": "1:15pm"}, {"days": "Sun", "time": "Closed"}], "id": "7870500041", "name": "USPS COLLECTION BOX - BLUE BOX", "address": {"city": "AUSTIN", "state": "TX", "street": "1015 E 32ND ST", "postcode": "78705"}}},
{"geometry": {"type": "Point", "coordinates": [-97.7447297729, 30.305936166]}, "type": "Feature", "properties": {"collection_times": [{"days": "Mon-Fri", "time": "2:15pm"}, {"days": "Sat-Sun", "time": "Closed"}], "id": "7870500043", "name": "USPS COLLECTION BOX - BLUE BOX", "address": {"city": "AUSTIN", "state": "TX", "street": "1201 W 38TH ST", "postcode": "78705"}}},
{"geometry": {"type": "Point", "coordinates": [-97.7390978234, 30.2836154259]}, "type": "Feature", "properties": {"collection_times": [{"days": "Mon-Fri", "time": "12:45pm"}, {"days": "Sat", "time": "2:00pm"}, {"days": "Sun", "time": "Closed"}], "id": "7870500044", "name": "USPS COLLECTION BOX - BLUE BOX", "address": {"city": "AUSTIN", "state": "TX", "street": "100 W 21ST ST", "postcode": "78705"}}},
{"geometry": {"type": "Point", "coordinates": [-97.7409136298, 30.2828498564]}, "type": "Feature", "properties": {"collection_times": [{"days": "Mon-Fri", "time": "12:30pm"}, {"days": "Sat", "time": "2:00pm"}, {"days": "Sun", "time": "Closed"}], "id": "7870500048", "name": "USPS COLLECTION BOX - BLUE BOX", "address": {"city": "AUSTIN", "state": "TX", "street": "2020 WHITIS AVE", "postcode": "78705"}}},
{"geometry": {"type": "Point", "coordinates": [-97.7261691467, 30.2888506896]}, "type": "Feature", "properties": {"collection_times": [{"days": "Mon-Fri", "time": "1:00pm"}, {"days": "Sat", "time": "1:30pm"}, {"days": "Sun", "time": "Closed"}], "id": "7870500053", "name": "USPS COLLECTION BOX - BLUE BOX", "address": {"city": "AUSTIN", "state": "TX", "street": "900 E 30TH ST", "postcode": "78705"}}},
{"geometry": {"type": "Point", "coordinates": [-97.736897899, 30.288793338]}, "type": "Feature", "properties": {"collection_times": [{"days": "Mon-Fri", "time": "12:45pm"}, {"days": "Sat", "time": "2:00pm"}, {"days": "Sun", "time": "Closed"}], "id": "7870500059", "name": "USPS COLLECTION BOX - BLUE BOX", "address": {"city": "AUSTIN", "state": "TX", "street": "2500 SPEEDWAY", "postcode": "78705"}}},
{"geometry": {"type": "Point", "coordinates": [-97.7336792227, 30.2851316743]}, "type": "Feature", "properties": {"collection_times": [{"days": "Mon-Fri", "time": "12:45pm"}, {"days": "Sat-Sun", "time": "Closed"}], "id": "7870500060", "name": "USPS COLLECTION BOX - BLUE BOX", "address": {"city": "AUSTIN", "state": "TX", "street": "2301 SAN JACINTO BLVD", "postcode": "78705"}}},
{"geometry": {"type": "Point", "coordinates": [-97.740287284, 30.2927433084]}, "type": "Feature", "properties": {"collection_times": [{"days": "Mon-Fri", "time": "5:00pm"}, {"days": "Sat", "time": "4:30pm"}, {"days": "Sun", "time": "Closed"}], "id": "7870500062", "name": "USPS COLLECTION BOX - EXPRESS", "address": {"city": "AUSTIN", "state": "TX", "street": "3507 N LAMAR BLVD", "postcode": "78705"}}},
{"geometry": {"type": "Point", "coordinates": [-97.7439135312, 30.3039215869]}, "type": "Feature", "properties": {"collection_times": [{"days": "Mon-Fri", "time": "5:00pm"}, {"days": "Sat", "time": "4:30pm"}, {"days": "Sun", "time": "Closed"}], "id": "7870500063", "name": "USPS COLLECTION BOX - BLUE BOX", "address": {"city": "AUSTIN", "state": "TX", "street": "3507 N LAMAR BLVD", "postcode": "78705"}}},
{"geometry": {"type": "Point", "coordinates": [-97.7439135312, 30.3039215869]}, "type": "Feature", "properties": {"collection_times": [{"days": "Mon-Fri", "time": "5:00pm"}, {"days": "Sat", "time": "4:30pm"}, {"days": "Sun", "time": "Closed"}], "id": "7870500064", "name": "USPS COLLECTION BOX - BLUE BOX", "address": {"city": "AUSTIN", "state": "TX", "street": "3507 N LAMAR BLVD", "postcode": "78705"}}},
{"geometry": {"type": "Point", "coordinates": [-97.7439135312, 30.3039215869]}, "type": "Feature", "properties": {"collection_times": [{"days": "Mon-Fri", "time": "5:00pm"}, {"days": "Sat", "time": "4:30pm"}, {"days": "Sun", "time": "Closed"}], "id": "7870500065", "name": "USPS COLLECTION BOX - PO LOBBY", "address": {"city": "AUSTIN", "state": "TX", "street": "3507 N LAMAR BLVD", "postcode": "78705"}}},
{"geometry": {"type": "Point", "coordinates": [-97.7439135312, 30.3039215869]}, "type": "Feature", "properties": {"collection_times": [{"days": "Mon-Fri", "time": "5:00pm"}, {"days": "Sat", "time": "4:30pm"}, {"days": "Sun", "time": "Closed"}], "id": "7870500066", "name": "USPS COLLECTION BOX - PO LOBBY", "address": {"city": "AUSTIN", "state": "TX", "street": "3507 N LAMAR BLVD", "postcode": "78705"}}},
{"geometry": {"type": "Point", "coordinates": [-97.7462676195, 30.2880427287]}, "type": "Feature", "properties": {"collection_times": [{"days": "Mon-Fri", "time": "12:15pm"}, {"days": "Sat-Sun", "time": "Closed"}], "id": "7870500067", "name": "USPS COLLECTION BOX - BLUE BOX", "address": {"city": "AUSTIN", "state": "TX", "street": "801 W 24TH ST", "postcode": "78705"}}},
{"geometry": {"type": "Point", "coordinates": [-97.744322835, 30.3051364857]}, "type": "Feature", "properties": {"collection_times": [{"days": "Mon-Fri", "time": "2:15pm"}, {"days": "Sat-Sun", "time": "Closed"}], "id": "7870500068", "name": "USPS COLLECTION BOX - BLUE BOX", "address": {"city": "AUSTIN", "state": "TX", "street": "3705 MEDICAL PKWY", "postcode": "78705"}}},
{"geometry": {"type": "Point", "coordinates": [-97.7439135312, 30.3039215869]}, "type": "Feature", "properties": {"collection_times": [{"days": "Mon-Fri", "time": "5:00pm"}, {"days": "Sat", "time": "4:30pm"}, {"days": "Sun", "time": "Closed"}], "id": "7870500069", "name": "USPS COLLECTION BOX - APC", "address": {"city": "AUSTIN", "state": "TX", "street": "3507 N LAMAR BLVD", "postcode": "78705"}}},
{"geometry": {"type": "Point", "coordinates": [-97.6682297128, 30.3335342201]}, "type": "Feature", "properties": {"collection_times": [{"days": "Mon-Sat", "time": "7:00pm"}, {"days": "Sun", "time": "Closed"}], "id": "7871000001", "name": "USPS COLLECTION BOX - EXPRESS", "address": {"city": "AUSTIN", "state": "TX", "street": "8225 CROSS PARK DR", "postcode": "78710"}}},
{"geometry": {"type": "Point", "coordinates": [-97.6684975312, 30.3345685048]}, "type": "Feature", "properties": {"collection_times": [{"days": "Mon-Sat", "time": "8:00pm"}, {"days": "Sun", "time": "Closed"}], "id": "7871000002", "name": "USPS COLLECTION BOX - BLUE BOX", "address": {"city": "AUSTIN", "state": "TX", "street": "8225 CROSS PARK DR", "postcode": "78710"}}},
{"geometry": {"type": "Point", "coordinates": [-97.6684975312, 30.3345685048]}, "type": "Feature", "properties": {"collection_times": [{"days": "Mon-Sat", "time": "8:00pm"}, {"days": "Sun", "time": "Closed"}], "id": "7871000003", "name": "USPS COLLECTION BOX - BLUE BOX", "address": {"city": "AUSTIN", "state": "TX", "street": "8225 CROSS PARK DR", "postcode": "78710"}}},
{"geometry": {"type": "Point", "coordinates": [-97.6684975312, 30.3345685048]}, "type": "Feature", "properties": {"collection_times": [{"days": "Mon-Sat", "time": "8:00pm"}, {"days": "Sun", "time": "Closed"}], "id": "7871000004", "name": "USPS COLLECTION BOX - BLUE BOX", "address": {"city": "AUSTIN", "state": "TX", "street": "8225 CROSS PARK DR", "postcode": "78710"}}},
{"geometry": {"type": "Point", "coordinates": [-97.6684975312, 30.3345685048]}, "type": "Feature", "properties": {"collection_times": [{"days": "Mon-Sat", "time": "8:00pm"}, {"days": "Sun", "time": "Closed"}], "id": "7871000005", "name": "USPS COLLECTION BOX - BLUE BOX", "address": {"city": "AUSTIN", "state": "TX", "street": "8225 CROSS PARK DR", "postcode": "78710"}}},
{"geometry": {"type": "Point", "coordinates": [-97.6684975312, 30.3345685048]}, "type": "Feature", "properties": {"collection_times": [{"days": "Mon-Sat", "time": "8:00pm"}, {"days": "Sun", "time": "Closed"}], "id": "7871000006", "name": "USPS COLLECTION BOX - BLUE BOX", "address": {"city": "AUSTIN", "state": "TX", "street": "8225 CROSS PARK DR", "postcode": "78710"}}},
{"geometry": {"type": "Point", "coordinates": [-97.6684975312, 30.3345685048]}, "type": "Feature", "properties": {"collection_times": [{"days": "Mon-Sat", "time": "8:00pm"}, {"days": "Sun", "time": "Closed"}], "id": "7871000007", "name": "USPS COLLECTION BOX - BLUE BOX", "address": {"city": "AUSTIN", "state": "TX", "street": "8225 CROSS PARK DR", "postcode": "78710"}}},
{"geometry": {"type": "Point", "coordinates": [-97.6684975312, 30.3345685048]}, "type": "Feature", "properties": {"collection_times": [{"days": "Mon-Sat", "time": "8:00pm"}, {"days": "Sun", "time": "Closed"}], "id": "7871000012", "name": "USPS COLLECTION BOX - PO LOBBY", "address": {"city": "AUSTIN", "state": "TX", "street": "8225 CROSS PARK DR", "postcode": "78710"}}},
{"geometry": {"type": "Point", "coordinates": [-97.6684975312, 30.3345685048]}, "type": "Feature", "properties": {"collection_times": [{"days": "Mon-Sat", "time": "8:00pm"}, {"days": "Sun", "time": "Closed"}], "id": "7871000013", "name": "USPS COLLECTION BOX - PO LOBBY", "address": {"city": "AUSTIN", "state": "TX", "street": "8225 CROSS PARK DR", "postcode": "78710"}}},
{"geometry": {"type": "Point", "coordinates": [-97.6684975312, 30.3345685048]}, "type": "Feature", "properties": {"collection_times": [{"days": "Mon-Sat", "time": "8:00pm"}, {"days": "Sun", "time": "Closed"}], "id": "7871000014", "name": "USPS COLLECTION BOX - PO LOBBY", "address": {"city": "AUSTIN", "state": "TX", "street": "8225 CROSS PARK DR", "postcode": "78710"}}},
{"geometry": {"type": "Point", "coordinates": [-97.6684975312, 30.3345685048]}, "type": "Feature", "properties": {"collection_times": [{"days": "Mon-Sat", "time": "8:00pm"}, {"days": "Sun", "time": "Closed"}], "id": "7871000015", "name": "USPS COLLECTION BOX - PO LOBBY", "address": {"city": "AUSTIN", "state": "TX", "street": "8225 CROSS PARK DR", "postcode": "78710"}}},
{"geometry": {"type": "Point", "coordinates": [-97.6684975312, 30.3345685048]}, "type": "Feature", "properties": {"collection_times": [{"days": "Mon-Sat", "time": "8:00pm"}, {"days": "Sun", "time": "Closed"}], "id": "7871000016", "name": "USPS COLLECTION BOX - APC", "address": {"city": "AUSTIN", "state": "TX", "street": "8225 CROSS PARK DR", "postcode": "78710"}}},
{"geometry": {"type": "Point", "coordinates": [-97.7394281309, 30.2866039423]}, "type": "Feature", "properties": {"collection_times": [{"days": "Mon-Fri", "time": "12:45pm"}, {"days": "Sat-Sun", "time": "Closed"}], "id": "7871200002", "name": "USPS COLLECTION BOX - BLUE BOX", "address": {"city": "AUSTIN", "state": "TX", "street": "110 INNER CAMPUS DR", "postcode": "78712"}}},
{"geometry": {"type": "Point", "coordinates": [-97.7417010999, 30.2849499128]}, "type": "Feature", "properties": {"collection_times": [{"days": "Mon-Fri", "time": "3:45pm"}, {"days": "Sat-Sun", "time": "Closed"}], "id": "7871300001", "name": "USPS COLLECTION BOX - BLUE BOX", "address": {"city": "AUSTIN", "state": "TX", "street": "2200 INNER CAMPUS DR", "postcode": "78713"}}},
{"geometry": {"type": "Point", "coordinates": [-97.7417010999, 30.2849499128]}, "type": "Feature", "properties": {"collection_times": [{"days": "Mon-Fri", "time": "4:15pm"}, {"days": "Sat", "time": "11:45am"}, {"days": "Sun", "time": "Closed"}], "id": "7871300002", "name": "USPS COLLECTION BOX - PO LOBBY", "address": {"city": "AUSTIN", "state": "TX", "street": "2200 INNER CAMPUS DR", "postcode": "78713"}}},
{"geometry": {"type": "Point", "coordinates": [-97.7417010999, 30.2849499128]}, "type": "Feature", "properties": {"collection_times": [{"days": "Mon-Fri", "time": "4:15pm"}, {"days": "Sat", "time": "11:45am"}, {"days": "Sun", "time": "Closed"}], "id": "7871300003", "name": "USPS COLLECTION BOX - PO LOBBY", "address": {"city": "AUSTIN", "state": "TX", "street": "2200 INNER CAMPUS DR", "postcode": "78713"}}},
{"geometry": {"type": "Point", "coordinates": [-97.6671335796, 30.2026555676]}, "type": "Feature", "properties": {"collection_times": [{"days": "Mon-Fri", "time": "5:00pm"}, {"days": "Sat", "time": "11:30am"}, {"days": "Sun", "time": "Closed"}], "id": "7871900002", "name": "USPS COLLECTION BOX - BLUE BOX", "address": {"city": "AUSTIN", "state": "TX", "street": "3600 PRESIDENTIAL BLVD", "postcode": "78719"}}},
{"geometry": {"type": "Point", "coordinates": [-97.66876488, 30.2760747328]}, "type": "Feature", "properties": {"collection_times": [{"days": "Mon-Fri", "time": "12:45pm"}, {"days": "Sat", "time": "4:00pm"}, {"days": "Sun", "time": "Closed"}], "id": "7872100003", "name": "USPS COLLECTION BOX - BLUE BOX", "address": {"city": "AUSTIN", "state": "TX", "street": "6105 TECHNI CENTER DR", "postcode": "78721"}}},
{"geometry": {"type": "Point", "coordinates": [-97.681372898, 30.2543199383]}, "type": "Feature", "properties": {"collection_times": [{"days": "Mon-Fri", "time": "5:00pm"}, {"days": "Sat", "time": "4:00pm"}, {"days": "Sun", "time": "Closed"}], "id": "7872100005", "name": "USPS COLLECTION BOX - BLUE BOX", "address": {"city": "AUSTIN", "state": "TX", "street": "1001 SMITH RD", "postcode": "78721"}}},
{"geometry": {"type": "Point", "coordinates": [-97.7153829269, 30.284891326]}, "type": "Feature", "properties": {"collection_times": [{"days": "Mon-Fri", "time": "12:45pm"}, {"days": "Sat", "time": "1:00pm"}, {"days": "Sun", "time": "Closed"}], "id": "7872200005", "name": "USPS COLLECTION BOX - BLUE BOX", "address": {"city": "AUSTIN", "state": "TX", "street": "2601 MANOR RD", "postcode": "78722"}}},
{"geometry": {"type": "Point", "coordinates": [-97.7187122096, 30.295672291]}, "type": "Feature", "properties": {"collection_times": [{"days": "Mon-Sat", "time": "1:00pm"}, {"days": "Sun", "time": "Closed"}], "id": "7872200010", "name": "USPS COLLECTION BOX - BLUE BOX", "address": {"city": "AUSTIN", "state": "TX", "street": "3909 N IH 35", "postcode": "78722"}}},
{"geometry": {"type": "Point", "coordinates": [-97.7048593239, 30.2865486515]}, "type": "Feature", "properties": {"collection_times": [{"days": "Mon-Fri", "time": "12:45pm"}, {"days": "Sat", "time": "1:00pm"}, {"days": "Sun", "time": "Closed"}], "id": "7872300003", "name": "USPS COLLECTION BOX - BLUE BOX", "address": {"city": "AUSTIN", "state": "TX", "street": "3112 MANOR RD", "postcode": "78723"}}},
{"geometry": {"type": "Point", "coordinates": [-97.6948041727, 30.3207290678]}, "type": "Feature", "properties": {"collection_times": [{"days": "Mon-Fri", "time": "12:15pm"}, {"days": "Sat", "time": "4:00pm"}, {"days": "Sun", "time": "Closed"}], "id": "7872300006", "name": "USPS COLLECTION BOX - BLUE BOX", "address": {"city": "AUSTIN", "state": "TX", "street": "6611 E HIGHWAY 290", "postcode": "78723"}}},
{"geometry": {"type": "Point", "coordinates": [-97.6739633752, 30.3080334962]}, "type": "Feature", "properties": {"collection_times": [{"days": "Mon-Fri", "time": "12:30pm"}, {"days": "Sat-Sun", "time": "Closed"}], "id": "7872300007", "name": "USPS COLLECTION BOX - BLUE BOX", "address": {"city": "AUSTIN", "state": "TX", "street": "6200 MANOR RD", "postcode": "78723"}}},
{"geometry": {"type": "Point", "coordinates": [-97.6624994042, 30.3111796068]}, "type": "Feature", "properties": {"collection_times": [{"days": "Mon-Fri", "time": "12:30pm"}, {"days": "Sat-Sun", "time": "Closed"}], "id": "7872300009", "name": "USPS COLLECTION BOX - BLUE BOX", "address": {"city": "AUSTIN", "state": "TX", "street": "7112 ED BLUESTEIN BLVD", "postcode": "78723"}}},
{"geometry": {"type": "Point", "coordinates": [-97.6860218854, 30.2999125389]}, "type": "Feature", "properties": {"collection_times": [{"days": "Mon-Fri", "time": "12:45pm"}, {"days": "Sat-Sun", "time": "Closed"}], "id": "7872300016", "name": "USPS COLLECTION BOX - BLUE BOX", "address": {"city": "AUSTIN", "state": "TX", "street": "5210 MANOR RD", "postcode": "78723"}}},
{"geometry": {"type": "Point", "coordinates": [-97.7072678284, 30.3112772257]}, "type": "Feature", "properties": {"collection_times": [{"days": "Mon-Fri", "time": "12:00pm"}, {"days": "Sat", "time": "2:45pm"}, {"days": "Sun", "time": "Closed"}], "id": "7872300017", "name": "USPS COLLECTION BOX - BLUE BOX", "address": {"city": "AUSTIN", "state": "TX", "street": "5322 CAMERON RD", "postcode": "78723"}}},
{"geometry": {"type": "Point", "coordinates": [-97.6871261418, 30.309330779]}, "type": "Feature", "properties": {"collection_times": [{"days": "Mon-Fri", "time": "12:00pm"}, {"days": "Sat", "time": "2:45pm"}, {"days": "Sun", "time": "Closed"}], "id": "7872300022", "name": "USPS COLLECTION BOX - BLUE BOX", "address": {"city": "AUSTIN", "state": "TX", "street": "5429 N IH 35", "postcode": "78723"}}},
{"geometry": {"type": "Point", "coordinates": [-97.7014169133, 30.3181182774]}, "type": "Feature", "properties": {"collection_times": [{"days": "Mon-Fri", "time": "12:00pm"}, {"days": "Sat", "time": "3:00pm"}, {"days": "Sun", "time": "Closed"}], "id": "7872300026", "name": "USPS COLLECTION BOX - BLUE BOX", "address": {"city": "AUSTIN", "state": "TX", "street": "1106 CLAYTON LN", "postcode": "78723"}}},
{"geometry": {"type": "Point", "coordinates": [-97.6875476072, 30.3075815022]}, "type": "Feature", "properties": {"collection_times": [{"days": "Mon-Fri", "time": "12:00pm"}, {"days": "Sat", "time": "3:00pm"}, {"days": "Sun", "time": "Closed"}], "id": "7872300027", "name": "USPS COLLECTION BOX - EXPRESS", "address": {"city": "AUSTIN", "state": "TX", "street": "1106 CLAYTON LN", "postcode": "78723"}}},
{"geometry": {"type": "Point", "coordinates": [-97.6957505399, 30.3219191246]}, "type": "Feature", "properties": {"collection_times": [{"days": "Mon-Fri", "time": "1:00pm"}, {"days": "Sat-Sun", "time": "Closed"}], "id": "7872300036", "name": "USPS COLLECTION BOX - BLUE BOX", "address": {"city": "AUSTIN", "state": "TX", "street": "1200 CAMINO LA COSTA", "postcode": "78723"}}},
{"geometry": {"type": "Point", "coordinates": [-97.7014169133, 30.3181182774]}, "type": "Feature", "properties": {"collection_times": [{"days": "Mon-Fri", "time": "12:00pm"}, {"days": "Sat", "time": "3:00pm"}, {"days": "Sun", "time": "Closed"}], "id": "7872300037", "name": "USPS COLLECTION BOX - BLUE BOX", "address": {"city": "AUSTIN", "state": "TX", "street": "1106 CLAYTON LN", "postcode": "78723"}}},
{"geometry": {"type": "Point", "coordinates": [-97.70725239, 30.3019709445]}, "type": "Feature", "properties": {"collection_times": [{"days": "Mon-Sat", "time": "12:00pm"}, {"days": "Sun", "time": "Closed"}], "id": "7872300039", "name": "USPS COLLECTION BOX - BLUE BOX", "address": {"city": "AUSTIN", "state": "TX", "street": "1400 PHILOMENA ST", "postcode": "78723"}}},
{"geometry": {"type": "Point", "coordinates": [-97.6534704035, 30.29204113]}, "type": "Feature", "properties": {"collection_times": [{"days": "Mon-Sat", "time": "10:00am"}, {"days": "Sun", "time": "Closed"}], "id": "7872400004", "name": "USPS COLLECTION BOX - BLUE BOX", "address": {"city": "AUSTIN", "state": "TX", "street": "5701 JOHNNY MORRIS RD", "postcode": "78724"}}},
{"geometry": {"type": "Point", "coordinates": [-97.8315854374, 30.4464922663]}, "type": "Feature", "properties": {"collection_times": [{"days": "Mon-Sat", "time": "10:00am"}, {"days": "Sun", "time": "Closed"}], "id": "7872600000", "name": "USPS COLLECTION BOX - BLUE BOX", "address": {"city": "AUSTIN", "state": "TX", "street": "10713 N FM 620", "postcode": "78726"}}},
{"geometry": {"type": "Point", "coordinates": [-97.8420985227, 30.4285738514]}, "type": "Feature", "properties": {"collection_times": [{"days": "Mon-Sat", "time": "12:00pm"}, {"days": "Sun", "time": "Closed"}], "id": "7872600001", "name": "USPS COLLECTION BOX - BLUE BOX", "address": {"city": "AUSTIN", "state": "TX", "street": "10200 BOULDER LN", "postcode": "78726"}}},
{"geometry": {"type": "Point", "coordinates": [-97.6942994991, 30.4286092725]}, "type": "Feature", "properties": {"collection_times": [{"days": "Mon-Fri", "time": "12:00pm"}, {"days": "Sat", "time": "1:30pm"}, {"days": "Sun", "time": "Closed"}], "id": "7872700008", "name": "USPS COLLECTION BOX - BLUE BOX", "address": {"city": "AUSTIN", "state": "TX", "street": "2412 RODEO DR", "postcode": "78727"}}},
{"geometry": {"type": "Point", "coordinates": [-97.7432132195, 30.4279879572]}, "type": "Feature", "properties": {"collection_times": [{"days": "Mon-Fri", "time": "12:15pm"}, {"days": "Sat-Sun", "time": "Closed"}], "id": "7872700014", "name": "USPS COLLECTION BOX - BLUE BOX", "address": {"city": "AUSTIN", "state": "TX", "street": "12357 RIATA TRACE PKWY", "postcode": "78727"}}},
{"geometry": {"type": "Point", "coordinates": [-97.7414553425, 30.4419042865]}, "type": "Feature", "properties": {"collection_times": [{"days": "Mon-Fri", "time": "2:30pm"}, {"days": "Sat-Sun", "time": "Closed"}], "id": "7872700015", "name": "USPS COLLECTION BOX - BLUE BOX", "address": {"city": "AUSTIN", "state": "TX", "street": "6001 W PARMER LN", "postcode": "78727"}}},
{"geometry": {"type": "Point", "coordinates": [-97.68851, 30.412333]}, "type": "Feature", "properties": {"collection_times": [{"days": "Mon-Fri", "time": "5:00pm"}, {"days": "Sat-Sun", "time": "Closed"}], "id": "7872700018", "name": "USPS COLLECTION BOX - BLUE BOX", "address": {"city": "AUSTIN", "state": "TX", "street": "1700 W PARMER LN", "postcode": "78727"}}},
{"geometry": {"type": "Point", "coordinates": [-97.717454288, 30.4265329177]}, "type": "Feature", "properties": {"collection_times": [{"days": "Mon-Fri", "time": "2:30pm"}, {"days": "Sat-Sun", "time": "Closed"}], "id": "7872700019", "name": "USPS COLLECTION BOX - BLUE BOX", "address": {"city": "AUSTIN", "state": "TX", "street": "4201 W PARMER LN", "postcode": "78727"}}},
{"geometry": {"type": "Point", "coordinates": [-97.6915723288, 30.4386109287]}, "type": "Feature", "properties": {"collection_times": [{"days": "Mon-Fri", "time": "2:15pm"}, {"days": "Sat-Sun", "time": "Closed"}], "id": "7872800001", "name": "USPS COLLECTION BOX - BLUE BOX", "address": {"city": "AUSTIN", "state": "TX", "street": "14050 SUMMIT DR", "postcode": "78728"}}},
{"geometry": {"type": "Point", "coordinates": [-97.6828101518, 30.4357694613]}, "type": "Feature", "properties": {"collection_times": [{"days": "Mon-Fri", "time": "2:00pm"}, {"days": "Sat-Sun", "time": "Closed"}], "id": "7872800008", "name": "USPS COLLECTION BOX - BLUE BOX", "address": {"city": "AUSTIN", "state": "TX", "street": "2013 WELLS BRANCH PKWY", "postcode": "78728"}}},
{"geometry": {"type": "Point", "coordinates": [-97.7098999121, 30.4443790366]}, "type": "Feature", "properties": {"collection_times": [{"days": "Mon-Fri", "time": "2:30pm"}, {"days": "Sat-Sun", "time": "Closed"}], "id": "7872800009", "name": "USPS COLLECTION BOX - BLUE BOX", "address": {"city": "AUSTIN", "state": "TX", "street": "4616 W HOWARD LN", "postcode": "78728"}}},
{"geometry": {"type": "Point", "coordinates": [-97.6966360893, 30.4398739399]}, "type": "Feature", "properties": {"collection_times": [{"days": "Mon-Fri", "time": "2:15pm"}, {"days": "Sat-Sun", "time": "Closed"}], "id": "7872800010", "name": "USPS COLLECTION BOX - BLUE BOX", "address": {"city": "AUSTIN", "state": "TX", "street": "3407 WELLS BRANCH PKWY", "postcode": "78728"}}},
{"geometry": {"type": "Point", "coordinates": [-97.7857169351, 30.4507232455]}, "type": "Feature", "properties": {"collection_times": [{"days": "Mon-Fri", "time": "2:00pm"}, {"days": "Sat", "time": "12:15pm"}, {"days": "Sun", "time": "Closed"}], "id": "7872900001", "name": "USPS COLLECTION BOX - BLUE BOX", "address": {"city": "AUSTIN", "state": "TX", "street": "13436 POND SPRINGS RD", "postcode": "78729"}}},
{"geometry": {"type": "Point", "coordinates": [-97.7658798962, 30.4355671753]}, "type": "Feature", "properties": {"collection_times": [{"days": "Mon-Fri", "time": "12:30pm"}, {"days": "Sat", "time": "12:15pm"}, {"days": "Sun", "time": "Closed"}], "id": "7872900002", "name": "USPS COLLECTION BOX - BLUE BOX", "address": {"city": "AUSTIN", "state": "TX", "street": "7218 MCNEIL DR", "postcode": "78729"}}},
{"geometry": {"type": "Point", "coordinates": [-97.7739991495, 30.4449184999]}, "type": "Feature", "properties": {"collection_times": [{"days": "Mon-Fri", "time": "2:00pm"}, {"days": "Sat", "time": "12:15pm"}, {"days": "Sun", "time": "Closed"}], "id": "7872900003", "name": "USPS COLLECTION BOX - BLUE BOX", "address": {"city": "AUSTIN", "state": "TX", "street": "8500 CAHILL DR", "postcode": "78729"}}},
{"geometry": {"type": "Point", "coordinates": [-97.7724285474, 30.4418686038]}, "type": "Feature", "properties": {"collection_times": [{"days": "Mon-Fri", "time": "2:00pm"}, {"days": "Sat", "time": "12:15pm"}, {"days": "Sun", "time": "Closed"}], "id": "7872900004", "name": "USPS COLLECTION BOX - BLUE BOX", "address": {"city": "AUSTIN", "state": "TX", "street": "12350 HUNTERS CHASE DR", "postcode": "78729"}}},
{"geometry": {"type": "Point", "coordinates": [-97.7884093497, 30.4644266422]}, "type": "Feature", "properties": {"collection_times": [{"days": "Mon-Sat", "time": "5:00pm"}, {"days": "Sun", "time": "Closed"}], "id": "7872900005", "name": "USPS COLLECTION BOX - PO LOBBY", "address": {"city": "AUSTIN", "state": "TX", "street": "10109 LAKE CREEK PKWY", "postcode": "78729"}}},
{"geometry": {"type": "Point", "coordinates": [-97.7884093497, 30.4644266422]}, "type": "Feature", "properties": {"collection_times": [{"days": "Mon-Sat", "time": "5:00pm"}, {"days": "Sun", "time": "Closed"}], "id": "7872900006", "name": "USPS COLLECTION BOX - PO LOBBY", "address": {"city": "AUSTIN", "state": "TX", "street": "10109 LAKE CREEK PKWY", "postcode": "78729"}}},
{"geometry": {"type": "Point", "coordinates": [-97.7884093497, 30.4644266422]}, "type": "Feature", "properties": {"collection_times": [{"days": "Mon-Sat", "time": "5:00pm"}, {"days": "Sun", "time": "Closed"}], "id": "7872900007", "name": "USPS COLLECTION BOX - BLUE BOX", "address": {"city": "AUSTIN", "state": "TX", "street": "10109 LAKE CREEK PKWY", "postcode": "78729"}}},
{"geometry": {"type": "Point", "coordinates": [-97.799453611, 30.353590939]}, "type": "Feature", "properties": {"collection_times": [{"days": "Mon-Fri", "time": "3:30pm"}, {"days": "Sat-Sun", "time": "Closed"}], "id": "7873000001", "name": "USPS COLLECTION BOX - BLUE BOX", "address": {"city": "AUSTIN", "state": "TX", "street": "6201 BRIDGE POINT PKWY", "postcode": "78730"}}},
{"geometry": {"type": "Point", "coordinates": [-97.8000021292, 30.3538933717]}, "type": "Feature", "properties": {"collection_times": [{"days": "Mon-Fri", "time": "3:30pm"}, {"days": "Sat-Sun", "time": "Closed"}], "id": "7873000004", "name": "USPS COLLECTION BOX - BLUE BOX", "address": {"city": "AUSTIN", "state": "TX", "street": "6201 BRIDGE POINT PKWY", "postcode": "78730"}}},
{"geometry": {"type": "Point", "coordinates": [-97.7561902793, 30.336838603]}, "type": "Feature", "properties": {"collection_times": [{"days": "Mon-Fri", "time": "4:00pm"}, {"days": "Sat", "time": "3:00pm"}, {"days": "Sun", "time": "Closed"}], "id": "7873100004", "name": "USPS COLLECTION BOX - BLUE BOX", "address": {"city": "AUSTIN", "state": "TX", "street": "3303 NORTHLAND DR", "postcode": "78731"}}},
{"geometry": {"type": "Point", "coordinates": [-97.759811659, 30.3327551505]}, "type": "Feature", "properties": {"collection_times": [{"days": "Mon-Fri", "time": "4:15pm"}, {"days": "Sat", "time": "3:00pm"}, {"days": "Sun", "time": "Closed"}], "id": "7873100008", "name": "USPS COLLECTION BOX - BLUE BOX", "address": {"city": "AUSTIN", "state": "TX", "street": "3321 HANCOCK DR", "postcode": "78731"}}},
{"geometry": {"type": "Point", "coordinates": [-97.754036506, 30.3422068184]}, "type": "Feature", "properties": {"collection_times": [{"days": "Mon-Fri", "time": "2:30pm"}, {"days": "Sat-Sun", "time": "Closed"}], "id": "7873100011", "name": "USPS COLLECTION BOX - BLUE BOX", "address": {"city": "AUSTIN", "state": "TX", "street": "5926 BALCONES DR", "postcode": "78731"}}},
{"geometry": {"type": "Point", "coordinates": [-97.7583956198, 30.3695470629]}, "type": "Feature", "properties": {"collection_times": [{"days": "Mon-Fri", "time": "3:45pm"}, {"days": "Sat", "time": "11:00am"}, {"days": "Sun", "time": "Closed"}], "id": "7873100015", "name": "USPS COLLECTION BOX - BLUE BOX", "address": {"city": "AUSTIN", "state": "TX", "street": "8000 MESA DR", "postcode": "78731"}}},
{"geometry": {"type": "Point", "coordinates": [-97.7502068729, 30.3583306015]}, "type": "Feature", "properties": {"collection_times": [{"days": "Mon-Fri", "time": "4:30pm"}, {"days": "Sat", "time": "2:00pm"}, {"days": "Sun", "time": "Closed"}], "id": "7873100018", "name": "USPS COLLECTION BOX - BLUE BOX", "address": {"city": "AUSTIN", "state": "TX", "street": "3523 GREYSTONE DR", "postcode": "78731"}}},
{"geometry": {"type": "Point", "coordinates": [-97.7499265116, 30.3627229281]}, "type": "Feature", "properties": {"collection_times": [{"days": "Mon-Fri", "time": "2:15pm"}, {"days": "Sat-Sun", "time": "Closed"}], "id": "7873100019", "name": "USPS COLLECTION BOX - BLUE BOX", "address": {"city": "AUSTIN", "state": "TX", "street": "3724 EXECUTIVE CENTER DR", "postcode": "78731"}}},
{"geometry": {"type": "Point", "coordinates": [-97.7497881054, 30.3087113877]}, "type": "Feature", "properties": {"collection_times": [{"days": "Mon-Fri", "time": "3:45pm"}, {"days": "Sat-Sun", "time": "Closed"}], "id": "7873100028", "name": "USPS COLLECTION BOX - BLUE BOX", "address": {"city": "AUSTIN", "state": "TX", "street": "1600 W 38TH ST", "postcode": "78731"}}},
{"geometry": {"type": "Point", "coordinates": [-97.7561902793, 30.336838603]}, "type": "Feature", "properties": {"collection_times": [{"days": "Mon-Fri", "time": "4:00pm"}, {"days": "Sat", "time": "3:00pm"}, {"days": "Sun", "time": "Closed"}], "id": "7873100030", "name": "USPS COLLECTION BOX - BLUE BOX", "address": {"city": "AUSTIN", "state": "TX", "street": "3303 NORTHLAND DR", "postcode": "78731"}}},
{"geometry": {"type": "Point", "coordinates": [-97.7561902793, 30.336838603]}, "type": "Feature", "properties": {"collection_times": [{"days": "Mon-Fri", "time": "4:00pm"}, {"days": "Sat", "time": "3:00pm"}, {"days": "Sun", "time": "Closed"}], "id": "7873100031", "name": "USPS COLLECTION BOX - BLUE BOX", "address": {"city": "AUSTIN", "state": "TX", "street": "3303 NORTHLAND DR", "postcode": "78731"}}},
{"geometry": {"type": "Point", "coordinates": [-97.7543874499, 30.3539394578]}, "type": "Feature", "properties": {"collection_times": [{"days": "Mon-Sat", "time": "5:00pm"}, {"days": "Sun", "time": "Closed"}], "id": "7873100033", "name": "USPS COLLECTION BOX - BLUE BOX", "address": {"city": "AUSTIN", "state": "TX", "street": "3575 FAR WEST BLVD", "postcode": "78731"}}},
{"geometry": {"type": "Point", "coordinates": [-97.7543874499, 30.3539394578]}, "type": "Feature", "properties": {"collection_times": [{"days": "Mon-Sat", "time": "5:00pm"}, {"days": "Sun", "time": "Closed"}], "id": "7873100034", "name": "USPS COLLECTION BOX - BLUE BOX", "address": {"city": "AUSTIN", "state": "TX", "street": "3575 FAR WEST BLVD", "postcode": "78731"}}},
{"geometry": {"type": "Point", "coordinates": [-97.7478779594, 30.3607198906]}, "type": "Feature", "properties": {"collection_times": [{"days": "Mon-Fri", "time": "2:15pm"}, {"days": "Sat", "time": "2:00pm"}, {"days": "Sun", "time": "Closed"}], "id": "7873100036", "name": "USPS COLLECTION BOX - BLUE BOX", "address": {"city": "AUSTIN", "state": "TX", "street": "7701 WOOD HOLLOW DR", "postcode": "78731"}}},
{"geometry": {"type": "Point", "coordinates": [-97.7466402516, 30.3586133287]}, "type": "Feature", "properties": {"collection_times": [{"days": "Mon-Sat", "time": "2:15pm"}, {"days": "Sun", "time": "Closed"}], "id": "7873100038", "name": "USPS COLLECTION BOX - BLUE BOX", "address": {"city": "AUSTIN", "state": "TX", "street": "3409 EXECUTIVE CENTER DR", "postcode": "78731"}}},
{"geometry": {"type": "Point", "coordinates": [-97.7677525202, 30.3845733632]}, "type": "Feature", "properties": {"collection_times": [{"days": "Mon-Fri", "time": "3:00pm"}, {"days": "Sat-Sun", "time": "Closed"}], "id": "7873100040", "name": "USPS COLLECTION BOX - BLUE BOX", "address": {"city": "AUSTIN", "state": "TX", "street": "8310 N CAPITAL OF TEXAS HWY", "postcode": "78731"}}},
{"geometry": {"type": "Point", "coordinates": [-97.7514170399, 30.3517959362]}, "type": "Feature", "properties": {"collection_times": [{"days": "Mon-Fri", "time": "3:15pm"}, {"days": "Sat-Sun", "time": "Closed"}], "id": "7873100041", "name": "USPS COLLECTION BOX - BLUE BOX", "address": {"city": "AUSTIN", "state": "TX", "street": "6850 AUSTIN CENTER BLVD", "postcode": "78731"}}},
{"geometry": {"type": "Point", "coordinates": [-97.7499265116, 30.3627229281]}, "type": "Feature", "properties": {"collection_times": [{"days": "Mon-Fri", "time": "2:15pm"}, {"days": "Sat-Sun", "time": "Closed"}], "id": "7873100043", "name": "USPS COLLECTION BOX - BLUE BOX", "address": {"city": "AUSTIN", "state": "TX", "street": "3724 EXECUTIVE CENTER DR", "postcode": "78731"}}},
{"geometry": {"type": "Point", "coordinates": [-97.7474919821, 30.357163021]}, "type": "Feature", "properties": {"collection_times": [{"days": "Mon-Fri", "time": "2:30pm"}, {"days": "Sat-Sun", "time": "Closed"}], "id": "7873100044", "name": "USPS COLLECTION BOX - BLUE BOX", "address": {"city": "AUSTIN", "state": "TX", "street": "3415 GREYSTONE DR", "postcode": "78731"}}},
{"geometry": {"type": "Point", "coordinates": [-97.770727662, 30.3428385709]}, "type": "Feature", "properties": {"collection_times": [{"days": "Mon-Fri", "time": "4:00pm"}, {"days": "Sat-Sun", "time": "Closed"}], "id": "7873100045", "name": "USPS COLLECTION BOX - BLUE BOX", "address": {"city": "AUSTIN", "state": "TX", "street": "5806 MESA DR", "postcode": "78731"}}},
{"geometry": {"type": "Point", "coordinates": [-97.749107904, 30.3080643092]}, "type": "Feature", "properties": {"collection_times": [{"days": "Mon-Fri", "time": "3:30pm"}, {"days": "Sat-Sun", "time": "Closed"}], "id": "7873100048", "name": "USPS COLLECTION BOX - BLUE BOX", "address": {"city": "AUSTIN", "state": "TX", "street": "1500 W 38TH ST", "postcode": "78731"}}},
{"geometry": {"type": "Point", "coordinates": [-97.7552711202, 30.3136431436]}, "type": "Feature", "properties": {"collection_times": [{"days": "Mon-Fri", "time": "4:00pm"}, {"days": "Sat-Sun", "time": "Closed"}], "id": "7873100049", "name": "USPS COLLECTION BOX - BLUE BOX", "address": {"city": "AUSTIN", "state": "TX", "street": "4000 JACKSON AVE", "postcode": "78731"}}},
{"geometry": {"type": "Point", "coordinates": [-97.788140818, 30.3694220248]}, "type": "Feature", "properties": {"collection_times": [{"days": "Mon-Fri", "time": "3:30pm"}, {"days": "Sat-Sun", "time": "Closed"}], "id": "7873100050", "name": "USPS COLLECTION BOX - BLUE BOX", "address": {"city": "AUSTIN", "state": "TX", "street": "6805 N CAPITAL OF TEXAS HWY", "postcode": "78731"}}},
{"geometry": {"type": "Point", "coordinates": [-97.7906960094, 30.3570589206]}, "type": "Feature", "properties": {"collection_times": [{"days": "Mon-Fri", "time": "3:00pm"}, {"days": "Sat", "time": "10:00am"}, {"days": "Sun", "time": "Closed"}], "id": "7873100057", "name": "USPS COLLECTION BOX - BLUE BOX", "address": {"city": "AUSTIN", "state": "TX", "street": "5910 COURTYARD DR", "postcode": "78731"}}},
{"geometry": {"type": "Point", "coordinates": [-97.7506765076, 30.3090852027]}, "type": "Feature", "properties": {"collection_times": [{"days": "Mon-Fri", "time": "5:00pm"}, {"days": "Sat", "time": "3:00pm"}, {"days": "Sun", "time": "Closed"}], "id": "7873100059", "name": "USPS COLLECTION BOX - BLUE BOX", "address": {"city": "AUSTIN", "state": "TX", "street": "3724 JEFFERSON ST", "postcode": "78731"}}},
{"geometry": {"type": "Point", "coordinates": [-97.7543874499, 30.3539394578]}, "type": "Feature", "properties": {"collection_times": [{"days": "Mon-Sat", "time": "5:00pm"}, {"days": "Sun", "time": "Closed"}], "id": "7873100063", "name": "USPS COLLECTION BOX - PO LOBBY", "address": {"city": "AUSTIN", "state": "TX", "street": "3575 FAR WEST BLVD", "postcode": "78731"}}},
{"geometry": {"type": "Point", "coordinates": [-97.7543874499, 30.3539394578]}, "type": "Feature", "properties": {"collection_times": [{"days": "Mon-Sat", "time": "5:00pm"}, {"days": "Sun", "time": "Closed"}], "id": "7873100064", "name": "USPS COLLECTION BOX - PO LOBBY", "address": {"city": "AUSTIN", "state": "TX", "street": "3575 FAR WEST BLVD", "postcode": "78731"}}},
{"geometry": {"type": "Point", "coordinates": [-97.7543874499, 30.3539394578]}, "type": "Feature", "properties": {"collection_times": [{"days": "Mon-Sat", "time": "5:00pm"}, {"days": "Sun", "time": "Closed"}], "id": "7873100066", "name": "USPS COLLECTION BOX - APC", "address": {"city": "AUSTIN", "state": "TX", "street": "3575 FAR WEST BLVD", "postcode": "78731"}}},
{"geometry": {"type": "Point", "coordinates": [-97.7608523206, 30.3263516718]}, "type": "Feature", "properties": {"collection_times": [{"days": "Mon-Fri", "time": "4:00pm"}, {"days": "Sat-Sun", "time": "Closed"}], "id": "7873100067", "name": "USPS COLLECTION BOX - BLUE BOX", "address": {"city": "AUSTIN", "state": "TX", "street": "4600 FAIRVIEW DR", "postcode": "78731"}}},
{"geometry": {"type": "Point", "coordinates": [-97.8542302815, 30.403439959]}, "type": "Feature", "properties": {"collection_times": [{"days": "Mon-Sat", "time": "11:30am"}, {"days": "Sun", "time": "Closed"}], "id": "7873200001", "name": "USPS COLLECTION BOX - BLUE BOX", "address": {"city": "AUSTIN", "state": "TX", "street": "7004 RANCH ROAD 620 N", "postcode": "78732"}}},
{"geometry": {"type": "Point", "coordinates": [-97.8930627337, 30.3759805235]}, "type": "Feature", "properties": {"collection_times": [{"days": "Mon-Fri", "time": "11:30am"}, {"days": "Sat", "time": "10:30am"}, {"days": "Sun", "time": "Closed"}], "id": "7873200002", "name": "USPS COLLECTION BOX - BLUE BOX", "address": {"city": "AUSTIN", "state": "TX", "street": "3500 STEINER RANCH BLVD", "postcode": "78732"}}},
{"geometry": {"type": "Point", "coordinates": [-97.8689688552, 30.3317104759]}, "type": "Feature", "properties": {"collection_times": [{"days": "Mon-Sat", "time": "11:00am"}, {"days": "Sun", "time": "Closed"}], "id": "7873300000", "name": "USPS COLLECTION BOX - BLUE BOX", "address": {"city": "AUSTIN", "state": "TX", "street": "700 N CUERNAVACA DR", "postcode": "78733"}}},
{"geometry": {"type": "Point", "coordinates": [-97.9807789258, 30.357252764]}, "type": "Feature", "properties": {"collection_times": [{"days": "Mon-Fri", "time": "3:15pm"}, {"days": "Sat", "time": "2:00pm"}, {"days": "Sun", "time": "Closed"}], "id": "7873400003", "name": "USPS COLLECTION BOX - BLUE BOX", "address": {"city": "LAKEWAY", "state": "TX", "street": "1200 LAKEWAY DR", "postcode": "78734"}}},
{"geometry": {"type": "Point", "coordinates": [-97.956389928, 30.3674347107]}, "type": "Feature", "properties": {"collection_times": [{"days": "Mon-Fri", "time": "3:00pm"}, {"days": "Sat", "time": "2:00pm"}, {"days": "Sun", "time": "Closed"}], "id": "7873400005", "name": "USPS COLLECTION BOX - BLUE BOX", "address": {"city": "LAKEWAY", "state": "TX", "street": "317 RANCH ROAD 620 S", "postcode": "78734"}}},
{"geometry": {"type": "Point", "coordinates": [-97.982538052, 30.3627540489]}, "type": "Feature", "properties": {"collection_times": [{"days": "Mon-Fri", "time": "3:15pm"}, {"days": "Sat", "time": "2:00pm"}, {"days": "Sun", "time": "Closed"}], "id": "7873400006", "name": "USPS COLLECTION BOX - BLUE BOX", "address": {"city": "LAKEWAY", "state": "TX", "street": "1200 LAKEWAY DR", "postcode": "78734"}}},
{"geometry": {"type": "Point", "coordinates": [-97.9692210786, 30.3411433907]}, "type": "Feature", "properties": {"collection_times": [{"days": "Mon-Fri", "time": "3:30pm"}, {"days": "Sat", "time": "3:00pm"}, {"days": "Sun", "time": "Closed"}], "id": "7873400007", "name": "USPS COLLECTION BOX - BLUE BOX", "address": {"city": "LAKEWAY", "state": "TX", "street": "2300 LOHMANS SPUR", "postcode": "78734"}}},
{"geometry": {"type": "Point", "coordinates": [-97.96356, 30.34953]}, "type": "Feature", "properties": {"collection_times": [{"days": "Mon-Fri", "time": "3:00pm"}, {"days": "Sat", "time": "2:00pm"}, {"days": "Sun", "time": "Closed"}], "id": "7873400009", "name": "USPS COLLECTION BOX - BLUE BOX", "address": {"city": "LAKEWAY", "state": "TX", "street": "1310 RANCH ROAD 620 S", "postcode": "78734"}}},
{"geometry": {"type": "Point", "coordinates": [-97.9671544493, 30.342952135]}, "type": "Feature", "properties": {"collection_times": [{"days": "Mon-Fri", "time": "5:00pm"}, {"days": "Sat", "time": "4:00pm"}, {"days": "Sun", "time": "Closed"}], "id": "7873400015", "name": "USPS COLLECTION BOX - BLUE BOX", "address": {"city": "LAKEWAY", "state": "TX", "street": "2110 RANCH ROAD 620 S", "postcode": "78734"}}},
{"geometry": {"type": "Point", "coordinates": [-97.9671544493, 30.342952135]}, "type": "Feature", "properties": {"collection_times": [{"days": "Mon-Fri", "time": "5:00pm"}, {"days": "Sat", "time": "4:00pm"}, {"days": "Sun", "time": "Closed"}], "id": "7873400016", "name": "USPS COLLECTION BOX - BLUE BOX", "address": {"city": "LAKEWAY", "state": "TX", "street": "2110 RANCH ROAD 620 S", "postcode": "78734"}}},
{"geometry": {"type": "Point", "coordinates": [-97.967234516, 30.3429433468]}, "type": "Feature", "properties": {"collection_times": [{"days": "Mon-Fri", "time": "5:00pm"}, {"days": "Sat", "time": "4:00pm"}, {"days": "Sun", "time": "Closed"}], "id": "7873400017", "name": "USPS COLLECTION BOX - PO LOBBY", "address": {"city": "LAKEWAY", "state": "TX", "street": "2110 RANCH ROAD 620 S", "postcode": "78734"}}},
{"geometry": {"type": "Point", "coordinates": [-97.967234516, 30.3429433468]}, "type": "Feature", "properties": {"collection_times": [{"days": "Mon-Fri", "time": "5:00pm"}, {"days": "Sat", "time": "4:00pm"}, {"days": "Sun", "time": "Closed"}], "id": "7873400018", "name": "USPS COLLECTION BOX - PO LOBBY", "address": {"city": "LAKEWAY", "state": "TX", "street": "2110 RANCH ROAD 620 S", "postcode": "78734"}}},
{"geometry": {"type": "Point", "coordinates": [-97.9283119917, 30.3975894607]}, "type": "Feature", "properties": {"collection_times": [{"days": "Mon-Sat", "time": "11:30am"}, {"days": "Sun", "time": "Closed"}], "id": "7873400019", "name": "USPS COLLECTION BOX - BLUE BOX", "address": {"city": "LAKEWAY", "state": "TX", "street": "3636 RANCH ROAD 620 N", "postcode": "78734"}}},
{"geometry": {"type": "Point", "coordinates": [-97.9671544493, 30.342952135]}, "type": "Feature", "properties": {"collection_times": [{"days": "Mon-Fri", "time": "5:00pm"}, {"days": "Sat", "time": "4:00pm"}, {"days": "Sun", "time": "Closed"}], "id": "7873400020", "name": "USPS COLLECTION BOX - APC", "address": {"city": "LAKEWAY", "state": "TX", "street": "2110 RANCH ROAD 620 S", "postcode": "78734"}}},
{"geometry": {"type": "Point", "coordinates": [-97.8400443256, 30.2386187031]}, "type": "Feature", "properties": {"collection_times": [{"days": "Mon-Fri", "time": "2:15pm"}, {"days": "Sat", "time": "12:15pm"}, {"days": "Sun", "time": "Closed"}], "id": "7873500002", "name": "USPS COLLECTION BOX - BLUE BOX", "address": {"city": "AUSTIN", "state": "TX", "street": "5321 INDUSTRIAL OAKS BLVD", "postcode": "78735"}}},
{"geometry": {"type": "Point", "coordinates": [-97.8767172364, 30.2353135158]}, "type": "Feature", "properties": {"collection_times": [{"days": "Mon-Fri", "time": "2:15pm"}, {"days": "Sat", "time": "12:30pm"}, {"days": "Sun", "time": "Closed"}], "id": "7873500003", "name": "USPS COLLECTION BOX - BLUE BOX", "address": {"city": "AUSTIN", "state": "TX", "street": "7010 W HIGHWAY 71", "postcode": "78735"}}},
{"geometry": {"type": "Point", "coordinates": [-97.8654294661, 30.233917287]}, "type": "Feature", "properties": {"collection_times": [{"days": "Mon-Fri", "time": "2:30pm"}, {"days": "Sat", "time": "12:30pm"}, {"days": "Sun", "time": "Closed"}], "id": "7873500006", "name": "USPS COLLECTION BOX - BLUE BOX", "address": {"city": "AUSTIN", "state": "TX", "street": "6705 W HIGHWAY 290", "postcode": "78735"}}},
{"geometry": {"type": "Point", "coordinates": [-97.8767822992, 30.2353620171]}, "type": "Feature", "properties": {"collection_times": [{"days": "Mon-Fri", "time": "2:30pm"}, {"days": "Sat", "time": "12:30pm"}, {"days": "Sun", "time": "Closed"}], "id": "7873500007", "name": "USPS COLLECTION BOX - BLUE BOX", "address": {"city": "AUSTIN", "state": "TX", "street": "7101 W HIGHWAY 71", "postcode": "78735"}}},
{"geometry": {"type": "Point", "coordinates": [-97.8385230403, 30.2369956834]}, "type": "Feature", "properties": {"collection_times": [{"days": "Mon-Fri", "time": "2:15pm"}, {"days": "Sat", "time": "12:15pm"}, {"days": "Sun", "time": "Closed"}], "id": "7873500008", "name": "USPS COLLECTION BOX - BLUE BOX", "address": {"city": "AUSTIN", "state": "TX", "street": "5316 W HIGHWAY 290", "postcode": "78735"}}},
{"geometry": {"type": "Point", "coordinates": [-97.8767822992, 30.2353620171]}, "type": "Feature", "properties": {"collection_times": [{"days": "Mon-Fri", "time": "2:30pm"}, {"days": "Sat", "time": "12:30pm"}, {"days": "Sun", "time": "Closed"}], "id": "7873500009", "name": "USPS COLLECTION BOX - BLUE BOX", "address": {"city": "AUSTIN", "state": "TX", "street": "7101 W HIGHWAY 71", "postcode": "78735"}}},
{"geometry": {"type": "Point", "coordinates": [-97.8654060624, 30.2541031745]}, "type": "Feature", "properties": {"collection_times": [{"days": "Mon-Fri", "time": "2:15pm"}, {"days": "Sat-Sun", "time": "Closed"}], "id": "7873500015", "name": "USPS COLLECTION BOX - BLUE BOX", "address": {"city": "AUSTIN", "state": "TX", "street": "4425 S MO PAC EXPY", "postcode": "78735"}}},
{"geometry": {"type": "Point", "coordinates": [-97.9683220298, 30.2114579653]}, "type": "Feature", "properties": {"collection_times": [{"days": "Mon-Sat", "time": "12:00pm"}, {"days": "Sun", "time": "Closed"}], "id": "7873700001", "name": "USPS COLLECTION BOX - BLUE BOX", "address": {"city": "AUSTIN", "state": "TX", "street": "12009 W HIGHWAY 290", "postcode": "78737"}}},
{"geometry": {"type": "Point", "coordinates": [-97.916023414, 30.310085986]}, "type": "Feature", "properties": {"collection_times": [{"days": "Mon-Fri", "time": "2:45pm"}, {"days": "Sat-Sun", "time": "Closed"}], "id": "7873800001", "name": "USPS COLLECTION BOX - BLUE BOX", "address": {"city": "AUSTIN", "state": "TX", "street": "11612 FM 2244", "postcode": "78738"}}},
{"geometry": {"type": "Point", "coordinates": [-97.9392505144, 30.3097948615]}, "type": "Feature", "properties": {"collection_times": [{"days": "Mon-Fri", "time": "2:30pm"}, {"days": "Sat-Sun", "time": "Closed"}], "id": "7873800002", "name": "USPS COLLECTION BOX - BLUE BOX", "address": {"city": "AUSTIN", "state": "TX", "street": "13420 GALLERIA CIR STE A-110", "postcode": "78738"}}},
{"geometry": {"type": "Point", "coordinates": [-97.8918626601, 30.1925164263]}, "type": "Feature", "properties": {"collection_times": [{"days": "Mon-Sat", "time": "12:00pm"}, {"days": "Sun", "time": "Closed"}], "id": "7873900001", "name": "USPS COLLECTION BOX - BLUE BOX", "address": {"city": "AUSTIN", "state": "TX", "street": "6316 NEEDHAM LN", "postcode": "78739"}}},
{"geometry": {"type": "Point", "coordinates": [-97.884570901, 30.1934545128]}, "type": "Feature", "properties": {"collection_times": [{"days": "Mon-Sat", "time": "12:00pm"}, {"days": "Sun", "time": "Closed"}], "id": "7873900003", "name": "USPS COLLECTION BOX - BLUE BOX", "address": {"city": "AUSTIN", "state": "TX", "street": "5919 LA CROSSE AVE", "postcode": "78739"}}},
{"geometry": {"type": "Point", "coordinates": [-97.7279873546, 30.2145975384]}, "type": "Feature", "properties": {"collection_times": [{"days": "Mon-Fri", "time": "4:00pm"}, {"days": "Sat-Sun", "time": "Closed"}], "id": "7874100002", "name": "USPS COLLECTION BOX - BLUE BOX", "address": {"city": "AUSTIN", "state": "TX", "street": "4818 E BEN WHITE BLVD", "postcode": "78741"}}},
{"geometry": {"type": "Point", "coordinates": [-97.7021136762, 30.2270174245]}, "type": "Feature", "properties": {"collection_times": [{"days": "Mon-Fri", "time": "4:00pm"}, {"days": "Sat-Sun", "time": "Closed"}], "id": "7874100008", "name": "USPS COLLECTION BOX - BLUE BOX", "address": {"city": "AUSTIN", "state": "TX", "street": "1700 MONTOPOLIS DR", "postcode": "78741"}}},
{"geometry": {"type": "Point", "coordinates": [-97.7336525451, 30.2312216607]}, "type": "Feature", "properties": {"collection_times": [{"days": "Mon-Sat", "time": "12:00pm"}, {"days": "Sun", "time": "Closed"}], "id": "7874100011", "name": "USPS COLLECTION BOX - BLUE BOX", "address": {"city": "AUSTIN", "state": "TX", "street": "2223 BURTON DR", "postcode": "78741"}}},
{"geometry": {"type": "Point", "coordinates": [-97.7282736307, 30.2358706894]}, "type": "Feature", "properties": {"collection_times": [{"days": "Mon-Sat", "time": "12:00pm"}, {"days": "Sun", "time": "Closed"}], "id": "7874100012", "name": "USPS COLLECTION BOX - BLUE BOX", "address": {"city": "AUSTIN", "state": "TX", "street": "2204 WOODLAND AVE", "postcode": "78741"}}},
{"geometry": {"type": "Point", "coordinates": [-97.7348047472, 30.2424467583]}, "type": "Feature", "properties": {"collection_times": [{"days": "Mon-Fri", "time": "12:15pm"}, {"days": "Sat-Sun", "time": "Closed"}], "id": "7874100013", "name": "USPS COLLECTION BOX - BLUE BOX", "address": {"city": "AUSTIN", "state": "TX", "street": "1507 SUMMIT ST", "postcode": "78741"}}},
{"geometry": {"type": "Point", "coordinates": [-97.720396307, 30.2151902008]}, "type": "Feature", "properties": {"collection_times": [{"days": "Mon-Fri", "time": "5:00pm"}, {"days": "Sat", "time": "1:30pm"}, {"days": "Sun", "time": "Closed"}], "id": "7874100014", "name": "USPS COLLECTION BOX - BLUE BOX", "address": {"city": "AUSTIN", "state": "TX", "street": "3019 ALVIN DEVANE BLVD", "postcode": "78741"}}},
{"geometry": {"type": "Point", "coordinates": [-97.7242598509, 30.235451922]}, "type": "Feature", "properties": {"collection_times": [{"days": "Mon-Sat", "time": "12:00pm"}, {"days": "Sun", "time": "Closed"}], "id": "7874100016", "name": "USPS COLLECTION BOX - BLUE BOX", "address": {"city": "AUSTIN", "state": "TX", "street": "2508 E RIVERSIDE DR", "postcode": "78741"}}},
{"geometry": {"type": "Point", "coordinates": [-97.7145126459, 30.2301428342]}, "type": "Feature", "properties": {"collection_times": [{"days": "Mon-Fri", "time": "12:15pm"}, {"days": "Sat", "time": "12:00pm"}, {"days": "Sun", "time": "Closed"}], "id": "7874100018", "name": "USPS COLLECTION BOX - BLUE BOX", "address": {"city": "AUSTIN", "state": "TX", "street": "1301 S I H 35", "postcode": "78741"}}},
{"geometry": {"type": "Point", "coordinates": [-97.7145126459, 30.2301428342]}, "type": "Feature", "properties": {"collection_times": [{"days": "Mon-Fri", "time": "12:00pm"}, {"days": "Sat-Sun", "time": "Closed"}], "id": "7874100020", "name": "USPS COLLECTION BOX - BLUE BOX", "address": {"city": "AUSTIN", "state": "TX", "street": "2211 S I H 35", "postcode": "78741"}}},
{"geometry": {"type": "Point", "coordinates": [-97.7145126459, 30.2301428342]}, "type": "Feature", "properties": {"collection_times": [{"days": "Mon-Fri", "time": "12:15pm"}, {"days": "Sat-Sun", "time": "Closed"}], "id": "7874100025", "name": "USPS COLLECTION BOX - BLUE BOX", "address": {"city": "AUSTIN", "state": "TX", "street": "2101 S I H 35", "postcode": "78741"}}},
{"geometry": {"type": "Point", "coordinates": [-97.7455400998, 30.2214516026]}, "type": "Feature", "properties": {"collection_times": [{"days": "Mon-Fri", "time": "12:00pm"}, {"days": "Sat", "time": "1:30pm"}, {"days": "Sun", "time": "Closed"}], "id": "7874100026", "name": "USPS COLLECTION BOX - BLUE BOX", "address": {"city": "AUSTIN", "state": "TX", "street": "1615 WOODWARD ST", "postcode": "78741"}}},
{"geometry": {"type": "Point", "coordinates": [-97.7120280552, 30.2159011592]}, "type": "Feature", "properties": {"collection_times": [{"days": "Mon-Fri", "time": "4:00pm"}, {"days": "Sat-Sun", "time": "Closed"}], "id": "7874100027", "name": "USPS COLLECTION BOX - BLUE BOX", "address": {"city": "AUSTIN", "state": "TX", "street": "6101 E OLTORF ST", "postcode": "78741"}}},
{"geometry": {"type": "Point", "coordinates": [-97.7432960266, 30.2165577014]}, "type": "Feature", "properties": {"collection_times": [{"days": "Mon-Fri", "time": "12:00pm"}, {"days": "Sat-Sun", "time": "Closed"}], "id": "7874100031", "name": "USPS COLLECTION BOX - BLUE BOX", "address": {"city": "AUSTIN", "state": "TX", "street": "2028 E BEN WHITE BLVD", "postcode": "78741"}}},
{"geometry": {"type": "Point", "coordinates": [-97.7432013899, 30.2278525936]}, "type": "Feature", "properties": {"collection_times": [{"days": "Mon-Fri", "time": "12:00pm"}, {"days": "Sat-Sun", "time": "Closed"}], "id": "7874100033", "name": "USPS COLLECTION BOX - BLUE BOX", "address": {"city": "AUSTIN", "state": "TX", "street": "1627 ROYAL HILL DR", "postcode": "78741"}}},
{"geometry": {"type": "Point", "coordinates": [-97.7339198938, 30.2138428106]}, "type": "Feature", "properties": {"collection_times": [{"days": "Mon-Sat", "time": "5:00pm"}, {"days": "Sun", "time": "Closed"}], "id": "7874400001", "name": "USPS COLLECTION BOX - BLUE BOX", "address": {"city": "AUSTIN", "state": "TX", "street": "4516 BURLESON RD", "postcode": "78744"}}},
{"geometry": {"type": "Point", "coordinates": [-97.7372636763, 30.1892682702]}, "type": "Feature", "properties": {"collection_times": [{"days": "Mon-Sat", "time": "10:00am"}, {"days": "Sun", "time": "Closed"}], "id": "7874400002", "name": "USPS COLLECTION BOX - BLUE BOX", "address": {"city": "AUSTIN", "state": "TX", "street": "6607 S I H 35", "postcode": "78744"}}},
{"geometry": {"type": "Point", "coordinates": [-97.748993157, 30.2125581171]}, "type": "Feature", "properties": {"collection_times": [{"days": "Mon-Fri", "time": "1:15pm"}, {"days": "Sat", "time": "12:45pm"}, {"days": "Sun", "time": "Closed"}], "id": "7874400006", "name": "USPS COLLECTION BOX - BLUE BOX", "address": {"city": "AUSTIN", "state": "TX", "street": "1821 DIRECTORS BLVD", "postcode": "78744"}}},
{"geometry": {"type": "Point", "coordinates": [-97.746138677, 30.213599121]}, "type": "Feature", "properties": {"collection_times": [{"days": "Mon-Fri", "time": "1:00pm"}, {"days": "Sat", "time": "12:45pm"}, {"days": "Sun", "time": "Closed"}], "id": "7874400007", "name": "USPS COLLECTION BOX - BLUE BOX", "address": {"city": "AUSTIN", "state": "TX", "street": "4115 FREIDRICH LN", "postcode": "78744"}}},
{"geometry": {"type": "Point", "coordinates": [-97.7369115971, 30.2123380867]}, "type": "Feature", "properties": {"collection_times": [{"days": "Mon-Fri", "time": "1:00pm"}, {"days": "Sat", "time": "12:45pm"}, {"days": "Sun", "time": "Closed"}], "id": "7874400008", "name": "USPS COLLECTION BOX - BLUE BOX", "address": {"city": "AUSTIN", "state": "TX", "street": "3913 TODD LN", "postcode": "78744"}}},
{"geometry": {"type": "Point", "coordinates": [-97.732568786, 30.213186043]}, "type": "Feature", "properties": {"collection_times": [{"days": "Mon-Sat", "time": "5:00pm"}, {"days": "Sun", "time": "Closed"}], "id": "7874400013", "name": "USPS COLLECTION BOX - BLUE BOX", "address": {"city": "AUSTIN", "state": "TX", "street": "4516 BURLESON RD", "postcode": "78744"}}},
{"geometry": {"type": "Point", "coordinates": [-97.7339198938, 30.2138428106]}, "type": "Feature", "properties": {"collection_times": [{"days": "Mon-Sat", "time": "5:00pm"}, {"days": "Sun", "time": "Closed"}], "id": "7874400022", "name": "USPS COLLECTION BOX - PO LOBBY", "address": {"city": "AUSTIN", "state": "TX", "street": "4516 BURLESON RD", "postcode": "78744"}}},
{"geometry": {"type": "Point", "coordinates": [-97.7339198938, 30.2138428106]}, "type": "Feature", "properties": {"collection_times": [{"days": "Mon-Sat", "time": "5:00pm"}, {"days": "Sun", "time": "Closed"}], "id": "7874400023", "name": "USPS COLLECTION BOX - PO LOBBY", "address": {"city": "AUSTIN", "state": "TX", "street": "4516 BURLESON RD", "postcode": "78744"}}},
{"geometry": {"type": "Point", "coordinates": [-97.697302582, 30.2114000003]}, "type": "Feature", "properties": {"collection_times": [{"days": "Mon-Fri", "time": "12:30pm"}, {"days": "Sat-Sun", "time": "Closed"}], "id": "7874400025", "name": "USPS COLLECTION BOX - BLUE BOX", "address": {"city": "AUSTIN", "state": "TX", "street": "7301 METRO CENTER DR", "postcode": "78744"}}},
{"geometry": {"type": "Point", "coordinates": [-97.7141491007, 30.1966354894]}, "type": "Feature", "properties": {"collection_times": [{"days": "Mon-Fri", "time": "3:00pm"}, {"days": "Sat-Sun", "time": "Closed"}], "id": "7874400026", "name": "USPS COLLECTION BOX - BLUE BOX", "address": {"city": "AUSTIN", "state": "TX", "street": "4200 SMITH SCHOOL RD", "postcode": "78744"}}},
{"geometry": {"type": "Point", "coordinates": [-97.6907056243, 30.2076638075]}, "type": "Feature", "properties": {"collection_times": [{"days": "Mon-Fri", "time": "3:30pm"}, {"days": "Sat-Sun", "time": "Closed"}], "id": "7874400027", "name": "USPS COLLECTION BOX - BLUE BOX", "address": {"city": "AUSTIN", "state": "TX", "street": "7901 METROPOLIS DR", "postcode": "78744"}}},
{"geometry": {"type": "Point", "coordinates": [-97.7816475562, 30.2082497806]}, "type": "Feature", "properties": {"collection_times": [{"days": "Mon-Sat", "time": "12:00pm"}, {"days": "Sun", "time": "Closed"}], "id": "7874500004", "name": "USPS COLLECTION BOX - BLUE BOX", "address": {"city": "AUSTIN", "state": "TX", "street": "5600 S 1ST ST", "postcode": "78745"}}},
{"geometry": {"type": "Point", "coordinates": [-97.7854957218, 30.1960948772]}, "type": "Feature", "properties": {"collection_times": [{"days": "Mon-Fri", "time": "12:15pm"}, {"days": "Sat", "time": "12:00pm"}, {"days": "Sun", "time": "Closed"}], "id": "7874500005", "name": "USPS COLLECTION BOX - BLUE BOX", "address": {"city": "AUSTIN", "state": "TX", "street": "500 W WILLIAM CANNON DR", "postcode": "78745"}}},
{"geometry": {"type": "Point", "coordinates": [-97.7935753315, 30.2303131482]}, "type": "Feature", "properties": {"collection_times": [{"days": "Mon-Fri", "time": "1:00pm"}, {"days": "Sat", "time": "2:30pm"}, {"days": "Sun", "time": "Closed"}], "id": "7874500009", "name": "USPS COLLECTION BOX - BLUE BOX", "address": {"city": "AUSTIN", "state": "TX", "street": "2205 WESTERN TRAILS BLVD", "postcode": "78745"}}},
{"geometry": {"type": "Point", "coordinates": [-97.7687793286, 30.2152753739]}, "type": "Feature", "properties": {"collection_times": [{"days": "Mon-Sat", "time": "12:00pm"}, {"days": "Sun", "time": "Closed"}], "id": "7874500010", "name": "USPS COLLECTION BOX - BLUE BOX", "address": {"city": "AUSTIN", "state": "TX", "street": "4619 S CONGRESS AVE", "postcode": "78745"}}},
{"geometry": {"type": "Point", "coordinates": [-97.8218291234, 30.2273604826]}, "type": "Feature", "properties": {"collection_times": [{"days": "Mon-Fri", "time": "12:45pm"}, {"days": "Sat", "time": "2:30pm"}, {"days": "Sun", "time": "Closed"}], "id": "7874500012", "name": "USPS COLLECTION BOX - BLUE BOX", "address": {"city": "AUSTIN", "state": "TX", "street": "5400 BRODIE LN", "postcode": "78745"}}},
{"geometry": {"type": "Point", "coordinates": [-97.7734804076, 30.2269961313]}, "type": "Feature", "properties": {"collection_times": [{"days": "Mon-Sat", "time": "12:00pm"}, {"days": "Sun", "time": "Closed"}], "id": "7874500014", "name": "USPS COLLECTION BOX - BLUE BOX", "address": {"city": "AUSTIN", "state": "TX", "street": "4007 JAMES CASEY ST", "postcode": "78745"}}},
{"geometry": {"type": "Point", "coordinates": [-97.7743226743, 30.2249732715]}, "type": "Feature", "properties": {"collection_times": [{"days": "Mon-Sat", "time": "12:00pm"}, {"days": "Sun", "time": "Closed"}], "id": "7874500015", "name": "USPS COLLECTION BOX - BLUE BOX", "address": {"city": "AUSTIN", "state": "TX", "street": "4207 JAMES CASEY ST", "postcode": "78745"}}},
{"geometry": {"type": "Point", "coordinates": [-97.795232657, 30.1994603955]}, "type": "Feature", "properties": {"collection_times": [{"days": "Mon-Fri", "time": "12:15pm"}, {"days": "Sat-Sun", "time": "Closed"}], "id": "7874500017", "name": "USPS COLLECTION BOX - BLUE BOX", "address": {"city": "AUSTIN", "state": "TX", "street": "1110 W WILLIAM CANNON DR", "postcode": "78745"}}},
{"geometry": {"type": "Point", "coordinates": [-97.8047992462, 30.2023775723]}, "type": "Feature", "properties": {"collection_times": [{"days": "Mon-Sat", "time": "12:15pm"}, {"days": "Sun", "time": "Closed"}], "id": "7874500018", "name": "USPS COLLECTION BOX - BLUE BOX", "address": {"city": "AUSTIN", "state": "TX", "street": "1901 W WILLIAM CANNON DR", "postcode": "78745"}}},
{"geometry": {"type": "Point", "coordinates": [-97.8080287241, 30.1988925752]}, "type": "Feature", "properties": {"collection_times": [{"days": "Mon-Sat", "time": "5:00pm"}, {"days": "Sun", "time": "Closed"}], "id": "7874500024", "name": "USPS COLLECTION BOX - BLUE BOX", "address": {"city": "AUSTIN", "state": "TX", "street": "7310 MANCHACA RD", "postcode": "78745"}}},
{"geometry": {"type": "Point", "coordinates": [-97.7956469991, 30.2068816547]}, "type": "Feature", "properties": {"collection_times": [{"days": "Mon-Sat", "time": "5:00pm"}, {"days": "Sun", "time": "Closed"}], "id": "7874500025", "name": "USPS COLLECTION BOX - EXPRESS", "address": {"city": "AUSTIN", "state": "TX", "street": "7310 MANCHACA RD", "postcode": "78745"}}},
{"geometry": {"type": "Point", "coordinates": [-97.8080287241, 30.1988925752]}, "type": "Feature", "properties": {"collection_times": [{"days": "Mon-Sat", "time": "5:00pm"}, {"days": "Sun", "time": "Closed"}], "id": "7874500026", "name": "USPS COLLECTION BOX - BLUE BOX", "address": {"city": "AUSTIN", "state": "TX", "street": "7310 MANCHACA RD", "postcode": "78745"}}},
{"geometry": {"type": "Point", "coordinates": [-97.802095002, 30.2326447603]}, "type": "Feature", "properties": {"collection_times": [{"days": "Mon-Fri", "time": "12:45pm"}, {"days": "Sat", "time": "2:30pm"}, {"days": "Sun", "time": "Closed"}], "id": "7874500031", "name": "USPS COLLECTION BOX - BLUE BOX", "address": {"city": "AUSTIN", "state": "TX", "street": "4544 S LAMAR BLVD", "postcode": "78745"}}},
{"geometry": {"type": "Point", "coordinates": [-97.800225011, 30.2140441195]}, "type": "Feature", "properties": {"collection_times": [{"days": "Mon-Sat", "time": "12:00pm"}, {"days": "Sun", "time": "Closed"}], "id": "7874500034", "name": "USPS COLLECTION BOX - BLUE BOX", "address": {"city": "AUSTIN", "state": "TX", "street": "5730 MANCHACA RD", "postcode": "78745"}}},
{"geometry": {"type": "Point", "coordinates": [-97.8080287241, 30.1988925752]}, "type": "Feature", "properties": {"collection_times": [{"days": "Mon-Sat", "time": "5:00pm"}, {"days": "Sun", "time": "Closed"}], "id": "7874500037", "name": "USPS COLLECTION BOX - PO LOBBY", "address": {"city": "AUSTIN", "state": "TX", "street": "7310 MANCHACA RD", "postcode": "78745"}}},
{"geometry": {"type": "Point", "coordinates": [-97.8080287241, 30.1988925752]}, "type": "Feature", "properties": {"collection_times": [{"days": "Mon-Sat", "time": "5:00pm"}, {"days": "Sun", "time": "Closed"}], "id": "7874500038", "name": "USPS COLLECTION BOX - PO LOBBY", "address": {"city": "AUSTIN", "state": "TX", "street": "7310 MANCHACA RD", "postcode": "78745"}}},
{"geometry": {"type": "Point", "coordinates": [-97.837551831, 30.2029004401]}, "type": "Feature", "properties": {"collection_times": [{"days": "Mon-Sat", "time": "1:00pm"}, {"days": "Sun", "time": "Closed"}], "id": "7874500040", "name": "USPS COLLECTION BOX - BLUE BOX", "address": {"city": "AUSTIN", "state": "TX", "street": "8010 BRODIE LN", "postcode": "78745"}}},
{"geometry": {"type": "Point", "coordinates": [-97.8080287241, 30.1988925752]}, "type": "Feature", "properties": {"collection_times": [{"days": "Mon-Sat", "time": "5:00pm"}, {"days": "Sun", "time": "Closed"}], "id": "7874500041", "name": "USPS COLLECTION BOX - APC", "address": {"city": "AUSTIN", "state": "TX", "street": "7310 MANCHACA RD", "postcode": "78745"}}},
{"geometry": {"type": "Point", "coordinates": [-97.79933, 30.273642]}, "type": "Feature", "properties": {"collection_times": [{"days": "Mon-Fri", "time": "5:00pm"}, {"days": "Sat", "time": "3:00pm"}, {"days": "Sun", "time": "Closed"}], "id": "7874600001", "name": "USPS COLLECTION BOX - EXPRESS", "address": {"city": "WEST LAKE HILLS", "state": "TX", "street": "3201 BEE CAVES RD", "postcode": "78746"}}},
{"geometry": {"type": "Point", "coordinates": [-97.7839839002, 30.2645574443]}, "type": "Feature", "properties": {"collection_times": [{"days": "Mon-Fri", "time": "3:15pm"}, {"days": "Sat", "time": "1:15pm"}, {"days": "Sun", "time": "Closed"}], "id": "7874600004", "name": "USPS COLLECTION BOX - BLUE BOX", "address": {"city": "WEST LAKE HILLS", "state": "TX", "street": "2525 WALLINGWOOD DR", "postcode": "78746"}}},
{"geometry": {"type": "Point", "coordinates": [-97.8267372202, 30.3054121152]}, "type": "Feature", "properties": {"collection_times": [{"days": "Mon-Fri", "time": "3:45pm"}, {"days": "Sat-Sun", "time": "Closed"}], "id": "7874600011", "name": "USPS COLLECTION BOX - BLUE BOX", "address": {"city": "WEST LAKE HILLS", "state": "TX", "street": "110 WILD BASIN RD", "postcode": "78746"}}},
{"geometry": {"type": "Point", "coordinates": [-97.811823006, 30.274323415]}, "type": "Feature", "properties": {"collection_times": [{"days": "Mon-Fri", "time": "4:00pm"}, {"days": "Sat", "time": "2:00pm"}, {"days": "Sun", "time": "Closed"}], "id": "7874600013", "name": "USPS COLLECTION BOX - BLUE BOX", "address": {"city": "WEST LAKE HILLS", "state": "TX", "street": "1309 WESTBANK DR", "postcode": "78746"}}},
{"geometry": {"type": "Point", "coordinates": [-97.7854259272, 30.2744055777]}, "type": "Feature", "properties": {"collection_times": [{"days": "Mon-Fri", "time": "3:30pm"}, {"days": "Sat", "time": "1:30pm"}, {"days": "Sun", "time": "Closed"}], "id": "7874600014", "name": "USPS COLLECTION BOX - BLUE BOX", "address": {"city": "WEST LAKE HILLS", "state": "TX", "street": "2805 ROLLINGWOOD DR", "postcode": "78746"}}},
{"geometry": {"type": "Point", "coordinates": [-97.8154316813, 30.2622116367]}, "type": "Feature", "properties": {"collection_times": [{"days": "Mon-Fri", "time": "3:45pm"}, {"days": "Sat", "time": "1:45pm"}, {"days": "Sun", "time": "Closed"}], "id": "7874600015", "name": "USPS COLLECTION BOX - BLUE BOX", "address": {"city": "WEST LAKE HILLS", "state": "TX", "street": "2501 S CAPITAL OF TEXAS HWY", "postcode": "78746"}}},
{"geometry": {"type": "Point", "coordinates": [-97.8175420801, 30.2720195495]}, "type": "Feature", "properties": {"collection_times": [{"days": "Mon-Fri", "time": "4:00pm"}, {"days": "Sat", "time": "1:45pm"}, {"days": "Sun", "time": "Closed"}], "id": "7874600016", "name": "USPS COLLECTION BOX - BLUE BOX", "address": {"city": "WEST LAKE HILLS", "state": "TX", "street": "1705 S CAPITAL OF TEXAS HWY", "postcode": "78746"}}},
{"geometry": {"type": "Point", "coordinates": [-97.8011829406, 30.3489012356]}, "type": "Feature", "properties": {"collection_times": [{"days": "Mon-Fri", "time": "3:30pm"}, {"days": "Sat-Sun", "time": "Closed"}], "id": "7874600017", "name": "USPS COLLECTION BOX - BLUE BOX", "address": {"city": "WEST LAKE HILLS", "state": "TX", "street": "5000 PLAZA ON THE LK", "postcode": "78746"}}},
{"geometry": {"type": "Point", "coordinates": [-97.7836456249, 30.2660375074]}, "type": "Feature", "properties": {"collection_times": [{"days": "Mon-Fri", "time": "3:45pm"}, {"days": "Sat", "time": "1:30pm"}, {"days": "Sun", "time": "Closed"}], "id": "7874600018", "name": "USPS COLLECTION BOX - BLUE BOX", "address": {"city": "WEST LAKE HILLS", "state": "TX", "street": "1000 MO PAC CIR", "postcode": "78746"}}},
{"geometry": {"type": "Point", "coordinates": [-97.7868800761, 30.2573540481]}, "type": "Feature", "properties": {"collection_times": [{"days": "Mon-Fri", "time": "3:15pm"}, {"days": "Sat", "time": "1:00pm"}, {"days": "Sun", "time": "Closed"}], "id": "7874600019", "name": "USPS COLLECTION BOX - BLUE BOX", "address": {"city": "WEST LAKE HILLS", "state": "TX", "street": "2800 BARTON SKWY", "postcode": "78746"}}},
{"geometry": {"type": "Point", "coordinates": [-97.8100669624, 30.2554439285]}, "type": "Feature", "properties": {"collection_times": [{"days": "Mon-Fri", "time": "3:45pm"}, {"days": "Sat", "time": "1:45pm"}, {"days": "Sun", "time": "Closed"}], "id": "7874600020", "name": "USPS COLLECTION BOX - BLUE BOX", "address": {"city": "WEST LAKE HILLS", "state": "TX", "street": "2901 S CAPITAL OF TEXAS HWY", "postcode": "78746"}}},
{"geometry": {"type": "Point", "coordinates": [-97.8298377556, 30.2950056251]}, "type": "Feature", "properties": {"collection_times": [{"days": "Mon-Fri", "time": "4:00pm"}, {"days": "Sat", "time": "3:00pm"}, {"days": "Sun", "time": "Closed"}], "id": "7874600022", "name": "USPS COLLECTION BOX - BLUE BOX", "address": {"city": "WEST LAKE HILLS", "state": "TX", "street": "609 CASTLE RIDGE RD", "postcode": "78746"}}},
{"geometry": {"type": "Point", "coordinates": [-97.7988586523, 30.2921205118]}, "type": "Feature", "properties": {"collection_times": [{"days": "Mon-Sat", "time": "1:00pm"}, {"days": "Sun", "time": "Closed"}], "id": "7874600023", "name": "USPS COLLECTION BOX - BLUE BOX", "address": {"city": "WEST LAKE HILLS", "state": "TX", "street": "1010 WESTLAKE DR", "postcode": "78746"}}},
{"geometry": {"type": "Point", "coordinates": [-97.8174569071, 30.2736425692]}, "type": "Feature", "properties": {"collection_times": [{"days": "Mon-Fri", "time": "4:00pm"}, {"days": "Sat", "time": "2:00pm"}, {"days": "Sun", "time": "Closed"}], "id": "7874600024", "name": "USPS COLLECTION BOX - BLUE BOX", "address": {"city": "WEST LAKE HILLS", "state": "TX", "street": "1515 S CAPITAL OF TEXAS HWY", "postcode": "78746"}}},
{"geometry": {"type": "Point", "coordinates": [-97.8095683967, 30.2909227511]}, "type": "Feature", "properties": {"collection_times": [{"days": "Mon-Fri", "time": "5:00pm"}, {"days": "Sat", "time": "3:00pm"}, {"days": "Sun", "time": "Closed"}], "id": "7874600030", "name": "USPS COLLECTION BOX - BLUE BOX", "address": {"city": "WEST LAKE HILLS", "state": "TX", "street": "3201 BEE CAVES RD", "postcode": "78746"}}},
{"geometry": {"type": "Point", "coordinates": [-97.8227269893, 30.2819930765]}, "type": "Feature", "properties": {"collection_times": [{"days": "Mon-Fri", "time": "2:45pm"}, {"days": "Sat-Sun", "time": "Closed"}], "id": "7874600031", "name": "USPS COLLECTION BOX - BLUE BOX", "address": {"city": "WEST LAKE HILLS", "state": "TX", "street": "1101 S CAPITAL OF TEXAS HWY", "postcode": "78746"}}},
{"geometry": {"type": "Point", "coordinates": [-97.8298377556, 30.2950056251]}, "type": "Feature", "properties": {"collection_times": [{"days": "Mon-Fri", "time": "4:00pm"}, {"days": "Sat", "time": "3:00pm"}, {"days": "Sun", "time": "Closed"}], "id": "7874600038", "name": "USPS COLLECTION BOX - BLUE BOX", "address": {"city": "WEST LAKE HILLS", "state": "TX", "street": "609 CASTLE RIDGE RD", "postcode": "78746"}}},
{"geometry": {"type": "Point", "coordinates": [-97.7854482366, 30.322079358]}, "type": "Feature", "properties": {"collection_times": [{"days": "Mon-Sat", "time": "11:00am"}, {"days": "Sun", "time": "Closed"}], "id": "7874600039", "name": "USPS COLLECTION BOX - BLUE BOX", "address": {"city": "WEST LAKE HILLS", "state": "TX", "street": "3400 THREE RIVERS DR", "postcode": "78746"}}},
{"geometry": {"type": "Point", "coordinates": [-97.825877209, 30.308617934]}, "type": "Feature", "properties": {"collection_times": [{"days": "Mon-Fri", "time": "3:45pm"}, {"days": "Sat-Sun", "time": "Closed"}], "id": "7874600043", "name": "USPS COLLECTION BOX - BLUE BOX", "address": {"city": "WEST LAKE HILLS", "state": "TX", "street": "500 N CAPITAL OF TEXAS HWY", "postcode": "78746"}}},
{"geometry": {"type": "Point", "coordinates": [-97.8230913406, 30.282065237]}, "type": "Feature", "properties": {"collection_times": [{"days": "Mon-Fri", "time": "4:00pm"}, {"days": "Sat-Sun", "time": "Closed"}], "id": "7874600046", "name": "USPS COLLECTION BOX - BLUE BOX", "address": {"city": "WEST LAKE HILLS", "state": "TX", "street": "1120 S CAPITAL OF TEXAS HWY BLDG 2", "postcode": "78746"}}},
{"geometry": {"type": "Point", "coordinates": [-97.8236468183, 30.2939436562]}, "type": "Feature", "properties": {"collection_times": [{"days": "Mon-Fri", "time": "3:15pm"}, {"days": "Sat", "time": "2:45pm"}, {"days": "Sun", "time": "Closed"}], "id": "7874600052", "name": "USPS COLLECTION BOX - BLUE BOX", "address": {"city": "WEST LAKE HILLS", "state": "TX", "street": "5524 BEE CAVES RD", "postcode": "78746"}}},
{"geometry": {"type": "Point", "coordinates": [-97.8095683967, 30.2909227511]}, "type": "Feature", "properties": {"collection_times": [{"days": "Mon-Fri", "time": "5:00pm"}, {"days": "Sat", "time": "3:00pm"}, {"days": "Sun", "time": "Closed"}], "id": "7874600055", "name": "USPS COLLECTION BOX - BLUE BOX", "address": {"city": "WEST LAKE HILLS", "state": "TX", "street": "3201 BEE CAVES RD", "postcode": "78746"}}},
{"geometry": {"type": "Point", "coordinates": [-97.8051352065, 30.3367486981]}, "type": "Feature", "properties": {"collection_times": [{"days": "Mon-Fri", "time": "3:30pm"}, {"days": "Sat", "time": "2:45pm"}, {"days": "Sun", "time": "Closed"}], "id": "7874600057", "name": "USPS COLLECTION BOX - BLUE BOX", "address": {"city": "WEST LAKE HILLS", "state": "TX", "street": "3801 N CAPITAL OF TEXAS HWY", "postcode": "78746"}}},
{"geometry": {"type": "Point", "coordinates": [-97.8281768812, 30.2926610005]}, "type": "Feature", "properties": {"collection_times": [{"days": "Mon-Fri", "time": "2:45pm"}, {"days": "Sat", "time": "2:30pm"}, {"days": "Sun", "time": "Closed"}], "id": "7874600058", "name": "USPS COLLECTION BOX - BLUE BOX", "address": {"city": "WEST LAKE HILLS", "state": "TX", "street": "701 S CAPITAL OF TEXAS HWY", "postcode": "78746"}}},
{"geometry": {"type": "Point", "coordinates": [-97.7806384922, 30.2661154013]}, "type": "Feature", "properties": {"collection_times": [{"days": "Mon-Fri", "time": "3:30pm"}, {"days": "Sat", "time": "1:15pm"}, {"days": "Sun", "time": "Closed"}], "id": "7874600059", "name": "USPS COLLECTION BOX - BLUE BOX", "address": {"city": "WEST LAKE HILLS", "state": "TX", "street": "901 S MO PAC EXPY", "postcode": "78746"}}},
{"geometry": {"type": "Point", "coordinates": [-97.8095683967, 30.2909227511]}, "type": "Feature", "properties": {"collection_times": [{"days": "Mon-Fri", "time": "5:00pm"}, {"days": "Sat", "time": "3:00pm"}, {"days": "Sun", "time": "Closed"}], "id": "7874600063", "name": "USPS COLLECTION BOX - PO LOBBY", "address": {"city": "WEST LAKE HILLS", "state": "TX", "street": "3201 BEE CAVES RD STE 120", "postcode": "78746"}}},
{"geometry": {"type": "Point", "coordinates": [-97.8095683967, 30.2909227511]}, "type": "Feature", "properties": {"collection_times": [{"days": "Mon-Fri", "time": "5:00pm"}, {"days": "Sat", "time": "3:00pm"}, {"days": "Sun", "time": "Closed"}], "id": "7874600064", "name": "USPS COLLECTION BOX - PO LOBBY", "address": {"city": "WEST LAKE HILLS", "state": "TX", "street": "3201 BEE CAVES RD STE 120", "postcode": "78746"}}},
{"geometry": {"type": "Point", "coordinates": [-97.8225814853, 30.2813767549]}, "type": "Feature", "properties": {"collection_times": [{"days": "Mon-Fri", "time": "4:00pm"}, {"days": "Sat-Sun", "time": "Closed"}], "id": "7874600065", "name": "USPS COLLECTION BOX - BLUE BOX", "address": {"city": "WEST LAKE HILLS", "state": "TX", "street": "1122 S CAPITAL OF TEXAS HWY", "postcode": "78746"}}},
{"geometry": {"type": "Point", "coordinates": [-97.8047293249, 30.2775164335]}, "type": "Feature", "properties": {"collection_times": [{"days": "Mon-Fri", "time": "3:15pm"}, {"days": "Sat", "time": "2:30pm"}, {"days": "Sun", "time": "Closed"}], "id": "7874600066", "name": "USPS COLLECTION BOX - BLUE BOX", "address": {"city": "WEST LAKE HILLS", "state": "TX", "street": "3532 BEE CAVES RD", "postcode": "78746"}}},
{"geometry": {"type": "Point", "coordinates": [-97.7997468284, 30.2540468539]}, "type": "Feature", "properties": {"collection_times": [{"days": "Mon-Fri", "time": "2:45pm"}, {"days": "Sat-Sun", "time": "Closed"}], "id": "7874600067", "name": "USPS COLLECTION BOX - BLUE BOX", "address": {"city": "WEST LAKE HILLS", "state": "TX", "street": "2600 VIA FORTUNA", "postcode": "78746"}}},
{"geometry": {"type": "Point", "coordinates": [-97.8095683967, 30.2909227511]}, "type": "Feature", "properties": {"collection_times": [{"days": "Mon-Fri", "time": "5:00pm"}, {"days": "Sat", "time": "3:00pm"}, {"days": "Sun", "time": "Closed"}], "id": "7874600071", "name": "USPS COLLECTION BOX - APC", "address": {"city": "WEST LAKE HILLS", "state": "TX", "street": "3201 BEE CAVES RD STE 120", "postcode": "78746"}}},
{"geometry": {"type": "Point", "coordinates": [-97.8095683967, 30.2909227511]}, "type": "Feature", "properties": {"collection_times": [{"days": "Mon-Fri", "time": "12:00pm"}, {"days": "Sat-Sun", "time": "Closed"}], "id": "7874600072", "name": "USPS COLLECTION BOX - BLUE BOX", "address": {"city": "WEST LAKE HILLS", "state": "TX", "street": "5656 BEE CAVES RD", "postcode": "78746"}}},
{"geometry": {"type": "Point", "coordinates": [-97.794455453, 30.1410624432]}, "type": "Feature", "properties": {"collection_times": [{"days": "Mon-Sat", "time": "2:15pm"}, {"days": "Sun", "time": "Closed"}], "id": "7874700001", "name": "USPS COLLECTION BOX - BLUE BOX", "address": {"city": "AUSTIN", "state": "TX", "street": "10819 CROWN COLONY DR", "postcode": "78747"}}},
{"geometry": {"type": "Point", "coordinates": [-97.8254785518, 30.1737511483]}, "type": "Feature", "properties": {"collection_times": [{"days": "Mon-Sat", "time": "12:15pm"}, {"days": "Sun", "time": "Closed"}], "id": "7874800001", "name": "USPS COLLECTION BOX - BLUE BOX", "address": {"city": "AUSTIN", "state": "TX", "street": "2110 W SLAUGHTER LN", "postcode": "78748"}}},
{"geometry": {"type": "Point", "coordinates": [-97.8575068424, 30.2153240004]}, "type": "Feature", "properties": {"collection_times": [{"days": "Mon-Sat", "time": "5:00pm"}, {"days": "Sun", "time": "Closed"}], "id": "7874900001", "name": "USPS COLLECTION BOX - EXPRESS", "address": {"city": "AUSTIN", "state": "TX", "street": "6104 OLD FREDERICKSBURG RD", "postcode": "78749"}}},
{"geometry": {"type": "Point", "coordinates": [-97.8702085962, 30.2219792023]}, "type": "Feature", "properties": {"collection_times": [{"days": "Mon-Sat", "time": "12:00pm"}, {"days": "Sun", "time": "Closed"}], "id": "7874900007", "name": "USPS COLLECTION BOX - BLUE BOX", "address": {"city": "AUSTIN", "state": "TX", "street": "6201 OLIVER LOVING TRL", "postcode": "78749"}}},
{"geometry": {"type": "Point", "coordinates": [-97.8519023421, 30.2344485701]}, "type": "Feature", "properties": {"collection_times": [{"days": "Mon-Sat", "time": "5:00pm"}, {"days": "Sun", "time": "Closed"}], "id": "7874900008", "name": "USPS COLLECTION BOX - BLUE BOX", "address": {"city": "AUSTIN", "state": "TX", "street": "6104 OLD FREDERICKSBURG RD", "postcode": "78749"}}},
{"geometry": {"type": "Point", "coordinates": [-97.8519023421, 30.2344485701]}, "type": "Feature", "properties": {"collection_times": [{"days": "Mon-Sat", "time": "5:00pm"}, {"days": "Sun", "time": "Closed"}], "id": "7874900009", "name": "USPS COLLECTION BOX - BLUE BOX", "address": {"city": "AUSTIN", "state": "TX", "street": "6104 OLD FREDERICKSBURG RD", "postcode": "78749"}}},
{"geometry": {"type": "Point", "coordinates": [-97.8568518065, 30.1825665585]}, "type": "Feature", "properties": {"collection_times": [{"days": "Mon-Sat", "time": "12:00pm"}, {"days": "Sun", "time": "Closed"}], "id": "7874900015", "name": "USPS COLLECTION BOX - BLUE BOX", "address": {"city": "AUSTIN", "state": "TX", "street": "3808 ASPEN CREEK PKWY", "postcode": "78749"}}},
{"geometry": {"type": "Point", "coordinates": [-97.8519023421, 30.2344485701]}, "type": "Feature", "properties": {"collection_times": [{"days": "Mon-Sat", "time": "5:00pm"}, {"days": "Sun", "time": "Closed"}], "id": "7874900016", "name": "USPS COLLECTION BOX - PO LOBBY", "address": {"city": "AUSTIN", "state": "TX", "street": "6104 OLD FREDERICKSBURG RD", "postcode": "78749"}}},
{"geometry": {"type": "Point", "coordinates": [-97.8886545034, 30.2092547681]}, "type": "Feature", "properties": {"collection_times": [{"days": "Mon-Sat", "time": "12:00pm"}, {"days": "Sun", "time": "Closed"}], "id": "7874900017", "name": "USPS COLLECTION BOX - BLUE BOX", "address": {"city": "AUSTIN", "state": "TX", "street": "9300 BARSTOW AVE", "postcode": "78749"}}},
{"geometry": {"type": "Point", "coordinates": [-97.8365285715, 30.221239853]}, "type": "Feature", "properties": {"collection_times": [{"days": "Mon-Fri", "time": "2:45pm"}, {"days": "Sat", "time": "1:00pm"}, {"days": "Sun", "time": "Closed"}], "id": "7874900019", "name": "USPS COLLECTION BOX - BLUE BOX", "address": {"city": "AUSTIN", "state": "TX", "street": "6600 S MO PAC EXPY", "postcode": "78749"}}},
{"geometry": {"type": "Point", "coordinates": [-97.8519023421, 30.2344485701]}, "type": "Feature", "properties": {"collection_times": [{"days": "Mon-Sat", "time": "5:00pm"}, {"days": "Sun", "time": "Closed"}], "id": "7874900020", "name": "USPS COLLECTION BOX - PO LOBBY", "address": {"city": "AUSTIN", "state": "TX", "street": "6104 OLD FREDERICKSBURG RD", "postcode": "78749"}}},
{"geometry": {"type": "Point", "coordinates": [-97.8298661466, 30.2285115017]}, "type": "Feature", "properties": {"collection_times": [{"days": "Mon-Fri", "time": "2:45pm"}, {"days": "Sat-Sun", "time": "Closed"}], "id": "7874900021", "name": "USPS COLLECTION BOX - BLUE BOX", "address": {"city": "AUSTIN", "state": "TX", "street": "5700 S MO PAC EXPY", "postcode": "78749"}}},
{"geometry": {"type": "Point", "coordinates": [-97.8519023421, 30.2344485701]}, "type": "Feature", "properties": {"collection_times": [{"days": "Mon-Sat", "time": "5:00pm"}, {"days": "Sun", "time": "Closed"}], "id": "7874900022", "name": "USPS COLLECTION BOX - APC", "address": {"city": "AUSTIN", "state": "TX", "street": "6104 OLD FREDERICKSBURG RD", "postcode": "78749"}}},
{"geometry": {"type": "Point", "coordinates": [-97.7877692523, 30.4444260975]}, "type": "Feature", "properties": {"collection_times": [{"days": "Mon-Sat", "time": "6:00pm"}, {"days": "Sun", "time": "Closed"}], "id": "7875000002", "name": "USPS COLLECTION BOX - BLUE BOX", "address": {"city": "AUSTIN", "state": "TX", "street": "13376 RESEARCH BLVD", "postcode": "78750"}}},
{"geometry": {"type": "Point", "coordinates": [-97.7942141293, 30.4569704518]}, "type": "Feature", "properties": {"collection_times": [{"days": "Mon-Fri", "time": "2:30pm"}, {"days": "Sat", "time": "12:30pm"}, {"days": "Sun", "time": "Closed"}], "id": "7875000006", "name": "USPS COLLECTION BOX - BLUE BOX", "address": {"city": "AUSTIN", "state": "TX", "street": "12501 HYMEADOW DR", "postcode": "78750"}}},
{"geometry": {"type": "Point", "coordinates": [-97.7893923172, 30.374630553]}, "type": "Feature", "properties": {"collection_times": [{"days": "Mon-Fri", "time": "3:15pm"}, {"days": "Sat", "time": "12:30pm"}, {"days": "Sun", "time": "Closed"}], "id": "7875000009", "name": "USPS COLLECTION BOX - BLUE BOX", "address": {"city": "AUSTIN", "state": "TX", "street": "7314 LAKEWOOD DR", "postcode": "78750"}}},
{"geometry": {"type": "Point", "coordinates": [-97.7734702629, 30.4367046884]}, "type": "Feature", "properties": {"collection_times": [{"days": "Mon-Fri", "time": "2:00pm"}, {"days": "Sat", "time": "12:00pm"}, {"days": "Sun", "time": "Closed"}], "id": "7875000010", "name": "USPS COLLECTION BOX - BLUE BOX", "address": {"city": "AUSTIN", "state": "TX", "street": "12885 RESEARCH BLVD", "postcode": "78750"}}},
{"geometry": {"type": "Point", "coordinates": [-97.7937977278, 30.4591920488]}, "type": "Feature", "properties": {"collection_times": [{"days": "Mon-Fri", "time": "2:30pm"}, {"days": "Sat", "time": "12:30pm"}, {"days": "Sun", "time": "Closed"}], "id": "7875000013", "name": "USPS COLLECTION BOX - BLUE BOX", "address": {"city": "AUSTIN", "state": "TX", "street": "13740 N HIGHWAY 183", "postcode": "78750"}}},
{"geometry": {"type": "Point", "coordinates": [-97.8178412669, 30.4614981458]}, "type": "Feature", "properties": {"collection_times": [{"days": "Mon-Sat", "time": "12:00pm"}, {"days": "Sun", "time": "Closed"}], "id": "7875000014", "name": "USPS COLLECTION BOX - BLUE BOX", "address": {"city": "AUSTIN", "state": "TX", "street": "12129 RANCH ROAD 620 N", "postcode": "78750"}}},
{"geometry": {"type": "Point", "coordinates": [-97.79477, 30.46155]}, "type": "Feature", "properties": {"collection_times": [{"days": "Mon-Fri", "time": "2:30pm"}, {"days": "Sat", "time": "12:30pm"}, {"days": "Sun", "time": "Closed"}], "id": "7875000021", "name": "USPS COLLECTION BOX - BLUE BOX", "address": {"city": "AUSTIN", "state": "TX", "street": "13776 N HIGHWAY 183", "postcode": "78750"}}},
{"geometry": {"type": "Point", "coordinates": [-97.729606033, 30.306837473]}, "type": "Feature", "properties": {"collection_times": [{"days": "Mon-Fri", "time": "5:00pm"}, {"days": "Sat", "time": "4:45pm"}, {"days": "Sun", "time": "Closed"}], "id": "7875100057", "name": "USPS COLLECTION BOX - BLUE BOX", "address": {"city": "AUSTIN", "state": "TX", "street": "4300 SPEEDWAY", "postcode": "78751"}}},
{"geometry": {"type": "Point", "coordinates": [-97.727264503, 30.324424011]}, "type": "Feature", "properties": {"collection_times": [{"days": "Mon-Fri", "time": "4:30pm"}, {"days": "Sat", "time": "2:00pm"}, {"days": "Sun", "time": "Closed"}], "id": "7875100058", "name": "USPS COLLECTION BOX - BLUE BOX", "address": {"city": "AUSTIN", "state": "TX", "street": "5555 N LAMAR BLVD", "postcode": "78751"}}},
{"geometry": {"type": "Point", "coordinates": [-97.718852021, 30.298031571]}, "type": "Feature", "properties": {"collection_times": [{"days": "Mon-Sat", "time": "1:15pm"}, {"days": "Sun", "time": "Closed"}], "id": "7875100059", "name": "USPS COLLECTION BOX - BLUE BOX", "address": {"city": "AUSTIN", "state": "TX", "street": "1000 E 41ST ST", "postcode": "78751"}}},
{"geometry": {"type": "Point", "coordinates": [-97.729606033, 30.306837473]}, "type": "Feature", "properties": {"collection_times": [{"days": "Mon-Fri", "time": "5:00pm"}, {"days": "Sat", "time": "4:45pm"}, {"days": "Sun", "time": "Closed"}], "id": "7875100061", "name": "USPS COLLECTION BOX - BLUE BOX", "address": {"city": "AUSTIN", "state": "TX", "street": "4300 SPEEDWAY", "postcode": "78751"}}},
{"geometry": {"type": "Point", "coordinates": [-97.729511626, 30.3181045595]}, "type": "Feature", "properties": {"collection_times": [{"days": "Mon-Fri", "time": "12:30pm"}, {"days": "Sat-Sun", "time": "Closed"}], "id": "7875100062", "name": "USPS COLLECTION BOX - BLUE BOX", "address": {"city": "AUSTIN", "state": "TX", "street": "701 W 51ST ST", "postcode": "78751"}}},
{"geometry": {"type": "Point", "coordinates": [-97.7296060332, 30.3068374734]}, "type": "Feature", "properties": {"collection_times": [{"days": "Mon-Fri", "time": "5:00pm"}, {"days": "Sat", "time": "4:45pm"}, {"days": "Sun", "time": "Closed"}], "id": "7875100063", "name": "USPS COLLECTION BOX - PO LOBBY", "address": {"city": "AUSTIN", "state": "TX", "street": "4300 SPEEDWAY", "postcode": "78751"}}},
{"geometry": {"type": "Point", "coordinates": [-97.729606033, 30.306837473]}, "type": "Feature", "properties": {"collection_times": [{"days": "Mon-Fri", "time": "5:00pm"}, {"days": "Sat", "time": "4:45pm"}, {"days": "Sun", "time": "Closed"}], "id": "7875100064", "name": "USPS COLLECTION BOX - PO LOBBY", "address": {"city": "AUSTIN", "state": "TX", "street": "4300 SPEEDWAY", "postcode": "78751"}}},
{"geometry": {"type": "Point", "coordinates": [-97.729606033, 30.306837473]}, "type": "Feature", "properties": {"collection_times": [{"days": "Mon-Fri", "time": "5:00pm"}, {"days": "Sat", "time": "4:45pm"}, {"days": "Sun", "time": "Closed"}], "id": "7875100065", "name": "USPS COLLECTION BOX - APC", "address": {"city": "AUSTIN", "state": "TX", "street": "4300 SPEEDWAY", "postcode": "78751"}}},
{"geometry": {"type": "Point", "coordinates": [-97.6998234676, 30.3338539976]}, "type": "Feature", "properties": {"collection_times": [{"days": "Mon-Fri", "time": "5:00pm"}, {"days": "Sat", "time": "4:30pm"}, {"days": "Sun", "time": "Closed"}], "id": "7875200001", "name": "USPS COLLECTION BOX - BLUE BOX", "address": {"city": "AUSTIN", "state": "TX", "street": "900 BLACKSON AVE", "postcode": "78752"}}},
{"geometry": {"type": "Point", "coordinates": [-97.7100111102, 30.3309332719]}, "type": "Feature", "properties": {"collection_times": [{"days": "Mon-Fri", "time": "12:00pm"}, {"days": "Sat", "time": "2:30pm"}, {"days": "Sun", "time": "Closed"}], "id": "7875200002", "name": "USPS COLLECTION BOX - BLUE BOX", "address": {"city": "AUSTIN", "state": "TX", "street": "300 E HUNTLAND DR", "postcode": "78752"}}},
{"geometry": {"type": "Point", "coordinates": [-97.7036751263, 30.3407309256]}, "type": "Feature", "properties": {"collection_times": [{"days": "Mon-Fri", "time": "5:00pm"}, {"days": "Sat", "time": "2:15pm"}, {"days": "Sun", "time": "Closed"}], "id": "7875200004", "name": "USPS COLLECTION BOX - BLUE BOX", "address": {"city": "AUSTIN", "state": "TX", "street": "7690 CHEVY CHASE DR", "postcode": "78752"}}},
{"geometry": {"type": "Point", "coordinates": [-97.7063037168, 30.3442616705]}, "type": "Feature", "properties": {"collection_times": [{"days": "Mon-Fri", "time": "5:00pm"}, {"days": "Sat", "time": "2:15pm"}, {"days": "Sun", "time": "Closed"}], "id": "7875200005", "name": "USPS COLLECTION BOX - BLUE BOX", "address": {"city": "AUSTIN", "state": "TX", "street": "223 W ANDERSON LN", "postcode": "78752"}}},
{"geometry": {"type": "Point", "coordinates": [-97.7020379668, 30.3255188687]}, "type": "Feature", "properties": {"collection_times": [{"days": "Mon-Fri", "time": "1:00pm"}, {"days": "Sat-Sun", "time": "Closed"}], "id": "7875200013", "name": "USPS COLLECTION BOX - BLUE BOX", "address": {"city": "AUSTIN", "state": "TX", "street": "1033 LA POSADA DR", "postcode": "78752"}}},
{"geometry": {"type": "Point", "coordinates": [-97.7183060185, 30.3366493296]}, "type": "Feature", "properties": {"collection_times": [{"days": "Mon-Fri", "time": "4:45pm"}, {"days": "Sat-Sun", "time": "Closed"}], "id": "7875200027", "name": "USPS COLLECTION BOX - BLUE BOX", "address": {"city": "AUSTIN", "state": "TX", "street": "6929 AIRPORT BLVD", "postcode": "78752"}}},
{"geometry": {"type": "Point", "coordinates": [-97.7081988171, 30.3310870565]}, "type": "Feature", "properties": {"collection_times": [{"days": "Mon-Fri", "time": "12:00pm"}, {"days": "Sat", "time": "2:30pm"}, {"days": "Sun", "time": "Closed"}], "id": "7875200048", "name": "USPS COLLECTION BOX - BLUE BOX", "address": {"city": "AUSTIN", "state": "TX", "street": "505 E HUNTLAND DR", "postcode": "78752"}}},
{"geometry": {"type": "Point", "coordinates": [-97.7158809526, 30.3245630378]}, "type": "Feature", "properties": {"collection_times": [{"days": "Mon-Fri", "time": "12:30pm"}, {"days": "Sat-Sun", "time": "Closed"}], "id": "7875200050", "name": "USPS COLLECTION BOX - BLUE BOX", "address": {"city": "AUSTIN", "state": "TX", "street": "6001 AIRPORT BLVD", "postcode": "78752"}}},
{"geometry": {"type": "Point", "coordinates": [-97.7046901608, 30.3438121461]}, "type": "Feature", "properties": {"collection_times": [{"days": "Mon-Fri", "time": "2:45pm"}, {"days": "Sat-Sun", "time": "Closed"}], "id": "7875200063", "name": "USPS COLLECTION BOX - BLUE BOX", "address": {"city": "AUSTIN", "state": "TX", "street": "100 E ANDERSON LN", "postcode": "78752"}}},
{"geometry": {"type": "Point", "coordinates": [-97.6998234676, 30.3338539976]}, "type": "Feature", "properties": {"collection_times": [{"days": "Mon-Fri", "time": "5:00pm"}, {"days": "Sat", "time": "4:30pm"}, {"days": "Sun", "time": "Closed"}], "id": "7875200067", "name": "USPS COLLECTION BOX - PO LOBBY", "address": {"city": "AUSTIN", "state": "TX", "street": "900 BLACKSON AVE", "postcode": "78752"}}},
{"geometry": {"type": "Point", "coordinates": [-97.6998234676, 30.3338539976]}, "type": "Feature", "properties": {"collection_times": [{"days": "Mon-Fri", "time": "5:00pm"}, {"days": "Sat", "time": "4:30pm"}, {"days": "Sun", "time": "Closed"}], "id": "7875200068", "name": "USPS COLLECTION BOX - PO LOBBY", "address": {"city": "AUSTIN", "state": "TX", "street": "900 BLACKSON AVE", "postcode": "78752"}}},
{"geometry": {"type": "Point", "coordinates": [-97.7205390058, 30.3289637845]}, "type": "Feature", "properties": {"collection_times": [{"days": "Mon-Fri", "time": "12:15pm"}, {"days": "Sat-Sun", "time": "Closed"}], "id": "7875200070", "name": "USPS COLLECTION BOX - BLUE BOX", "address": {"city": "AUSTIN", "state": "TX", "street": "602 DENSON DR", "postcode": "78752"}}},
{"geometry": {"type": "Point", "coordinates": [-97.7138959474, 30.3450873759]}, "type": "Feature", "properties": {"collection_times": [{"days": "Mon-Fri", "time": "4:45pm"}, {"days": "Sat", "time": "2:00pm"}, {"days": "Sun", "time": "Closed"}], "id": "7875200074", "name": "USPS COLLECTION BOX - BLUE BOX", "address": {"city": "AUSTIN", "state": "TX", "street": "7701 N LAMAR BLVD", "postcode": "78752"}}},
{"geometry": {"type": "Point", "coordinates": [-97.673290881, 30.3933497357]}, "type": "Feature", "properties": {"collection_times": [{"days": "Mon-Fri", "time": "3:00pm"}, {"days": "Sat-Sun", "time": "Closed"}], "id": "7875300002", "name": "USPS COLLECTION BOX - BLUE BOX", "address": {"city": "AUSTIN", "state": "TX", "street": "12124 PARK THIRTY FIVE CIR", "postcode": "78753"}}},
{"geometry": {"type": "Point", "coordinates": [-97.6582552061, 30.3865777161]}, "type": "Feature", "properties": {"collection_times": [{"days": "Mon-Fri", "time": "1:30pm"}, {"days": "Sat", "time": "1:00pm"}, {"days": "Sun", "time": "Closed"}], "id": "7875300010", "name": "USPS COLLECTION BOX - BLUE BOX", "address": {"city": "AUSTIN", "state": "TX", "street": "12120 SHROPSHIRE BLVD", "postcode": "78753"}}},
{"geometry": {"type": "Point", "coordinates": [-97.673290881, 30.3933497357]}, "type": "Feature", "properties": {"collection_times": [{"days": "Mon-Fri", "time": "3:00pm"}, {"days": "Sat-Sun", "time": "Closed"}], "id": "7875300016", "name": "USPS COLLECTION BOX - BLUE BOX", "address": {"city": "AUSTIN", "state": "TX", "street": "12124 PARK THIRTY FIVE CIR", "postcode": "78753"}}},
{"geometry": {"type": "Point", "coordinates": [-97.7089879772, 30.3509442618]}, "type": "Feature", "properties": {"collection_times": [{"days": "Mon-Fri", "time": "5:00pm"}, {"days": "Sat", "time": "1:45pm"}, {"days": "Sun", "time": "Closed"}], "id": "7875300020", "name": "USPS COLLECTION BOX - BLUE BOX", "address": {"city": "AUSTIN", "state": "TX", "street": "8204 N LAMAR BLVD", "postcode": "78753"}}},
{"geometry": {"type": "Point", "coordinates": [-97.6959741191, 30.3649185]}, "type": "Feature", "properties": {"collection_times": [{"days": "Mon-Fri", "time": "3:00pm"}, {"days": "Sat", "time": "1:30pm"}, {"days": "Sun", "time": "Closed"}], "id": "7875300021", "name": "USPS COLLECTION BOX - BLUE BOX", "address": {"city": "AUSTIN", "state": "TX", "street": "9515 N LAMAR BLVD", "postcode": "78753"}}},
{"geometry": {"type": "Point", "coordinates": [-97.6955336677, 30.3658156311]}, "type": "Feature", "properties": {"collection_times": [{"days": "Mon-Fri", "time": "3:00pm"}, {"days": "Sat", "time": "1:30pm"}, {"days": "Sun", "time": "Closed"}], "id": "7875300023", "name": "USPS COLLECTION BOX - BLUE BOX", "address": {"city": "AUSTIN", "state": "TX", "street": "9608 N LAMAR BLVD", "postcode": "78753"}}},
{"geometry": {"type": "Point", "coordinates": [-97.6944279918, 30.3676688796]}, "type": "Feature", "properties": {"collection_times": [{"days": "Mon-Fri", "time": "3:00pm"}, {"days": "Sat-Sun", "time": "Closed"}], "id": "7875300025", "name": "USPS COLLECTION BOX - BLUE BOX", "address": {"city": "AUSTIN", "state": "TX", "street": "9800 N LAMAR BLVD", "postcode": "78753"}}},
{"geometry": {"type": "Point", "coordinates": [-97.692547087, 30.3385846505]}, "type": "Feature", "properties": {"collection_times": [{"days": "Mon-Fri", "time": "1:30pm"}, {"days": "Sat", "time": "1:00pm"}, {"days": "Sun", "time": "Closed"}], "id": "7875300032", "name": "USPS COLLECTION BOX - BLUE BOX", "address": {"city": "AUSTIN", "state": "TX", "street": "1030 NORWOOD PARK BLVD", "postcode": "78753"}}},
{"geometry": {"type": "Point", "coordinates": [-97.7117240348, 30.3481228486]}, "type": "Feature", "properties": {"collection_times": [{"days": "Mon-Sat", "time": "10:00am"}, {"days": "Sun", "time": "Closed"}], "id": "7875300033", "name": "USPS COLLECTION BOX - BLUE BOX", "address": {"city": "AUSTIN", "state": "TX", "street": "8071 N LAMAR BLVD", "postcode": "78753"}}},
{"geometry": {"type": "Point", "coordinates": [-97.6144634112, 30.3509574293]}, "type": "Feature", "properties": {"collection_times": [{"days": "Mon-Sat", "time": "10:00am"}, {"days": "Sun", "time": "Closed"}], "id": "7875400005", "name": "USPS COLLECTION BOX - BLUE BOX", "address": {"city": "AUSTIN", "state": "TX", "street": "11412 BIRCHOVER LN", "postcode": "78754"}}},
{"geometry": {"type": "Point", "coordinates": [-97.6138669835, 30.3554067845]}, "type": "Feature", "properties": {"collection_times": [{"days": "Mon-Sat", "time": "10:00am"}, {"days": "Sun", "time": "Closed"}], "id": "7875400006", "name": "USPS COLLECTION BOX - BLUE BOX", "address": {"city": "AUSTIN", "state": "TX", "street": "11710 RYDALWATER LN", "postcode": "78754"}}},
{"geometry": {"type": "Point", "coordinates": [-97.6755177288, 30.3381531387]}, "type": "Feature", "properties": {"collection_times": [{"days": "Mon-Fri", "time": "2:45pm"}, {"days": "Sat-Sun", "time": "Closed"}], "id": "7875400014", "name": "USPS COLLECTION BOX - BLUE BOX", "address": {"city": "AUSTIN", "state": "TX", "street": "8407 WALL ST", "postcode": "78754"}}},
{"geometry": {"type": "Point", "coordinates": [-97.6821941143, 30.3367452596]}, "type": "Feature", "properties": {"collection_times": [{"days": "Mon-Fri", "time": "2:45pm"}, {"days": "Sat", "time": "3:30pm"}, {"days": "Sun", "time": "Closed"}], "id": "7875400016", "name": "USPS COLLECTION BOX - BLUE BOX", "address": {"city": "AUSTIN", "state": "TX", "street": "1501 RUTHERFORD LN", "postcode": "78754"}}},
{"geometry": {"type": "Point", "coordinates": [-97.7400428894, 30.3331643325]}, "type": "Feature", "properties": {"collection_times": [{"days": "Mon-Fri", "time": "3:15pm"}, {"days": "Sat", "time": "2:30pm"}, {"days": "Sun", "time": "Closed"}], "id": "7875600002", "name": "USPS COLLECTION BOX - BLUE BOX", "address": {"city": "AUSTIN", "state": "TX", "street": "5732 BURNET RD", "postcode": "78756"}}},
{"geometry": {"type": "Point", "coordinates": [-97.7397779066, 30.3103119312]}, "type": "Feature", "properties": {"collection_times": [{"days": "Mon-Fri", "time": "12:00pm"}, {"days": "Sat", "time": "3:45pm"}, {"days": "Sun", "time": "Closed"}], "id": "7875600003", "name": "USPS COLLECTION BOX - BLUE BOX", "address": {"city": "AUSTIN", "state": "TX", "street": "4200 N LAMAR BLVD", "postcode": "78756"}}},
{"geometry": {"type": "Point", "coordinates": [-97.7354307847, 30.3169043274]}, "type": "Feature", "properties": {"collection_times": [{"days": "Mon-Fri", "time": "12:00pm"}, {"days": "Sat", "time": "3:45pm"}, {"days": "Sun", "time": "Closed"}], "id": "7875600004", "name": "USPS COLLECTION BOX - BLUE BOX", "address": {"city": "AUSTIN", "state": "TX", "street": "4801 SUNSHINE DR", "postcode": "78756"}}},
{"geometry": {"type": "Point", "coordinates": [-97.7436660017, 30.3064965062]}, "type": "Feature", "properties": {"collection_times": [{"days": "Mon-Fri", "time": "12:00pm"}, {"days": "Sat", "time": "4:00pm"}, {"days": "Sun", "time": "Closed"}], "id": "7875600005", "name": "USPS COLLECTION BOX - BLUE BOX", "address": {"city": "AUSTIN", "state": "TX", "street": "3810 MEDICAL PKWY", "postcode": "78756"}}},
{"geometry": {"type": "Point", "coordinates": [-97.7425460306, 30.3113671306]}, "type": "Feature", "properties": {"collection_times": [{"days": "Mon-Fri", "time": "12:00pm"}, {"days": "Sat", "time": "3:45pm"}, {"days": "Sun", "time": "Closed"}], "id": "7875600007", "name": "USPS COLLECTION BOX - BLUE BOX", "address": {"city": "AUSTIN", "state": "TX", "street": "4203 MEDICAL PKWY", "postcode": "78756"}}},
{"geometry": {"type": "Point", "coordinates": [-97.732329997, 30.3258773053]}, "type": "Feature", "properties": {"collection_times": [{"days": "Mon-Fri", "time": "12:00pm"}, {"days": "Sat", "time": "3:15pm"}, {"days": "Sun", "time": "Closed"}], "id": "7875600009", "name": "USPS COLLECTION BOX - BLUE BOX", "address": {"city": "AUSTIN", "state": "TX", "street": "5506 GROVER AVE", "postcode": "78756"}}},
{"geometry": {"type": "Point", "coordinates": [-97.7410496443, 30.3257706167]}, "type": "Feature", "properties": {"collection_times": [{"days": "Mon-Fri", "time": "12:00pm"}, {"days": "Sat", "time": "3:30pm"}, {"days": "Sun", "time": "Closed"}], "id": "7875600012", "name": "USPS COLLECTION BOX - BLUE BOX", "address": {"city": "AUSTIN", "state": "TX", "street": "2202 W NORTH LOOP BLVD", "postcode": "78756"}}},
{"geometry": {"type": "Point", "coordinates": [-97.7397094843, 30.325297185]}, "type": "Feature", "properties": {"collection_times": [{"days": "Mon-Fri", "time": "3:30pm"}, {"days": "Sat", "time": "3:45pm"}, {"days": "Sun", "time": "Closed"}], "id": "7875600016", "name": "USPS COLLECTION BOX - BLUE BOX", "address": {"city": "AUSTIN", "state": "TX", "street": "5256B BURNET RD", "postcode": "78756"}}},
{"geometry": {"type": "Point", "coordinates": [-97.7364845489, 30.318621035]}, "type": "Feature", "properties": {"collection_times": [{"days": "Mon-Fri", "time": "4:00pm"}, {"days": "Sat-Sun", "time": "Closed"}], "id": "7875600022", "name": "USPS COLLECTION BOX - BLUE BOX", "address": {"city": "AUSTIN", "state": "TX", "street": "1100 W 49TH ST", "postcode": "78756"}}},
{"geometry": {"type": "Point", "coordinates": [-97.7430227631, 30.3052476839]}, "type": "Feature", "properties": {"collection_times": [{"days": "Mon-Sat", "time": "12:00pm"}, {"days": "Sun", "time": "Closed"}], "id": "7875600024", "name": "USPS COLLECTION BOX - BLUE BOX", "address": {"city": "AUSTIN", "state": "TX", "street": "3801 N LAMAR BLVD", "postcode": "78756"}}},
{"geometry": {"type": "Point", "coordinates": [-97.7362775311, 30.3546764413]}, "type": "Feature", "properties": {"collection_times": [{"days": "Mon-Fri", "time": "5:00pm"}, {"days": "Sat", "time": "3:15pm"}, {"days": "Sun", "time": "Closed"}], "id": "7875700001", "name": "USPS COLLECTION BOX - BLUE BOX", "address": {"city": "AUSTIN", "state": "TX", "street": "7700 NORTHCROSS DR", "postcode": "78757"}}},
{"geometry": {"type": "Point", "coordinates": [-97.7329971859, 30.3570317126]}, "type": "Feature", "properties": {"collection_times": [{"days": "Mon-Fri", "time": "4:00pm"}, {"days": "Sat", "time": "1:15pm"}, {"days": "Sun", "time": "Closed"}], "id": "7875700002", "name": "USPS COLLECTION BOX - BLUE BOX", "address": {"city": "AUSTIN", "state": "TX", "street": "2525 W ANDERSON LN", "postcode": "78757"}}},
{"geometry": {"type": "Point", "coordinates": [-97.7250842717, 30.3532825843]}, "type": "Feature", "properties": {"collection_times": [{"days": "Mon-Fri", "time": "12:00pm"}, {"days": "Sat", "time": "1:00pm"}, {"days": "Sun", "time": "Closed"}], "id": "7875700004", "name": "USPS COLLECTION BOX - BLUE BOX", "address": {"city": "AUSTIN", "state": "TX", "street": "1801 W ANDERSON LN", "postcode": "78757"}}},
{"geometry": {"type": "Point", "coordinates": [-97.7386458149, 30.3396090929]}, "type": "Feature", "properties": {"collection_times": [{"days": "Mon-Fri", "time": "4:30pm"}, {"days": "Sat", "time": "1:15pm"}, {"days": "Sun", "time": "Closed"}], "id": "7875700005", "name": "USPS COLLECTION BOX - BLUE BOX", "address": {"city": "AUSTIN", "state": "TX", "street": "6431 BURNET LN", "postcode": "78757"}}},
{"geometry": {"type": "Point", "coordinates": [-97.7395330341, 30.33632165]}, "type": "Feature", "properties": {"collection_times": [{"days": "Mon-Fri", "time": "4:00pm"}, {"days": "Sat-Sun", "time": "Closed"}], "id": "7875700006", "name": "USPS COLLECTION BOX - BLUE BOX", "address": {"city": "AUSTIN", "state": "TX", "street": "6101 BURNET RD", "postcode": "78757"}}},
{"geometry": {"type": "Point", "coordinates": [-97.7254723839, 30.3422269811]}, "type": "Feature", "properties": {"collection_times": [{"days": "Mon-Fri", "time": "12:00pm"}, {"days": "Sat", "time": "1:00pm"}, {"days": "Sun", "time": "Closed"}], "id": "7875700010", "name": "USPS COLLECTION BOX - BLUE BOX", "address": {"city": "AUSTIN", "state": "TX", "street": "1406 W SAINT JOHNS AVE", "postcode": "78757"}}},
{"geometry": {"type": "Point", "coordinates": [-97.7351655496, 30.3491532058]}, "type": "Feature", "properties": {"collection_times": [{"days": "Mon-Fri", "time": "4:30pm"}, {"days": "Sat", "time": "1:15pm"}, {"days": "Sun", "time": "Closed"}], "id": "7875700013", "name": "USPS COLLECTION BOX - BLUE BOX", "address": {"city": "AUSTIN", "state": "TX", "street": "7305 BURNET RD", "postcode": "78757"}}},
{"geometry": {"type": "Point", "coordinates": [-97.7362775311, 30.3546764413]}, "type": "Feature", "properties": {"collection_times": [{"days": "Mon-Fri", "time": "5:00pm"}, {"days": "Sat", "time": "3:15pm"}, {"days": "Sun", "time": "Closed"}], "id": "7875700016", "name": "USPS COLLECTION BOX - BLUE BOX", "address": {"city": "AUSTIN", "state": "TX", "street": "7700 NORTHCROSS DR", "postcode": "78757"}}},
{"geometry": {"type": "Point", "coordinates": [-97.7322881289, 30.3536211805]}, "type": "Feature", "properties": {"collection_times": [{"days": "Mon-Fri", "time": "5:00pm"}, {"days": "Sat", "time": "3:15pm"}, {"days": "Sun", "time": "Closed"}], "id": "7875700017", "name": "USPS COLLECTION BOX - EXPRESS", "address": {"city": "AUSTIN", "state": "TX", "street": "7700 NORTHCROSS DR", "postcode": "78757"}}},
{"geometry": {"type": "Point", "coordinates": [-97.7273769478, 30.3694255736]}, "type": "Feature", "properties": {"collection_times": [{"days": "Mon-Fri", "time": "4:30pm"}, {"days": "Sat", "time": "1:30pm"}, {"days": "Sun", "time": "Closed"}], "id": "7875700019", "name": "USPS COLLECTION BOX - BLUE BOX", "address": {"city": "AUSTIN", "state": "TX", "street": "8711 BURNET RD", "postcode": "78757"}}},
{"geometry": {"type": "Point", "coordinates": [-97.7379928216, 30.3601168695]}, "type": "Feature", "properties": {"collection_times": [{"days": "Mon-Fri", "time": "12:00pm"}, {"days": "Sat", "time": "1:30pm"}, {"days": "Sun", "time": "Closed"}], "id": "7875700020", "name": "USPS COLLECTION BOX - BLUE BOX", "address": {"city": "AUSTIN", "state": "TX", "street": "7920 ROCKWOOD LN", "postcode": "78757"}}},
{"geometry": {"type": "Point", "coordinates": [-97.7377693377, 30.3688086557]}, "type": "Feature", "properties": {"collection_times": [{"days": "Mon-Fri", "time": "2:45pm"}, {"days": "Sat", "time": "1:45pm"}, {"days": "Sun", "time": "Closed"}], "id": "7875700021", "name": "USPS COLLECTION BOX - BLUE BOX", "address": {"city": "AUSTIN", "state": "TX", "street": "8311 SHOAL CREEK BLVD", "postcode": "78757"}}},
{"geometry": {"type": "Point", "coordinates": [-97.7359285582, 30.3747417912]}, "type": "Feature", "properties": {"collection_times": [{"days": "Mon-Fri", "time": "3:00pm"}, {"days": "Sat", "time": "1:45pm"}, {"days": "Sun", "time": "Closed"}], "id": "7875700024", "name": "USPS COLLECTION BOX - BLUE BOX", "address": {"city": "AUSTIN", "state": "TX", "street": "8800 SHOAL CREEK BLVD", "postcode": "78757"}}},
{"geometry": {"type": "Point", "coordinates": [-97.7301202296, 30.3347412168]}, "type": "Feature", "properties": {"collection_times": [{"days": "Mon-Fri", "time": "12:00pm"}, {"days": "Sat", "time": "1:15pm"}, {"days": "Sun", "time": "Closed"}], "id": "7875700030", "name": "USPS COLLECTION BOX - BLUE BOX", "address": {"city": "AUSTIN", "state": "TX", "street": "6301 WOODROW AVE", "postcode": "78757"}}},
{"geometry": {"type": "Point", "coordinates": [-97.7409691463, 30.3600577216]}, "type": "Feature", "properties": {"collection_times": [{"days": "Mon-Fri", "time": "3:00pm"}, {"days": "Sat", "time": "2:15pm"}, {"days": "Sun", "time": "Closed"}], "id": "7875700032", "name": "USPS COLLECTION BOX - BLUE BOX", "address": {"city": "AUSTIN", "state": "TX", "street": "7800 SHOAL CREEK BLVD", "postcode": "78757"}}},
{"geometry": {"type": "Point", "coordinates": [-97.7362775311, 30.3546764413]}, "type": "Feature", "properties": {"collection_times": [{"days": "Mon-Fri", "time": "5:00pm"}, {"days": "Sat", "time": "3:15pm"}, {"days": "Sun", "time": "Closed"}], "id": "7875700036", "name": "USPS COLLECTION BOX - PO LOBBY", "address": {"city": "AUSTIN", "state": "TX", "street": "7700 NORTHCROSS DR", "postcode": "78757"}}},
{"geometry": {"type": "Point", "coordinates": [-97.7362775311, 30.3546764413]}, "type": "Feature", "properties": {"collection_times": [{"days": "Mon-Fri", "time": "5:00pm"}, {"days": "Sat", "time": "3:15pm"}, {"days": "Sun", "time": "Closed"}], "id": "7875700037", "name": "USPS COLLECTION BOX - PO LOBBY", "address": {"city": "AUSTIN", "state": "TX", "street": "7700 NORTHCROSS DR", "postcode": "78757"}}},
{"geometry": {"type": "Point", "coordinates": [-97.7409514019, 30.3508531179]}, "type": "Feature", "properties": {"collection_times": [{"days": "Mon-Fri", "time": "3:00pm"}, {"days": "Sat", "time": "2:15pm"}, {"days": "Sun", "time": "Closed"}], "id": "7875700039", "name": "USPS COLLECTION BOX - BLUE BOX", "address": {"city": "AUSTIN", "state": "TX", "street": "2800 GREENLAWN PKWY", "postcode": "78757"}}},
{"geometry": {"type": "Point", "coordinates": [-97.71647671, 30.3506010701]}, "type": "Feature", "properties": {"collection_times": [{"days": "Mon-Fri", "time": "12:00pm"}, {"days": "Sat", "time": "1:00pm"}, {"days": "Sun", "time": "Closed"}], "id": "7875700040", "name": "USPS COLLECTION BOX - BLUE BOX", "address": {"city": "AUSTIN", "state": "TX", "street": "7952 ANDERSON SQ", "postcode": "78757"}}},
{"geometry": {"type": "Point", "coordinates": [-97.7528697135, 30.3350428713]}, "type": "Feature", "properties": {"collection_times": [{"days": "Mon-Fri", "time": "4:00pm"}, {"days": "Sat", "time": "3:00pm"}, {"days": "Sun", "time": "Closed"}], "id": "7875700041", "name": "USPS COLLECTION BOX - BLUE BOX", "address": {"city": "AUSTIN", "state": "TX", "street": "3003 NORTHLAND DR", "postcode": "78757"}}},
{"geometry": {"type": "Point", "coordinates": [-97.7273769478, 30.3694255736]}, "type": "Feature", "properties": {"collection_times": [{"days": "Mon-Fri", "time": "4:30pm"}, {"days": "Sat", "time": "1:30pm"}, {"days": "Sun", "time": "Closed"}], "id": "7875700042", "name": "USPS COLLECTION BOX - BLUE BOX", "address": {"city": "AUSTIN", "state": "TX", "street": "8711 BURNET RD", "postcode": "78757"}}},
{"geometry": {"type": "Point", "coordinates": [-97.7362775311, 30.3546764413]}, "type": "Feature", "properties": {"collection_times": [{"days": "Mon-Fri", "time": "5:00pm"}, {"days": "Sat", "time": "3:15pm"}, {"days": "Sun", "time": "Closed"}], "id": "7875700043", "name": "USPS COLLECTION BOX - BLUE BOX", "address": {"city": "AUSTIN", "state": "TX", "street": "7700 NORTHCROSS DR", "postcode": "78757"}}},
{"geometry": {"type": "Point", "coordinates": [-97.7362775311, 30.3546764413]}, "type": "Feature", "properties": {"collection_times": [{"days": "Mon-Fri", "time": "5:00pm"}, {"days": "Sat", "time": "3:15pm"}, {"days": "Sun", "time": "Closed"}], "id": "7875700044", "name": "USPS COLLECTION BOX - APC", "address": {"city": "AUSTIN", "state": "TX", "street": "7700 NORTHCROSS DR", "postcode": "78757"}}},
{"geometry": {"type": "Point", "coordinates": [-97.7079865131, 30.3835930284]}, "type": "Feature", "properties": {"collection_times": [{"days": "Mon-Sat", "time": "5:00pm"}, {"days": "Sun", "time": "Closed"}], "id": "7875800001", "name": "USPS COLLECTION BOX - EXPRESS", "address": {"city": "AUSTIN", "state": "TX", "street": "1822 W BRAKER LN", "postcode": "78758"}}},
{"geometry": {"type": "Point", "coordinates": [-97.7108486452, 30.3879956635]}, "type": "Feature", "properties": {"collection_times": [{"days": "Mon-Fri", "time": "1:30pm"}, {"days": "Sat-Sun", "time": "Closed"}], "id": "7875800002", "name": "USPS COLLECTION BOX - BLUE BOX", "address": {"city": "AUSTIN", "state": "TX", "street": "10806 METRIC BLVD", "postcode": "78758"}}},
{"geometry": {"type": "Point", "coordinates": [-97.7227716886, 30.3852511987]}, "type": "Feature", "properties": {"collection_times": [{"days": "Mon-Fri", "time": "12:00pm"}, {"days": "Sat-Sun", "time": "Closed"}], "id": "7875800007", "name": "USPS COLLECTION BOX - BLUE BOX", "address": {"city": "AUSTIN", "state": "TX", "street": "2600 MCHALE CT", "postcode": "78758"}}},
{"geometry": {"type": "Point", "coordinates": [-97.7268927012, 30.3809755225]}, "type": "Feature", "properties": {"collection_times": [{"days": "Mon-Fri", "time": "12:00pm"}, {"days": "Sat-Sun", "time": "Closed"}], "id": "7875800008", "name": "USPS COLLECTION BOX - BLUE BOX", "address": {"city": "AUSTIN", "state": "TX", "street": "2809 LONGHORN BLVD", "postcode": "78758"}}},
{"geometry": {"type": "Point", "coordinates": [-97.7195670527, 30.3925666169]}, "type": "Feature", "properties": {"collection_times": [{"days": "Mon-Fri", "time": "12:00pm"}, {"days": "Sat-Sun", "time": "Closed"}], "id": "7875800009", "name": "USPS COLLECTION BOX - BLUE BOX", "address": {"city": "AUSTIN", "state": "TX", "street": "2545 BROCKTON DR", "postcode": "78758"}}},
{"geometry": {"type": "Point", "coordinates": [-97.7166924624, 30.3609887103]}, "type": "Feature", "properties": {"collection_times": [{"days": "Mon-Fri", "time": "4:30pm"}, {"days": "Sat", "time": "1:45pm"}, {"days": "Sun", "time": "Closed"}], "id": "7875800016", "name": "USPS COLLECTION BOX - BLUE BOX", "address": {"city": "AUSTIN", "state": "TX", "street": "8557 RESEARCH BLVD", "postcode": "78758"}}},
{"geometry": {"type": "Point", "coordinates": [-97.7260011665, 30.3745986532]}, "type": "Feature", "properties": {"collection_times": [{"days": "Mon-Fri", "time": "3:15pm"}, {"days": "Sat-Sun", "time": "Closed"}], "id": "7875800021", "name": "USPS COLLECTION BOX - BLUE BOX", "address": {"city": "AUSTIN", "state": "TX", "street": "9101 BURNET RD", "postcode": "78758"}}},
{"geometry": {"type": "Point", "coordinates": [-97.7236884818, 30.3852926022]}, "type": "Feature", "properties": {"collection_times": [{"days": "Mon-Fri", "time": "12:00pm"}, {"days": "Sat-Sun", "time": "Closed"}], "id": "7875800024", "name": "USPS COLLECTION BOX - BLUE BOX", "address": {"city": "AUSTIN", "state": "TX", "street": "10100 BURNET RD", "postcode": "78758"}}},
{"geometry": {"type": "Point", "coordinates": [-97.7055193883, 30.3912659017]}, "type": "Feature", "properties": {"collection_times": [{"days": "Mon-Sat", "time": "5:00pm"}, {"days": "Sun", "time": "Closed"}], "id": "7875800038", "name": "USPS COLLECTION BOX - BLUE BOX", "address": {"city": "AUSTIN", "state": "TX", "street": "1822 W BRAKER LN", "postcode": "78758"}}},
{"geometry": {"type": "Point", "coordinates": [-97.7059216211, 30.3914002194]}, "type": "Feature", "properties": {"collection_times": [{"days": "Mon-Sat", "time": "5:00pm"}, {"days": "Sun", "time": "Closed"}], "id": "7875800039", "name": "USPS COLLECTION BOX - BLUE BOX", "address": {"city": "AUSTIN", "state": "TX", "street": "1822 W BRAKER LN", "postcode": "78758"}}},
{"geometry": {"type": "Point", "coordinates": [-97.7196151921, 30.368753413]}, "type": "Feature", "properties": {"collection_times": [{"days": "Mon-Fri", "time": "12:00pm"}, {"days": "Sat-Sun", "time": "Closed"}], "id": "7875800047", "name": "USPS COLLECTION BOX - BLUE BOX", "address": {"city": "AUSTIN", "state": "TX", "street": "8868 RESEARCH BLVD", "postcode": "78758"}}},
{"geometry": {"type": "Point", "coordinates": [-97.7059216211, 30.3914002194]}, "type": "Feature", "properties": {"collection_times": [{"days": "Mon-Sat", "time": "5:00pm"}, {"days": "Sun", "time": "Closed"}], "id": "7875800061", "name": "USPS COLLECTION BOX - PO LOBBY", "address": {"city": "AUSTIN", "state": "TX", "street": "1822 W BRAKER LN", "postcode": "78758"}}},
{"geometry": {"type": "Point", "coordinates": [-97.7071873872, 30.3941718922]}, "type": "Feature", "properties": {"collection_times": [{"days": "Mon-Fri", "time": "1:15pm"}, {"days": "Sat-Sun", "time": "Closed"}], "id": "7875800063", "name": "USPS COLLECTION BOX - BLUE BOX", "address": {"city": "AUSTIN", "state": "TX", "street": "11500 METRIC BLVD", "postcode": "78758"}}},
{"geometry": {"type": "Point", "coordinates": [-97.7073624651, 30.4129016815]}, "type": "Feature", "properties": {"collection_times": [{"days": "Mon-Fri", "time": "2:45pm"}, {"days": "Sat-Sun", "time": "Closed"}], "id": "7875800064", "name": "USPS COLLECTION BOX - BLUE BOX", "address": {"city": "AUSTIN", "state": "TX", "street": "12221 N MOPAC EXPY", "postcode": "78758"}}},
{"geometry": {"type": "Point", "coordinates": [-97.7059216211, 30.3914002194]}, "type": "Feature", "properties": {"collection_times": [{"days": "Mon-Sat", "time": "5:00pm"}, {"days": "Sun", "time": "Closed"}], "id": "7875800071", "name": "USPS COLLECTION BOX - PO LOBBY", "address": {"city": "AUSTIN", "state": "TX", "street": "1822 W BRAKER LN", "postcode": "78758"}}},
{"geometry": {"type": "Point", "coordinates": [-97.7227338339, 30.3885019699]}, "type": "Feature", "properties": {"collection_times": [{"days": "Mon-Fri", "time": "12:00pm"}, {"days": "Sat-Sun", "time": "Closed"}], "id": "7875800073", "name": "USPS COLLECTION BOX - BLUE BOX", "address": {"city": "AUSTIN", "state": "TX", "street": "10435 BURNET RD", "postcode": "78758"}}},
{"geometry": {"type": "Point", "coordinates": [-97.7058264121, 30.3683399482]}, "type": "Feature", "properties": {"collection_times": [{"days": "Mon-Fri", "time": "12:15pm"}, {"days": "Sat-Sun", "time": "Closed"}], "id": "7875800076", "name": "USPS COLLECTION BOX - BLUE BOX", "address": {"city": "AUSTIN", "state": "TX", "street": "9400 PARKFIELD DR", "postcode": "78758"}}},
{"geometry": {"type": "Point", "coordinates": [-97.7059216211, 30.3914002194]}, "type": "Feature", "properties": {"collection_times": [{"days": "Mon-Sat", "time": "5:00pm"}, {"days": "Sun", "time": "Closed"}], "id": "7875800078", "name": "USPS COLLECTION BOX - APC", "address": {"city": "AUSTIN", "state": "TX", "street": "1822 W BRAKER LN", "postcode": "78758"}}},
{"geometry": {"type": "Point", "coordinates": [-97.7411276628, 30.3783734752]}, "type": "Feature", "properties": {"collection_times": [{"days": "Mon-Fri", "time": "4:15pm"}, {"days": "Sat", "time": "12:45pm"}, {"days": "Sun", "time": "Closed"}], "id": "7875900001", "name": "USPS COLLECTION BOX - BLUE BOX", "address": {"city": "AUSTIN", "state": "TX", "street": "8820 BUSINESS PARK DR", "postcode": "78759"}}},
{"geometry": {"type": "Point", "coordinates": [-97.7533396805, 30.4012511308]}, "type": "Feature", "properties": {"collection_times": [{"days": "Mon-Fri", "time": "5:00pm"}, {"days": "Sat", "time": "3:00pm"}, {"days": "Sun", "time": "Closed"}], "id": "7875900002", "name": "USPS COLLECTION BOX - EXPRESS", "address": {"city": "AUSTIN", "state": "TX", "street": "11900 JOLLYVILLE RD", "postcode": "78759"}}},
{"geometry": {"type": "Point", "coordinates": [-97.7456087114, 30.4072305762]}, "type": "Feature", "properties": {"collection_times": [{"days": "Mon-Fri", "time": "3:15pm"}, {"days": "Sat", "time": "12:00pm"}, {"days": "Sun", "time": "Closed"}], "id": "7875900005", "name": "USPS COLLECTION BOX - BLUE BOX", "address": {"city": "AUSTIN", "state": "TX", "street": "11150 RESEARCH BLVD", "postcode": "78759"}}},
{"geometry": {"type": "Point", "coordinates": [-97.7372960587, 30.3980827546]}, "type": "Feature", "properties": {"collection_times": [{"days": "Mon-Fri", "time": "12:00pm"}, {"days": "Sat-Sun", "time": "Closed"}], "id": "7875900010", "name": "USPS COLLECTION BOX - BLUE BOX", "address": {"city": "AUSTIN", "state": "TX", "street": "4030 W BRAKER LN", "postcode": "78759"}}},
{"geometry": {"type": "Point", "coordinates": [-97.757469058, 30.3769148868]}, "type": "Feature", "properties": {"collection_times": [{"days": "Mon-Fri", "time": "2:45pm"}, {"days": "Sat", "time": "1:00pm"}, {"days": "Sun", "time": "Closed"}], "id": "7875900015", "name": "USPS COLLECTION BOX - BLUE BOX", "address": {"city": "AUSTIN", "state": "TX", "street": "4159 STECK AVE", "postcode": "78759"}}},
{"geometry": {"type": "Point", "coordinates": [-97.7502578627, 30.3872356174]}, "type": "Feature", "properties": {"collection_times": [{"days": "Mon-Fri", "time": "2:45pm"}, {"days": "Sat", "time": "12:30pm"}, {"days": "Sun", "time": "Closed"}], "id": "7875900016", "name": "USPS COLLECTION BOX - BLUE BOX", "address": {"city": "AUSTIN", "state": "TX", "street": "9101 WILDRIDGE DR", "postcode": "78759"}}},
{"geometry": {"type": "Point", "coordinates": [-97.7718420094, 30.4335372177]}, "type": "Feature", "properties": {"collection_times": [{"days": "Mon-Fri", "time": "3:00pm"}, {"days": "Sat", "time": "12:30pm"}, {"days": "Sun", "time": "Closed"}], "id": "7875900017", "name": "USPS COLLECTION BOX - BLUE BOX", "address": {"city": "AUSTIN", "state": "TX", "street": "8650 SPICEWOOD SPRINGS RD", "postcode": "78759"}}},
{"geometry": {"type": "Point", "coordinates": [-97.7615561812, 30.3882665611]}, "type": "Feature", "properties": {"collection_times": [{"days": "Mon-Fri", "time": "4:00pm"}, {"days": "Sat-Sun", "time": "Closed"}], "id": "7875900021", "name": "USPS COLLECTION BOX - BLUE BOX", "address": {"city": "AUSTIN", "state": "TX", "street": "8834 N CAPITAL OF TEXAS HWY", "postcode": "78759"}}},
{"geometry": {"type": "Point", "coordinates": [-97.7533396805, 30.4012511308]}, "type": "Feature", "properties": {"collection_times": [{"days": "Mon-Fri", "time": "2:15pm"}, {"days": "Sat", "time": "12:45pm"}, {"days": "Sun", "time": "Closed"}], "id": "7875900023", "name": "USPS COLLECTION BOX - BLUE BOX", "address": {"city": "AUSTIN", "state": "TX", "street": "8200 N MOPAC EXPY", "postcode": "78759"}}},
{"geometry": {"type": "Point", "coordinates": [-97.7533396805, 30.4012511308]}, "type": "Feature", "properties": {"collection_times": [{"days": "Mon-Fri", "time": "2:15pm"}, {"days": "Sat", "time": "12:45pm"}, {"days": "Sun", "time": "Closed"}], "id": "7875900024", "name": "USPS COLLECTION BOX - BLUE BOX", "address": {"city": "AUSTIN", "state": "TX", "street": "8500 N MOPAC EXPY", "postcode": "78759"}}},
{"geometry": {"type": "Point", "coordinates": [-97.7449107656, 30.4057980129]}, "type": "Feature", "properties": {"collection_times": [{"days": "Mon-Fri", "time": "12:15pm"}, {"days": "Sat-Sun", "time": "Closed"}], "id": "7875900028", "name": "USPS COLLECTION BOX - BLUE BOX", "address": {"city": "AUSTIN", "state": "TX", "street": "11111 RESEARCH BLVD", "postcode": "78759"}}},
{"geometry": {"type": "Point", "coordinates": [-97.7464805521, 30.3985500233]}, "type": "Feature", "properties": {"collection_times": [{"days": "Mon-Fri", "time": "3:30pm"}, {"days": "Sat", "time": "12:00pm"}, {"days": "Sun", "time": "Closed"}], "id": "7875900029", "name": "USPS COLLECTION BOX - BLUE BOX", "address": {"city": "AUSTIN", "state": "TX", "street": "10710 RESEARCH BLVD", "postcode": "78759"}}},
{"geometry": {"type": "Point", "coordinates": [-97.7439904235, 30.4142857435]}, "type": "Feature", "properties": {"collection_times": [{"days": "Mon-Fri", "time": "12:15pm"}, {"days": "Sat", "time": "12:00pm"}, {"days": "Sun", "time": "Closed"}], "id": "7875900030", "name": "USPS COLLECTION BOX - BLUE BOX", "address": {"city": "AUSTIN", "state": "TX", "street": "11615 ANGUS RD", "postcode": "78759"}}},
{"geometry": {"type": "Point", "coordinates": [-97.7591169198, 30.3739870634]}, "type": "Feature", "properties": {"collection_times": [{"days": "Mon-Fri", "time": "3:45pm"}, {"days": "Sat", "time": "1:00pm"}, {"days": "Sun", "time": "Closed"}], "id": "7875900031", "name": "USPS COLLECTION BOX - BLUE BOX", "address": {"city": "AUSTIN", "state": "TX", "street": "4501 SPICEWOOD SPRINGS RD", "postcode": "78759"}}},
{"geometry": {"type": "Point", "coordinates": [-97.7572123559, 30.4247147097]}, "type": "Feature", "properties": {"collection_times": [{"days": "Mon-Fri", "time": "5:00pm"}, {"days": "Sat", "time": "3:00pm"}, {"days": "Sun", "time": "Closed"}], "id": "7875900032", "name": "USPS COLLECTION BOX - BLUE BOX", "address": {"city": "AUSTIN", "state": "TX", "street": "11900 JOLLYVILLE RD", "postcode": "78759"}}},
{"geometry": {"type": "Point", "coordinates": [-97.7572123559, 30.4247147097]}, "type": "Feature", "properties": {"collection_times": [{"days": "Mon-Fri", "time": "5:00pm"}, {"days": "Sat", "time": "3:00pm"}, {"days": "Sun", "time": "Closed"}], "id": "7875900033", "name": "USPS COLLECTION BOX - BLUE BOX", "address": {"city": "AUSTIN", "state": "TX", "street": "11900 JOLLYVILLE RD", "postcode": "78759"}}},
{"geometry": {"type": "Point", "coordinates": [-97.7533396805, 30.4012511308]}, "type": "Feature", "properties": {"collection_times": [{"days": "Mon-Fri", "time": "2:15pm"}, {"days": "Sat", "time": "12:45pm"}, {"days": "Sun", "time": "Closed"}], "id": "7875900034", "name": "USPS COLLECTION BOX - BLUE BOX", "address": {"city": "AUSTIN", "state": "TX", "street": "8200 N MOPAC EXPY", "postcode": "78759"}}},
{"geometry": {"type": "Point", "coordinates": [-97.7533396805, 30.4012511308]}, "type": "Feature", "properties": {"collection_times": [{"days": "Mon-Fri", "time": "4:45pm"}, {"days": "Sat", "time": "1:15pm"}, {"days": "Sun", "time": "Closed"}], "id": "7875900039", "name": "USPS COLLECTION BOX - BLUE BOX", "address": {"city": "AUSTIN", "state": "TX", "street": "8701 N MOPAC EXPY", "postcode": "78759"}}},
{"geometry": {"type": "Point", "coordinates": [-97.7650435442, 30.3786183477]}, "type": "Feature", "properties": {"collection_times": [{"days": "Mon-Fri", "time": "3:45pm"}, {"days": "Sat-Sun", "time": "Closed"}], "id": "7875900041", "name": "USPS COLLECTION BOX - BLUE BOX", "address": {"city": "AUSTIN", "state": "TX", "street": "4833 SPICEWOOD SPRINGS RD", "postcode": "78759"}}},
{"geometry": {"type": "Point", "coordinates": [-97.7551173355, 30.3700702863]}, "type": "Feature", "properties": {"collection_times": [{"days": "Mon-Fri", "time": "2:45pm"}, {"days": "Sat", "time": "1:15pm"}, {"days": "Sun", "time": "Closed"}], "id": "7875900042", "name": "USPS COLLECTION BOX - BLUE BOX", "address": {"city": "AUSTIN", "state": "TX", "street": "4107 SPICEWOOD SPRINGS RD", "postcode": "78759"}}},
{"geometry": {"type": "Point", "coordinates": [-97.7554130753, 30.3705505676]}, "type": "Feature", "properties": {"collection_times": [{"days": "Mon-Fri", "time": "2:45pm"}, {"days": "Sat", "time": "1:15pm"}, {"days": "Sun", "time": "Closed"}], "id": "7875900043", "name": "USPS COLLECTION BOX - BLUE BOX", "address": {"city": "AUSTIN", "state": "TX", "street": "4131 SPICEWOOD SPRINGS RD", "postcode": "78759"}}},
{"geometry": {"type": "Point", "coordinates": [-97.7561784497, 30.3712284031]}, "type": "Feature", "properties": {"collection_times": [{"days": "Mon-Fri", "time": "2:45pm"}, {"days": "Sat", "time": "1:15pm"}, {"days": "Sun", "time": "Closed"}], "id": "7875900044", "name": "USPS COLLECTION BOX - BLUE BOX", "address": {"city": "AUSTIN", "state": "TX", "street": "4210 SPICEWOOD SPRINGS RD", "postcode": "78759"}}},
{"geometry": {"type": "Point", "coordinates": [-97.7535854037, 30.387057577]}, "type": "Feature", "properties": {"collection_times": [{"days": "Mon-Fri", "time": "2:45pm"}, {"days": "Sat-Sun", "time": "Closed"}], "id": "7875900048", "name": "USPS COLLECTION BOX - BLUE BOX", "address": {"city": "AUSTIN", "state": "TX", "street": "9009 MOUNTAIN RIDGE DR", "postcode": "78759"}}},
{"geometry": {"type": "Point", "coordinates": [-97.7665840873, 30.4332317694]}, "type": "Feature", "properties": {"collection_times": [{"days": "Mon-Fri", "time": "12:15pm"}, {"days": "Sat", "time": "12:00pm"}, {"days": "Sun", "time": "Closed"}], "id": "7875900049", "name": "USPS COLLECTION BOX - BLUE BOX", "address": {"city": "AUSTIN", "state": "TX", "street": "12731 RESEARCH BLVD", "postcode": "78759"}}},
{"geometry": {"type": "Point", "coordinates": [-97.7478243935, 30.4082928734]}, "type": "Feature", "properties": {"collection_times": [{"days": "Mon-Fri", "time": "3:00pm"}, {"days": "Sat-Sun", "time": "Closed"}], "id": "7875900050", "name": "USPS COLLECTION BOX - BLUE BOX", "address": {"city": "AUSTIN", "state": "TX", "street": "11130 JOLLYVILLE RD", "postcode": "78759"}}},
{"geometry": {"type": "Point", "coordinates": [-97.7459093317, 30.3947177102]}, "type": "Feature", "properties": {"collection_times": [{"days": "Mon-Sat", "time": "12:00pm"}, {"days": "Sun", "time": "Closed"}], "id": "7875900053", "name": "USPS COLLECTION BOX - BLUE BOX", "address": {"city": "AUSTIN", "state": "TX", "street": "10225 RESEARCH BLVD", "postcode": "78759"}}},
{"geometry": {"type": "Point", "coordinates": [-97.7572123559, 30.4247147097]}, "type": "Feature", "properties": {"collection_times": [{"days": "Mon-Fri", "time": "5:00pm"}, {"days": "Sat", "time": "3:00pm"}, {"days": "Sun", "time": "Closed"}], "id": "7875900057", "name": "USPS COLLECTION BOX - PO LOBBY", "address": {"city": "AUSTIN", "state": "TX", "street": "11900 JOLLYVILLE RD", "postcode": "78759"}}},
{"geometry": {"type": "Point", "coordinates": [-97.7572123559, 30.4247147097]}, "type": "Feature", "properties": {"collection_times": [{"days": "Mon-Fri", "time": "5:00pm"}, {"days": "Sat", "time": "3:00pm"}, {"days": "Sun", "time": "Closed"}], "id": "7875900058", "name": "USPS COLLECTION BOX - PO LOBBY", "address": {"city": "AUSTIN", "state": "TX", "street": "11900 JOLLYVILLE RD", "postcode": "78759"}}},
{"geometry": {"type": "Point", "coordinates": [-96.6574174276, 32.7843801513]}, "type": "Feature", "properties": {"collection_times": [{"days": "Mon-Fri", "time": "3:45pm"}, {"days": "Sat", "time": "12:00pm"}, {"days": "Sun", "time": "Closed"}], "id": "7875900059", "name": "USPS COLLECTION BOX - BLUE BOX", "address": {"city": "AUSTIN", "state": "TX", "street": "9722 GREAT HILLS TRL", "postcode": "78759"}}},
{"geometry": {"type": "Point", "coordinates": [-97.7512033493, 30.3657406261]}, "type": "Feature", "properties": {"collection_times": [{"days": "Mon-Fri", "time": "2:45pm"}, {"days": "Sat-Sun", "time": "Closed"}], "id": "7875900060", "name": "USPS COLLECTION BOX - BLUE BOX", "address": {"city": "AUSTIN", "state": "TX", "street": "3901B SPICEWOOD SPRINGS RD", "postcode": "78759"}}},
{"geometry": {"type": "Point", "coordinates": [-97.7478563334, 30.4122936406]}, "type": "Feature", "properties": {"collection_times": [{"days": "Mon-Fri", "time": "3:00pm"}, {"days": "Sat", "time": "12:00pm"}, {"days": "Sun", "time": "Closed"}], "id": "7875900061", "name": "USPS COLLECTION BOX - BLUE BOX", "address": {"city": "AUSTIN", "state": "TX", "street": "11410 JOLLYVILLE RD", "postcode": "78759"}}},
{"geometry": {"type": "Point", "coordinates": [-97.7533396805, 30.4012511308]}, "type": "Feature", "properties": {"collection_times": [{"days": "Mon-Fri", "time": "4:30pm"}, {"days": "Sat-Sun", "time": "Closed"}], "id": "7875900063", "name": "USPS COLLECTION BOX - BLUE BOX", "address": {"city": "AUSTIN", "state": "TX", "street": "10801 N MO PAC EXPY FL 3", "postcode": "78759"}}},
{"geometry": {"type": "Point", "coordinates": [-97.7533396805, 30.4012511308]}, "type": "Feature", "properties": {"collection_times": [{"days": "Mon-Fri", "time": "4:30pm"}, {"days": "Sat-Sun", "time": "Closed"}], "id": "7875900064", "name": "USPS COLLECTION BOX - BLUE BOX", "address": {"city": "AUSTIN", "state": "TX", "street": "10801 N MO PAC EXPY FL 3", "postcode": "78759"}}},
{"geometry": {"type": "Point", "coordinates": [-97.7572123559, 30.4247147097]}, "type": "Feature", "properties": {"collection_times": [{"days": "Mon-Fri", "time": "5:00pm"}, {"days": "Sat", "time": "3:00pm"}, {"days": "Sun", "time": "Closed"}], "id": "7875900065", "name": "USPS COLLECTION BOX - APC", "address": {"city": "AUSTIN", "state": "TX", "street": "11900 JOLLYVILLE RD", "postcode": "78759"}}},
{"geometry": {"type": "Point", "coordinates": [-97.7521895121, 30.3944451557]}, "type": "Feature", "properties": {"collection_times": [{"days": "Mon-Fri", "time": "3:00pm"}, {"days": "Sat-Sun", "time": "Closed"}], "id": "7875900066", "name": "USPS COLLECTION BOX - BLUE BOX", "address": {"city": "AUSTIN", "state": "TX", "street": "9737 GREAT HILLS TRL", "postcode": "78759"}}},
{"geometry": {"type": "Point", "coordinates": [-97.7572123559, 30.4247147097]}, "type": "Feature", "properties": {"collection_times": [{"days": "Mon-Fri", "time": "5:00pm"}, {"days": "Sat", "time": "3:00pm"}, {"days": "Sun", "time": "Closed"}], "id": "7875900067", "name": "USPS COLLECTION BOX - APC", "address": {"city": "AUSTIN", "state": "TX", "street": "11900 JOLLYVILLE RD", "postcode": "78759"}}},
{"geometry": {"type": "Point", "coordinates": [-97.7436201574, 30.3818147029]}, "type": "Feature", "properties": {"collection_times": [{"days": "Mon-Fri", "time": "4:30pm"}, {"days": "Sat", "time": "12:45pm"}, {"days": "Sun", "time": "Closed"}], "id": "7875900068", "name": "USPS COLLECTION BOX - BLUE BOX", "address": {"city": "AUSTIN", "state": "TX", "street": "9111 JOLLYVILLE RD", "postcode": "78759"}}},
{"geometry": {"type": "Point", "coordinates": [-97.7433102221, 30.3849199702]}, "type": "Feature", "properties": {"collection_times": [{"days": "Mon-Fri", "time": "4:30pm"}, {"days": "Sat-Sun", "time": "Closed"}], "id": "7875900069", "name": "USPS COLLECTION BOX - BLUE BOX", "address": {"city": "AUSTIN", "state": "TX", "street": "9430 RESEARCH BLVD", "postcode": "78759"}}}
]}
