{"type": "FeatureCollection", "features": [
{"geometry": {"type": "Point", "coordinates": [-99.7861251874, 29.2095643358]}, "type": "Feature", "properties": {"collection_times": [{"days": "Mon-Fri", "time": "3:45pm"}, {"days": "Sat", "time": "2:45pm"}, {"days": "Sun", "time": "Closed"}], "id": "7880100025", "name": "USPS COLLECTION BOX - BLUE BOX", "address": {"city": "UVALDE", "state": "TX", "street": "102 N GETTY ST", "postcode": "78801"}}},
{"geometry": {"type": "Point", "coordinates": [-99.7697068677, 29.2147506243]}, "type": "Feature", "properties": {"collection_times": [{"days": "Mon-Fri", "time": "4:00pm"}, {"days": "Sat", "time": "3:00pm"}, {"days": "Sun", "time": "Closed"}], "id": "7880100026", "name": "USPS COLLECTION BOX - BLUE BOX", "address": {"city": "UVALDE", "state": "TX", "street": "1025 GARNER FIELD RD", "postcode": "78801"}}},
{"geometry": {"type": "Point", "coordinates": [-99.7846880786, 29.2117033348]}, "type": "Feature", "properties": {"collection_times": [{"days": "Mon-Fri", "time": "4:00pm"}, {"days": "Sat", "time": "3:00pm"}, {"days": "Sun", "time": "Closed"}], "id": "7880100028", "name": "USPS COLLECTION BOX - BLUE BOX", "address": {"city": "UVALDE", "state": "TX", "street": "200 E NOPAL ST", "postcode": "78801"}}},
{"geometry": {"type": "Point", "coordinates": [-99.7837291774, 29.210352964]}, "type": "Feature", "properties": {"collection_times": [{"days": "Mon-Fri", "time": "4:00pm"}, {"days": "Sat", "time": "3:00pm"}, {"days": "Sun", "time": "Closed"}], "id": "7880100029", "name": "USPS COLLECTION BOX - BLUE BOX", "address": {"city": "UVALDE", "state": "TX", "street": "220 E MAIN ST", "postcode": "78801"}}},
{"geometry": {"type": "Point", "coordinates": [-99.7691060323, 29.2150450293]}, "type": "Feature", "properties": {"collection_times": [{"days": "Mon-Fri", "time": "4:00pm"}, {"days": "Sat", "time": "3:00pm"}, {"days": "Sun", "time": "Closed"}], "id": "7880100030", "name": "USPS COLLECTION BOX - BLUE BOX", "address": {"city": "UVALDE", "state": "TX", "street": "1042 GARNER FIELD RD", "postcode": "78801"}}},
{"geometry": {"type": "Point", "coordinates": [-99.7747704915, 29.2131802543]}, "type": "Feature", "properties": {"collection_times": [{"days": "Mon-Fri", "time": "4:00pm"}, {"days": "Sat", "time": "3:00pm"}, {"days": "Sun", "time": "Closed"}], "id": "7880100036", "name": "USPS COLLECTION BOX - BLUE BOX", "address": {"city": "UVALDE", "state": "TX", "street": "727 E MAIN ST", "postcode": "78801"}}},
{"geometry": {"type": "Point", "coordinates": [-99.7933193619, 29.2268994443]}, "type": "Feature", "properties": {"collection_times": [{"days": "Mon-Fri", "time": "4:00pm"}, {"days": "Sat", "time": "3:00pm"}, {"days": "Sun", "time": "Closed"}], "id": "7880100038", "name": "USPS COLLECTION BOX - BLUE BOX", "address": {"city": "UVALDE", "state": "TX", "street": "1901 GARNER FIELD RD", "postcode": "78801"}}},
{"geometry": {"type": "Point", "coordinates": [-99.8067284497, 29.239331485]}, "type": "Feature", "properties": {"collection_times": [{"days": "Mon-Fri", "time": "5:30pm"}, {"days": "Sat", "time": "4:45pm"}, {"days": "Sun", "time": "Closed"}], "id": "7880100039", "name": "USPS COLLECTION BOX - EXPRESS", "address": {"city": "UVALDE", "state": "TX", "street": "103 S GETTY ST", "postcode": "78801"}}},
{"geometry": {"type": "Point", "coordinates": [-99.7573645891, 29.2184821081]}, "type": "Feature", "properties": {"collection_times": [{"days": "Mon-Fri", "time": "4:00pm"}, {"days": "Sat", "time": "3:00pm"}, {"days": "Sun", "time": "Closed"}], "id": "7880100044", "name": "USPS COLLECTION BOX - BLUE BOX", "address": {"city": "UVALDE", "state": "TX", "street": "2108 GARNER FIELD RD", "postcode": "78801"}}},
{"geometry": {"type": "Point", "coordinates": [-99.7862023378, 29.2094265915]}, "type": "Feature", "properties": {"collection_times": [{"days": "Mon-Fri", "time": "5:30pm"}, {"days": "Sat", "time": "4:45pm"}, {"days": "Sun", "time": "Closed"}], "id": "7880100045", "name": "USPS COLLECTION BOX - BLUE BOX", "address": {"city": "UVALDE", "state": "TX", "street": "103 S GETTY ST", "postcode": "78801"}}},
{"geometry": {"type": "Point", "coordinates": [-99.7862023378, 29.2094265915]}, "type": "Feature", "properties": {"collection_times": [{"days": "Mon-Fri", "time": "5:30pm"}, {"days": "Sat", "time": "4:45pm"}, {"days": "Sun", "time": "Closed"}], "id": "7880100046", "name": "USPS COLLECTION BOX - BLUE BOX", "address": {"city": "UVALDE", "state": "TX", "street": "103 S GETTY ST", "postcode": "78801"}}},
{"geometry": {"type": "Point", "coordinates": [-99.7862023378, 29.2094265915]}, "type": "Feature", "properties": {"collection_times": [{"days": "Mon-Fri", "time": "5:30pm"}, {"days": "Sat", "time": "3:30pm"}, {"days": "Sun", "time": "Closed"}], "id": "7880100048", "name": "USPS COLLECTION BOX - PO LOBBY", "address": {"city": "UVALDE", "state": "TX", "street": "103 S GETTY ST", "postcode": "78801"}}},
{"geometry": {"type": "Point", "coordinates": [-99.7862023378, 29.2094265915]}, "type": "Feature", "properties": {"collection_times": [{"days": "Mon-Fri", "time": "5:30pm"}, {"days": "Sat", "time": "3:30pm"}, {"days": "Sun", "time": "Closed"}], "id": "7880100049", "name": "USPS COLLECTION BOX - PO LOBBY", "address": {"city": "UVALDE", "state": "TX", "street": "103 S GETTY ST", "postcode": "78801"}}},
{"geometry": {"type": "Point", "coordinates": [-99.7584870864, 28.4430408909]}, "type": "Feature", "properties": {"collection_times": [{"days": "Mon-Fri", "time": "2:30pm"}, {"days": "Sat", "time": "10:00am"}, {"days": "Sun", "time": "Closed"}], "id": "7882700001", "name": "USPS COLLECTION BOX - BLUE BOX", "address": {"city": "ASHERTON", "state": "TX", "street": "572 W CARTER ST", "postcode": "78827"}}},
{"geometry": {"type": "Point", "coordinates": [-99.7584870864, 28.4430408909]}, "type": "Feature", "properties": {"collection_times": [{"days": "Mon-Fri", "time": "2:30pm"}, {"days": "Sat", "time": "10:00am"}, {"days": "Sun", "time": "Closed"}], "id": "7882700003", "name": "USPS COLLECTION BOX - PO LOBBY", "address": {"city": "ASHERTON", "state": "TX", "street": "572 W CARTER ST", "postcode": "78827"}}},
{"geometry": {"type": "Point", "coordinates": [-100.1456377718, 29.7383153696]}, "type": "Feature", "properties": {"collection_times": [{"days": "Mon-Fri", "time": "3:15pm"}, {"days": "Sat", "time": "12:30pm"}, {"days": "Sun", "time": "Closed"}], "id": "7882800001", "name": "USPS COLLECTION BOX - BLUE BOX", "address": {"city": "BARKSDALE", "state": "TX", "street": "25594 S STATE HWY 55", "postcode": "78828"}}},
{"geometry": {"type": "Point", "coordinates": [-100.1456377718, 29.7383153696]}, "type": "Feature", "properties": {"collection_times": [{"days": "Mon-Fri", "time": "11:45am"}, {"days": "Sat", "time": "11:00am"}, {"days": "Sun", "time": "Closed"}], "id": "7882800002", "name": "USPS COLLECTION BOX - PO LOBBY", "address": {"city": "BARKSDALE", "state": "TX", "street": "25594 S STATE HWY 55", "postcode": "78828"}}},
{"geometry": {"type": "Point", "coordinates": [-99.614403414, 28.9558805385]}, "type": "Feature", "properties": {"collection_times": [{"days": "Mon-Fri", "time": "4:30pm"}, {"days": "Sat", "time": "12:00pm"}, {"days": "Sun", "time": "Closed"}], "id": "7882900001", "name": "USPS COLLECTION BOX - BLUE BOX", "address": {"city": "BATESVILLE", "state": "TX", "street": "1 NOPAL ALY", "postcode": "78829"}}},
{"geometry": {"type": "Point", "coordinates": [-99.608139973, 28.9328417266]}, "type": "Feature", "properties": {"collection_times": [{"days": "Mon-Fri", "time": "3:15pm"}, {"days": "Sat", "time": "11:30am"}, {"days": "Sun", "time": "Closed"}], "id": "7882900003", "name": "USPS COLLECTION BOX - PO LOBBY", "address": {"city": "BATESVILLE", "state": "TX", "street": "1 NOPAL ALY", "postcode": "78829"}}},
{"geometry": {"type": "Point", "coordinates": [-99.5691424925, 28.5734055772]}, "type": "Feature", "properties": {"collection_times": [{"days": "Mon-Fri", "time": "2:45pm"}, {"days": "Sat", "time": "10:45am"}, {"days": "Sun", "time": "Closed"}], "id": "7883000001", "name": "USPS COLLECTION BOX - BLUE BOX", "address": {"city": "BIG WELLS", "state": "TX", "street": "1411 GRAND AVE", "postcode": "78830"}}},
{"geometry": {"type": "Point", "coordinates": [-99.5691424925, 28.5734055772]}, "type": "Feature", "properties": {"collection_times": [{"days": "Mon-Fri", "time": "11:30am"}, {"days": "Sat", "time": "10:45am"}, {"days": "Sun", "time": "Closed"}], "id": "7883000002", "name": "USPS COLLECTION BOX - PO LOBBY", "address": {"city": "BIG WELLS", "state": "TX", "street": "1411 GRAND AVE", "postcode": "78830"}}},
{"geometry": {"type": "Point", "coordinates": [-100.4158671981, 29.3094611231]}, "type": "Feature", "properties": {"collection_times": [{"days": "Mon-Fri", "time": "3:30pm"}, {"days": "Sat", "time": "8:00am"}, {"days": "Sun", "time": "Closed"}], "id": "7883200002", "name": "USPS COLLECTION BOX - BLUE BOX", "address": {"city": "BRACKETTVILLE", "state": "TX", "street": "308 E SPRING ST", "postcode": "78832"}}},
{"geometry": {"type": "Point", "coordinates": [-100.4158671981, 29.3094611231]}, "type": "Feature", "properties": {"collection_times": [{"days": "Mon-Fri", "time": "3:30pm"}, {"days": "Sat", "time": "8:00am"}, {"days": "Sun", "time": "Closed"}], "id": "7883200003", "name": "USPS COLLECTION BOX - BLUE BOX", "address": {"city": "BRACKETTVILLE", "state": "TX", "street": "308 E SPRING ST", "postcode": "78832"}}},
{"geometry": {"type": "Point", "coordinates": [-100.4158671981, 29.3094611231]}, "type": "Feature", "properties": {"collection_times": [{"days": "Mon-Fri", "time": "3:30pm"}, {"days": "Sat", "time": "8:00am"}, {"days": "Sun", "time": "Closed"}], "id": "7883200005", "name": "USPS COLLECTION BOX - PO LOBBY", "address": {"city": "BRACKETTVILLE", "state": "TX", "street": "308 E SPRING ST", "postcode": "78832"}}},
{"geometry": {"type": "Point", "coordinates": [-99.9740779815, 29.7305862991]}, "type": "Feature", "properties": {"collection_times": [{"days": "Mon-Fri", "time": "3:00pm"}, {"days": "Sat", "time": "11:00am"}, {"days": "Sun", "time": "Closed"}], "id": "7883300001", "name": "USPS COLLECTION BOX - BLUE BOX", "address": {"city": "CAMP WOOD", "state": "TX", "street": "309 N NUECES", "postcode": "78833"}}},
{"geometry": {"type": "Point", "coordinates": [-99.9740779815, 29.7305862991]}, "type": "Feature", "properties": {"collection_times": [{"days": "Mon-Fri", "time": "3:00pm"}, {"days": "Sat", "time": "11:00am"}, {"days": "Sun", "time": "Closed"}], "id": "7883300002", "name": "USPS COLLECTION BOX - PO LOBBY", "address": {"city": "CAMP WOOD", "state": "TX", "street": "309 N NUECES", "postcode": "78833"}}},
{"geometry": {"type": "Point", "coordinates": [-99.8604472573, 28.5217906802]}, "type": "Feature", "properties": {"collection_times": [{"days": "Mon-Sat", "time": "4:00pm"}, {"days": "Sun", "time": "Closed"}], "id": "7883400007", "name": "USPS COLLECTION BOX - BLUE BOX", "address": {"city": "CARRIZO SPRINGS", "state": "TX", "street": "103 N 5TH ST", "postcode": "78834"}}},
{"geometry": {"type": "Point", "coordinates": [-99.859574107, 28.5239992998]}, "type": "Feature", "properties": {"collection_times": [{"days": "Mon-Fri", "time": "4:15pm"}, {"days": "Sat", "time": "12:00pm"}, {"days": "Sun", "time": "Closed"}], "id": "7883400009", "name": "USPS COLLECTION BOX - BLUE BOX", "address": {"city": "CARRIZO SPRINGS", "state": "TX", "street": "401 N 5TH ST", "postcode": "78834"}}},
{"geometry": {"type": "Point", "coordinates": [-99.8595307811, 28.5238849027]}, "type": "Feature", "properties": {"collection_times": [{"days": "Mon-Fri", "time": "4:30pm"}, {"days": "Sat", "time": "12:00pm"}, {"days": "Sun", "time": "Closed"}], "id": "7883400011", "name": "USPS COLLECTION BOX - PO LOBBY", "address": {"city": "CARRIZO SPRINGS", "state": "TX", "street": "401 N 5TH ST", "postcode": "78834"}}},
{"geometry": {"type": "Point", "coordinates": [-99.8595307811, 28.5238849027]}, "type": "Feature", "properties": {"collection_times": [{"days": "Mon-Fri", "time": "4:30pm"}, {"days": "Sat", "time": "12:00pm"}, {"days": "Sun", "time": "Closed"}], "id": "7883400012", "name": "USPS COLLECTION BOX - PO LOBBY", "address": {"city": "CARRIZO SPRINGS", "state": "TX", "street": "401 N 5TH ST", "postcode": "78834"}}},
{"geometry": {"type": "Point", "coordinates": [-99.6139666814, 28.3427591635]}, "type": "Feature", "properties": {"collection_times": [{"days": "Mon-Fri", "time": "2:15pm"}, {"days": "Sat", "time": "11:30am"}, {"days": "Sun", "time": "Closed"}], "id": "7883600001", "name": "USPS COLLECTION BOX - BLUE BOX", "address": {"city": "CATARINA", "state": "TX", "street": "19929 S US HIGHWAY 83", "postcode": "78836"}}},
{"geometry": {"type": "Point", "coordinates": [-101.4059664289, 29.9694799327]}, "type": "Feature", "properties": {"collection_times": [{"days": "Mon-Fri", "time": "2:30pm"}, {"days": "Sat", "time": "10:00am"}, {"days": "Sun", "time": "Closed"}], "id": "7883700001", "name": "USPS COLLECTION BOX - BLUE BOX", "address": {"city": "COMSTOCK", "state": "TX", "street": "32108 W US HIGHWAY 90", "postcode": "78837"}}},
{"geometry": {"type": "Point", "coordinates": [-101.4059664289, 29.9694799327]}, "type": "Feature", "properties": {"collection_times": [{"days": "Mon-Fri", "time": "2:30pm"}, {"days": "Sat", "time": "10:00am"}, {"days": "Sun", "time": "Closed"}], "id": "7883700002", "name": "USPS COLLECTION BOX - PO LOBBY", "address": {"city": "COMSTOCK", "state": "TX", "street": "32108 W US HIGHWAY 90", "postcode": "78837"}}},
{"geometry": {"type": "Point", "coordinates": [-99.6781170971, 29.4655516421]}, "type": "Feature", "properties": {"collection_times": [{"days": "Mon-Fri", "time": "3:15pm"}, {"days": "Sat", "time": "9:45am"}, {"days": "Sun", "time": "Closed"}], "id": "7883800001", "name": "USPS COLLECTION BOX - BLUE BOX", "address": {"city": "CONCAN", "state": "TX", "street": "20948 US HIGHWAY 127", "postcode": "78838"}}},
{"geometry": {"type": "Point", "coordinates": [-99.6781170971, 29.4655516421]}, "type": "Feature", "properties": {"collection_times": [{"days": "Mon-Fri", "time": "11:30am"}, {"days": "Sat", "time": "10:00am"}, {"days": "Sun", "time": "Closed"}], "id": "7883800002", "name": "USPS COLLECTION BOX - PO LOBBY", "address": {"city": "CONCAN", "state": "TX", "street": "20948 US HIGHWAY 127", "postcode": "78838"}}},
{"geometry": {"type": "Point", "coordinates": [-99.8275026503, 28.6799232988]}, "type": "Feature", "properties": {"collection_times": [{"days": "Mon-Fri", "time": "4:45pm"}, {"days": "Sat", "time": "12:00pm"}, {"days": "Sun", "time": "Closed"}], "id": "7883900002", "name": "USPS COLLECTION BOX - BLUE BOX", "address": {"city": "CRYSTAL CITY", "state": "TX", "street": "221 E UVALDE ST", "postcode": "78839"}}},
{"geometry": {"type": "Point", "coordinates": [-99.8275026503, 28.6799232988]}, "type": "Feature", "properties": {"collection_times": [{"days": "Mon-Fri", "time": "4:45pm"}, {"days": "Sat", "time": "12:00pm"}, {"days": "Sun", "time": "Closed"}], "id": "7883900003", "name": "USPS COLLECTION BOX - BLUE BOX", "address": {"city": "CRYSTAL CITY", "state": "TX", "street": "221 E UVALDE ST", "postcode": "78839"}}},
{"geometry": {"type": "Point", "coordinates": [-99.8275026503, 28.6799232988]}, "type": "Feature", "properties": {"collection_times": [{"days": "Mon-Fri", "time": "4:30pm"}, {"days": "Sat", "time": "11:30am"}, {"days": "Sun", "time": "Closed"}], "id": "7883900004", "name": "USPS COLLECTION BOX - PO LOBBY", "address": {"city": "CRYSTAL CITY", "state": "TX", "street": "221 E UVALDE ST", "postcode": "78839"}}},
{"geometry": {"type": "Point", "coordinates": [-99.8275026503, 28.6799232988]}, "type": "Feature", "properties": {"collection_times": [{"days": "Mon-Fri", "time": "4:30pm"}, {"days": "Sat", "time": "11:30am"}, {"days": "Sun", "time": "Closed"}], "id": "7883900006", "name": "USPS COLLECTION BOX - PO LOBBY", "address": {"city": "CRYSTAL CITY", "state": "TX", "street": "221 E UVALDE ST", "postcode": "78839"}}},
{"geometry": {"type": "Point", "coordinates": [-100.9033964088, 29.8182799916]}, "type": "Feature", "properties": {"collection_times": [{"days": "Mon-Sat", "time": "3:00pm"}, {"days": "Sun", "time": "Closed"}], "id": "7884000001", "name": "USPS COLLECTION BOX - BLUE BOX", "address": {"city": "DEL RIO", "state": "TX", "street": "2228 AVENUE F", "postcode": "78840"}}},
{"geometry": {"type": "Point", "coordinates": [-100.9032138341, 29.3747159499]}, "type": "Feature", "properties": {"collection_times": [{"days": "Mon-Sat", "time": "3:00pm"}, {"days": "Sun", "time": "Closed"}], "id": "7884000005", "name": "USPS COLLECTION BOX - BLUE BOX", "address": {"city": "DEL RIO", "state": "TX", "street": "1200 AVENUE E", "postcode": "78840"}}},
{"geometry": {"type": "Point", "coordinates": [-100.9075475375, 29.3625433103]}, "type": "Feature", "properties": {"collection_times": [{"days": "Mon-Sat", "time": "2:45pm"}, {"days": "Sun", "time": "Closed"}], "id": "7884000044", "name": "USPS COLLECTION BOX - BLUE BOX", "address": {"city": "DEL RIO", "state": "TX", "street": "600 GIBBS", "postcode": "78840"}}},
{"geometry": {"type": "Point", "coordinates": [-100.8987758371, 29.3560992129]}, "type": "Feature", "properties": {"collection_times": [{"days": "Mon-Sat", "time": "2:45pm"}, {"days": "Sun", "time": "Closed"}], "id": "7884000060", "name": "USPS COLLECTION BOX - BLUE BOX", "address": {"city": "DEL RIO", "state": "TX", "street": "913 S MAIN ST", "postcode": "78840"}}},
{"geometry": {"type": "Point", "coordinates": [-100.9016408557, 29.3890839712]}, "type": "Feature", "properties": {"collection_times": [{"days": "Mon-Sat", "time": "4:15pm"}, {"days": "Sun", "time": "Closed"}], "id": "7884000061", "name": "USPS COLLECTION BOX - BLUE BOX", "address": {"city": "DEL RIO", "state": "TX", "street": "2001 N BEDELL AVE", "postcode": "78840"}}},
{"geometry": {"type": "Point", "coordinates": [-100.8995964975, 29.3612933147]}, "type": "Feature", "properties": {"collection_times": [{"days": "Mon-Fri", "time": "4:15pm"}, {"days": "Sat", "time": "3:15pm"}, {"days": "Sun", "time": "Closed"}], "id": "7884000072", "name": "USPS COLLECTION BOX - BLUE BOX", "address": {"city": "DEL RIO", "state": "TX", "street": "114 E BROADWAY ST", "postcode": "78840"}}},
{"geometry": {"type": "Point", "coordinates": [-100.9016408557, 29.3890839712]}, "type": "Feature", "properties": {"collection_times": [{"days": "Mon-Sat", "time": "4:15pm"}, {"days": "Sun", "time": "Closed"}], "id": "7884000075", "name": "USPS COLLECTION BOX - BLUE BOX", "address": {"city": "DEL RIO", "state": "TX", "street": "2001 N BEDELL AVE", "postcode": "78840"}}},
{"geometry": {"type": "Point", "coordinates": [-100.8995964975, 29.3612933147]}, "type": "Feature", "properties": {"collection_times": [{"days": "Mon-Fri", "time": "4:15pm"}, {"days": "Sat-Sun", "time": "Closed"}], "id": "7884000080", "name": "USPS COLLECTION BOX - PO LOBBY", "address": {"city": "DEL RIO", "state": "TX", "street": "114 E BROADWAY ST", "postcode": "78840"}}},
{"geometry": {"type": "Point", "coordinates": [-100.9016408557, 29.3890839712]}, "type": "Feature", "properties": {"collection_times": [{"days": "Mon-Sat", "time": "4:15pm"}, {"days": "Sun", "time": "Closed"}], "id": "7884000081", "name": "USPS COLLECTION BOX - PO LOBBY", "address": {"city": "DEL RIO", "state": "TX", "street": "2001 N BEDELL AVE", "postcode": "78840"}}},
{"geometry": {"type": "Point", "coordinates": [-100.9016408557, 29.3890839712]}, "type": "Feature", "properties": {"collection_times": [{"days": "Mon-Sat", "time": "4:15pm"}, {"days": "Sun", "time": "Closed"}], "id": "7884000082", "name": "USPS COLLECTION BOX - PO LOBBY", "address": {"city": "DEL RIO", "state": "TX", "street": "2001 N BEDELL AVE", "postcode": "78840"}}},
{"geometry": {"type": "Point", "coordinates": [-100.9033964088, 29.8182799916]}, "type": "Feature", "properties": {"collection_times": [{"days": "Mon-Sat", "time": "2:45pm"}, {"days": "Sun", "time": "Closed"}], "id": "7884000087", "name": "USPS COLLECTION BOX - BLUE BOX", "address": {"city": "DEL RIO", "state": "TX", "street": "200 AVENUE F", "postcode": "78840"}}},
{"geometry": {"type": "Point", "coordinates": [-100.7702219676, 29.3605485259]}, "type": "Feature", "properties": {"collection_times": [{"days": "Mon-Sat", "time": "1:00pm"}, {"days": "Sun", "time": "Closed"}], "id": "7884300000", "name": "USPS COLLECTION BOX - BLUE BOX", "address": {"city": "DEL RIO", "state": "TX", "street": "4 ARNOLD BLVD BLDG 540", "postcode": "78843"}}},
{"geometry": {"type": "Point", "coordinates": [-100.7702219672, 29.3605485257]}, "type": "Feature", "properties": {"collection_times": [{"days": "Mon-Sat", "time": "1:00pm"}, {"days": "Sun", "time": "Closed"}], "id": "7884300001", "name": "USPS COLLECTION BOX - BLUE BOX", "address": {"city": "DEL RIO", "state": "TX", "street": "570 2ND ST", "postcode": "78843"}}},
{"geometry": {"type": "Point", "coordinates": [-100.7860506739, 29.3590130959]}, "type": "Feature", "properties": {"collection_times": [{"days": "Mon-Sat", "time": "1:00pm"}, {"days": "Sun", "time": "Closed"}], "id": "7884300002", "name": "USPS COLLECTION BOX - BLUE BOX", "address": {"city": "DEL RIO", "state": "TX", "street": "6 MITCHELL BLVD BLDG 375", "postcode": "78843"}}},
{"geometry": {"type": "Point", "coordinates": [-100.7702219672, 29.3605485257]}, "type": "Feature", "properties": {"collection_times": [{"days": "Mon-Sat", "time": "1:00pm"}, {"days": "Sun", "time": "Closed"}], "id": "7884300004", "name": "USPS COLLECTION BOX - BLUE BOX", "address": {"city": "DEL RIO", "state": "TX", "street": "253 4TH ST", "postcode": "78843"}}},
{"geometry": {"type": "Point", "coordinates": [-100.7702219672, 29.3605485257]}, "type": "Feature", "properties": {"collection_times": [{"days": "Mon-Sat", "time": "1:00pm"}, {"days": "Sun", "time": "Closed"}], "id": "7884300005", "name": "USPS COLLECTION BOX - BLUE BOX", "address": {"city": "DEL RIO", "state": "TX", "street": "357 4TH STREET", "postcode": "78843"}}},
{"geometry": {"type": "Point", "coordinates": [-99.2806992037, 29.3310071637]}, "type": "Feature", "properties": {"collection_times": [{"days": "Mon-Fri", "time": "3:45pm"}, {"days": "Sat", "time": "8:45am"}, {"days": "Sun", "time": "Closed"}], "id": "7885000001", "name": "USPS COLLECTION BOX - BLUE BOX", "address": {"city": "D HANIS", "state": "TX", "street": "7370 COUNTY ROAD 525", "postcode": "78850"}}},
{"geometry": {"type": "Point", "coordinates": [-99.2806992037, 29.3310071637]}, "type": "Feature", "properties": {"collection_times": [{"days": "Mon-Fri", "time": "4:00pm"}, {"days": "Sat", "time": "9:00am"}, {"days": "Sun", "time": "Closed"}], "id": "7885000003", "name": "USPS COLLECTION BOX - PO LOBBY", "address": {"city": "D HANIS", "state": "TX", "street": "7370 COUNTY ROAD 525", "postcode": "78850"}}},
{"geometry": {"type": "Point", "coordinates": [-99.2806992037, 29.3310071637]}, "type": "Feature", "properties": {"collection_times": [{"days": "Mon-Fri", "time": "4:00pm"}, {"days": "Sat", "time": "9:00am"}, {"days": "Sun", "time": "Closed"}], "id": "7885000004", "name": "USPS COLLECTION BOX - PO LOBBY", "address": {"city": "D HANIS", "state": "TX", "street": "7370 COUNTY ROAD 525", "postcode": "78850"}}},
{"geometry": {"type": "Point", "coordinates": [-102.0765044948, 30.2249612313]}, "type": "Feature", "properties": {"collection_times": [{"days": "Mon-Fri", "time": "12:30pm"}, {"days": "Sat", "time": "9:00am"}, {"days": "Sun", "time": "Closed"}], "id": "7885100001", "name": "USPS COLLECTION BOX - BLUE BOX", "address": {"city": "DRYDEN", "state": "TX", "street": "1949 US HIGHWAY 90 E", "postcode": "78851"}}},
{"geometry": {"type": "Point", "coordinates": [-102.0765044948, 30.2249612313]}, "type": "Feature", "properties": {"collection_times": [{"days": "Mon-Fri", "time": "12:30pm"}, {"days": "Sat", "time": "9:00am"}, {"days": "Sun", "time": "Closed"}], "id": "7885100002", "name": "USPS COLLECTION BOX - PO LOBBY", "address": {"city": "DRYDEN", "state": "TX", "street": "1949 US HIGHWAY 90 E", "postcode": "78851"}}},
{"geometry": {"type": "Point", "coordinates": [-100.5027001026, 28.7066206796]}, "type": "Feature", "properties": {"collection_times": [{"days": "Mon-Sat", "time": "3:00pm"}, {"days": "Sun", "time": "Closed"}], "id": "7885200003", "name": "USPS COLLECTION BOX - BLUE BOX", "address": {"city": "EAGLE PASS", "state": "TX", "street": "166 JEFFERSON ST", "postcode": "78852"}}},
{"geometry": {"type": "Point", "coordinates": [-100.4831522987, 28.7027499601]}, "type": "Feature", "properties": {"collection_times": [{"days": "Mon-Sat", "time": "4:15pm"}, {"days": "Sun", "time": "Closed"}], "id": "7885200014", "name": "USPS COLLECTION BOX - BLUE BOX", "address": {"city": "EAGLE PASS", "state": "TX", "street": "410 S BIBB AVE", "postcode": "78852"}}},
{"geometry": {"type": "Point", "coordinates": [-100.500085688, 28.7097449708]}, "type": "Feature", "properties": {"collection_times": [{"days": "Mon-Sat", "time": "3:00pm"}, {"days": "Sun", "time": "Closed"}], "id": "7885200017", "name": "USPS COLLECTION BOX - BLUE BOX", "address": {"city": "EAGLE PASS", "state": "TX", "street": "662 QUARRY ST", "postcode": "78852"}}},
{"geometry": {"type": "Point", "coordinates": [-100.4862208012, 28.7088457971]}, "type": "Feature", "properties": {"collection_times": [{"days": "Mon-Sat", "time": "3:00pm"}, {"days": "Sun", "time": "Closed"}], "id": "7885200020", "name": "USPS COLLECTION BOX - BLUE BOX", "address": {"city": "EAGLE PASS", "state": "TX", "street": "2135 E MAIN ST", "postcode": "78852"}}},
{"geometry": {"type": "Point", "coordinates": [-100.4757319602, 28.7088980111]}, "type": "Feature", "properties": {"collection_times": [{"days": "Mon-Sat", "time": "3:00pm"}, {"days": "Sun", "time": "Closed"}], "id": "7885200024", "name": "USPS COLLECTION BOX - BLUE BOX", "address": {"city": "EAGLE PASS", "state": "TX", "street": "2538 E MAIN ST", "postcode": "78852"}}},
{"geometry": {"type": "Point", "coordinates": [-100.4831522987, 28.7027499601]}, "type": "Feature", "properties": {"collection_times": [{"days": "Mon-Sat", "time": "4:00pm"}, {"days": "Sun", "time": "Closed"}], "id": "7885200027", "name": "USPS COLLECTION BOX - PO LOBBY", "address": {"city": "EAGLE PASS", "state": "TX", "street": "410 S BIBB AVE", "postcode": "78852"}}},
{"geometry": {"type": "Point", "coordinates": [-100.4831522987, 28.7027499601]}, "type": "Feature", "properties": {"collection_times": [{"days": "Mon-Sat", "time": "4:15pm"}, {"days": "Sun", "time": "Closed"}], "id": "7885200029", "name": "USPS COLLECTION BOX - PO LOBBY", "address": {"city": "EAGLE PASS", "state": "TX", "street": "410 S BIBB AVE", "postcode": "78852"}}},
{"geometry": {"type": "Point", "coordinates": [-100.4831522987, 28.7027499601]}, "type": "Feature", "properties": {"collection_times": [{"days": "Mon-Sat", "time": "4:15pm"}, {"days": "Sun", "time": "Closed"}], "id": "7885200030", "name": "USPS COLLECTION BOX - BLUE BOX", "address": {"city": "EAGLE PASS", "state": "TX", "street": "410 S BIBB AVE", "postcode": "78852"}}},
{"geometry": {"type": "Point", "coordinates": [-100.4987881603, 28.7072130961]}, "type": "Feature", "properties": {"collection_times": [{"days": "Mon-Sat", "time": "3:00pm"}, {"days": "Sun", "time": "Closed"}], "id": "7885200032", "name": "USPS COLLECTION BOX - BLUE BOX", "address": {"city": "EAGLE PASS", "state": "TX", "street": "200 CONVERSE ST", "postcode": "78852"}}},
{"geometry": {"type": "Point", "coordinates": [-100.4793014627, 28.6907519037]}, "type": "Feature", "properties": {"collection_times": [{"days": "Mon-Sat", "time": "3:00pm"}, {"days": "Sun", "time": "Closed"}], "id": "7885200033", "name": "USPS COLLECTION BOX - BLUE BOX", "address": {"city": "EAGLE PASS", "state": "TX", "street": "2701 EL INDIO HWY", "postcode": "78852"}}},
{"geometry": {"type": "Point", "coordinates": [-100.496005226, 28.7391405806]}, "type": "Feature", "properties": {"collection_times": [{"days": "Mon-Sat", "time": "3:00pm"}, {"days": "Sun", "time": "Closed"}], "id": "7885200034", "name": "USPS COLLECTION BOX - BLUE BOX", "address": {"city": "EAGLE PASS", "state": "TX", "street": "2320 DEL RIO BLVD", "postcode": "78852"}}},
{"geometry": {"type": "Point", "coordinates": [-100.5052975943, 28.7091364758]}, "type": "Feature", "properties": {"collection_times": [{"days": "Mon-Fri", "time": "3:30pm"}, {"days": "Sat", "time": "3:00pm"}, {"days": "Sun", "time": "Closed"}], "id": "7885200037", "name": "USPS COLLECTION BOX - BLUE BOX", "address": {"city": "EAGLE PASS", "state": "TX", "street": "452 WASHINGTON ST", "postcode": "78852"}}},
{"geometry": {"type": "Point", "coordinates": [-100.311362398, 28.5143218684]}, "type": "Feature", "properties": {"collection_times": [{"days": "Mon-Sat", "time": "10:30am"}, {"days": "Sun", "time": "Closed"}], "id": "7886000001", "name": "USPS COLLECTION BOX - BLUE BOX", "address": {"city": "EL INDIO", "state": "TX", "street": "18496 HIGHWAY 1021", "postcode": "78860"}}},
{"geometry": {"type": "Point", "coordinates": [-100.311362398, 28.5143218684]}, "type": "Feature", "properties": {"collection_times": [{"days": "Mon-Sat", "time": "10:30am"}, {"days": "Sun", "time": "Closed"}], "id": "7886000002", "name": "USPS COLLECTION BOX - PO LOBBY", "address": {"city": "EL INDIO", "state": "TX", "street": "18496 HIGHWAY 1021", "postcode": "78860"}}},
{"geometry": {"type": "Point", "coordinates": [-99.1407979731, 29.3493673708]}, "type": "Feature", "properties": {"collection_times": [{"days": "Mon-Fri", "time": "4:00pm"}, {"days": "Sat", "time": "11:00am"}, {"days": "Sun", "time": "Closed"}], "id": "7886100007", "name": "USPS COLLECTION BOX - BLUE BOX", "address": {"city": "HONDO", "state": "TX", "street": "1108 17TH ST", "postcode": "78861"}}},
{"geometry": {"type": "Point", "coordinates": [-99.1407979731, 29.3493673708]}, "type": "Feature", "properties": {"collection_times": [{"days": "Mon-Fri", "time": "4:00pm"}, {"days": "Sat", "time": "11:00am"}, {"days": "Sun", "time": "Closed"}], "id": "7886100010", "name": "USPS COLLECTION BOX - BLUE BOX", "address": {"city": "HONDO", "state": "TX", "street": "1108 17TH ST", "postcode": "78861"}}},
{"geometry": {"type": "Point", "coordinates": [-99.1407979731, 29.3493673708]}, "type": "Feature", "properties": {"collection_times": [{"days": "Mon-Fri", "time": "4:00pm"}, {"days": "Sat", "time": "11:00am"}, {"days": "Sun", "time": "Closed"}], "id": "7886100011", "name": "USPS COLLECTION BOX - BLUE BOX", "address": {"city": "HONDO", "state": "TX", "street": "1108 17TH ST", "postcode": "78861"}}},
{"geometry": {"type": "Point", "coordinates": [-99.1407979731, 29.3493673708]}, "type": "Feature", "properties": {"collection_times": [{"days": "Mon-Fri", "time": "4:30pm"}, {"days": "Sat", "time": "11:00am"}, {"days": "Sun", "time": "Closed"}], "id": "7886100013", "name": "USPS COLLECTION BOX - PO LOBBY", "address": {"city": "HONDO", "state": "TX", "street": "1108 17TH ST", "postcode": "78861"}}},
{"geometry": {"type": "Point", "coordinates": [-99.1407979731, 29.3493673708]}, "type": "Feature", "properties": {"collection_times": [{"days": "Mon-Fri", "time": "4:30pm"}, {"days": "Sat", "time": "11:00am"}, {"days": "Sun", "time": "Closed"}], "id": "7886100014", "name": "USPS COLLECTION BOX - PO LOBBY", "address": {"city": "HONDO", "state": "TX", "street": "1108 17TH ST", "postcode": "78861"}}},
{"geometry": {"type": "Point", "coordinates": [-99.6343512356, 29.2906032796]}, "type": "Feature", "properties": {"collection_times": [{"days": "Mon-Fri", "time": "3:30pm"}, {"days": "Sat", "time": "9:30am"}, {"days": "Sun", "time": "Closed"}], "id": "7887000000", "name": "USPS COLLECTION BOX - BLUE BOX", "address": {"city": "KNIPPA", "state": "TX", "street": "107 MAIN ST", "postcode": "78870"}}},
{"geometry": {"type": "Point", "coordinates": [-99.6343512356, 29.2906032796]}, "type": "Feature", "properties": {"collection_times": [{"days": "Mon-Fri", "time": "2:45pm"}, {"days": "Sat", "time": "9:45am"}, {"days": "Sun", "time": "Closed"}], "id": "7887000001", "name": "USPS COLLECTION BOX - PO LOBBY", "address": {"city": "KNIPPA", "state": "TX", "street": "107 MAIN ST", "postcode": "78870"}}},
{"geometry": {"type": "Point", "coordinates": [-99.6343512356, 29.2906032796]}, "type": "Feature", "properties": {"collection_times": [{"days": "Mon-Fri", "time": "2:45pm"}, {"days": "Sat", "time": "9:45am"}, {"days": "Sun", "time": "Closed"}], "id": "7887000002", "name": "USPS COLLECTION BOX - PO LOBBY", "address": {"city": "KNIPPA", "state": "TX", "street": "107 MAIN ST", "postcode": "78870"}}},
{"geometry": {"type": "Point", "coordinates": [-101.558298167, 29.808303283]}, "type": "Feature", "properties": {"collection_times": [{"days": "Mon-Sat", "time": "11:30am"}, {"days": "Sun", "time": "Closed"}], "id": "7887100001", "name": "USPS COLLECTION BOX - BLUE BOX", "address": {"city": "LANGTRY", "state": "TX", "street": "95 TORRES AVE # 250", "postcode": "78871"}}},
{"geometry": {"type": "Point", "coordinates": [-101.558298167, 29.808303283]}, "type": "Feature", "properties": {"collection_times": [{"days": "Mon-Fri", "time": "11:30am"}, {"days": "Sat", "time": "12:00pm"}, {"days": "Sun", "time": "Closed"}], "id": "7887100002", "name": "USPS COLLECTION BOX - PO LOBBY", "address": {"city": "LANGTRY", "state": "TX", "street": "95 TORRES AVE # 250", "postcode": "78871"}}},
{"geometry": {"type": "Point", "coordinates": [-99.9404636289, 29.009182709]}, "type": "Feature", "properties": {"collection_times": [{"days": "Mon-Fri", "time": "3:15pm"}, {"days": "Sat", "time": "10:00am"}, {"days": "Sun", "time": "Closed"}], "id": "7887200001", "name": "USPS COLLECTION BOX - BLUE BOX", "address": {"city": "LA PRYOR", "state": "TX", "street": "189 W RUE ST", "postcode": "78872"}}},
{"geometry": {"type": "Point", "coordinates": [-99.9404636289, 29.009182709]}, "type": "Feature", "properties": {"collection_times": [{"days": "Mon-Fri", "time": "3:00pm"}, {"days": "Sat", "time": "10:00am"}, {"days": "Sun", "time": "Closed"}], "id": "7887200003", "name": "USPS COLLECTION BOX - PO LOBBY", "address": {"city": "LA PRYOR", "state": "TX", "street": "189 W RUE ST", "postcode": "78872"}}},
{"geometry": {"type": "Point", "coordinates": [-99.781649078, 29.7761829845]}, "type": "Feature", "properties": {"collection_times": [{"days": "Mon-Fri", "time": "2:45pm"}, {"days": "Sat", "time": "11:00am"}, {"days": "Sun", "time": "Closed"}], "id": "7887300001", "name": "USPS COLLECTION BOX - BLUE BOX", "address": {"city": "LEAKEY", "state": "TX", "street": "110 W RANCH ROAD 337", "postcode": "78873"}}},
{"geometry": {"type": "Point", "coordinates": [-99.781649078, 29.7761829845]}, "type": "Feature", "properties": {"collection_times": [{"days": "Mon-Fri", "time": "2:45pm"}, {"days": "Sat", "time": "11:00am"}, {"days": "Sun", "time": "Closed"}], "id": "7887300003", "name": "USPS COLLECTION BOX - PO LOBBY", "address": {"city": "LEAKEY", "state": "TX", "street": "110 W RANCH ROAD 337", "postcode": "78873"}}},
{"geometry": {"type": "Point", "coordinates": [-99.781649078, 29.7761829845]}, "type": "Feature", "properties": {"collection_times": [{"days": "Mon-Fri", "time": "2:45pm"}, {"days": "Sat", "time": "11:00am"}, {"days": "Sun", "time": "Closed"}], "id": "7887300004", "name": "USPS COLLECTION BOX - PO LOBBY", "address": {"city": "LEAKEY", "state": "TX", "street": "110 W RANCH ROAD 337", "postcode": "78873"}}},
{"geometry": {"type": "Point", "coordinates": [-100.6262558979, 28.955486945]}, "type": "Feature", "properties": {"collection_times": [{"days": "Mon-Fri", "time": "3:00pm"}, {"days": "Sat", "time": "9:45am"}, {"days": "Sun", "time": "Closed"}], "id": "7887700001", "name": "USPS COLLECTION BOX - BLUE BOX", "address": {"city": "QUEMADO", "state": "TX", "street": "20001 N HIGHWAY 277", "postcode": "78877"}}},
{"geometry": {"type": "Point", "coordinates": [-100.6262558979, 28.955486945]}, "type": "Feature", "properties": {"collection_times": [{"days": "Mon-Fri", "time": "2:30pm"}, {"days": "Sat", "time": "9:45am"}, {"days": "Sun", "time": "Closed"}], "id": "7887700002", "name": "USPS COLLECTION BOX - PO LOBBY", "address": {"city": "QUEMADO", "state": "TX", "street": "20001 N HIGHWAY 277", "postcode": "78877"}}},
{"geometry": {"type": "Point", "coordinates": [-99.7833091779, 29.6650724814]}, "type": "Feature", "properties": {"collection_times": [{"days": "Mon-Fri", "time": "3:00pm"}, {"days": "Sat", "time": "9:45am"}, {"days": "Sun", "time": "Closed"}], "id": "7887900001", "name": "USPS COLLECTION BOX - BLUE BOX", "address": {"city": "RIO FRIO", "state": "TX", "street": "5615 RANCH ROAD 1120", "postcode": "78879"}}},
{"geometry": {"type": "Point", "coordinates": [-99.7833091779, 29.6650724814]}, "type": "Feature", "properties": {"collection_times": [{"days": "Mon-Fri", "time": "12:30pm"}, {"days": "Sat", "time": "9:45am"}, {"days": "Sun", "time": "Closed"}], "id": "7887900002", "name": "USPS COLLECTION BOX - PO LOBBY", "address": {"city": "RIO FRIO", "state": "TX", "street": "5615 RANCH ROAD 1120", "postcode": "78879"}}},
{"geometry": {"type": "Point", "coordinates": [-100.3228821229, 30.0111629234]}, "type": "Feature", "properties": {"collection_times": [{"days": "Mon-Fri", "time": "2:30pm"}, {"days": "Sat", "time": "11:45am"}, {"days": "Sun", "time": "Closed"}], "id": "7888000003", "name": "USPS COLLECTION BOX - PO LOBBY", "address": {"city": "ROCKSPRINGS", "state": "TX", "street": "102 W BANDERA ST", "postcode": "78880"}}},
{"geometry": {"type": "Point", "coordinates": [-100.3228821229, 30.0111629234]}, "type": "Feature", "properties": {"collection_times": [{"days": "Mon-Fri", "time": "2:30pm"}, {"days": "Sat", "time": "11:45am"}, {"days": "Sun", "time": "Closed"}], "id": "7888000004", "name": "USPS COLLECTION BOX - PO LOBBY", "address": {"city": "ROCKSPRINGS", "state": "TX", "street": "102 W BANDERA ST", "postcode": "78880"}}},
{"geometry": {"type": "Point", "coordinates": [-100.3228821229, 30.0111629234]}, "type": "Feature", "properties": {"collection_times": [{"days": "Mon-Fri", "time": "2:30pm"}, {"days": "Sat", "time": "11:45am"}, {"days": "Sun", "time": "Closed"}], "id": "7888000005", "name": "USPS COLLECTION BOX - PO LOBBY", "address": {"city": "ROCKSPRINGS", "state": "TX", "street": "102 W BANDERA ST", "postcode": "78880"}}},
{"geometry": {"type": "Point", "coordinates": [-100.3228821229, 30.0111629234]}, "type": "Feature", "properties": {"collection_times": [{"days": "Mon-Fri", "time": "2:30pm"}, {"days": "Sat", "time": "11:45am"}, {"days": "Sun", "time": "Closed"}], "id": "7888000006", "name": "USPS COLLECTION BOX - BLUE BOX", "address": {"city": "ROCKSPRINGS", "state": "TX", "street": "102 W BANDERA ST", "postcode": "78880"}}},
{"geometry": {"type": "Point", "coordinates": [-99.5213945648, 29.3064237207]}, "type": "Feature", "properties": {"collection_times": [{"days": "Mon-Fri", "time": "3:30pm"}, {"days": "Sat", "time": "7:45am"}, {"days": "Sun", "time": "Closed"}], "id": "7888100002", "name": "USPS COLLECTION BOX - BLUE BOX", "address": {"city": "SABINAL", "state": "TX", "street": "119 N FRONT ST", "postcode": "78881"}}},
{"geometry": {"type": "Point", "coordinates": [-99.5213945648, 29.3064237207]}, "type": "Feature", "properties": {"collection_times": [{"days": "Mon-Fri", "time": "3:15pm"}, {"days": "Sat", "time": "10:15am"}, {"days": "Sun", "time": "Closed"}], "id": "7888100003", "name": "USPS COLLECTION BOX - BLUE BOX", "address": {"city": "SABINAL", "state": "TX", "street": "2 FM 1050 @ PARK HQ", "postcode": "78881"}}},
{"geometry": {"type": "Point", "coordinates": [-99.5213945648, 29.3064237207]}, "type": "Feature", "properties": {"collection_times": [{"days": "Mon-Fri", "time": "4:30pm"}, {"days": "Sat", "time": "7:45am"}, {"days": "Sun", "time": "Closed"}], "id": "7888100005", "name": "USPS COLLECTION BOX - PO LOBBY", "address": {"city": "SABINAL", "state": "TX", "street": "119 N FRONT ST", "postcode": "78881"}}},
{"geometry": {"type": "Point", "coordinates": [-99.305896998, 29.6678202796]}, "type": "Feature", "properties": {"collection_times": [{"days": "Mon-Fri", "time": "12:00pm"}, {"days": "Sat", "time": "11:30am"}, {"days": "Sun", "time": "Closed"}], "id": "7888300001", "name": "USPS COLLECTION BOX - PO LOBBY", "address": {"city": "TARPLEY", "state": "TX", "street": "161 THOMAS CREEK RD", "postcode": "78883"}}},
{"geometry": {"type": "Point", "coordinates": [-99.305896998, 29.6678202796]}, "type": "Feature", "properties": {"collection_times": [{"days": "Mon-Fri", "time": "12:00pm"}, {"days": "Sat", "time": "11:30am"}, {"days": "Sun", "time": "Closed"}], "id": "7888300002", "name": "USPS COLLECTION BOX - PO LOBBY", "address": {"city": "TARPLEY", "state": "TX", "street": "161 THOMAS CREEK RD", "postcode": "78883"}}},
{"geometry": {"type": "Point", "coordinates": [-99.5760692136, 29.564418388]}, "type": "Feature", "properties": {"collection_times": [{"days": "Mon-Fri", "time": "2:30pm"}, {"days": "Sat", "time": "10:00am"}, {"days": "Sun", "time": "Closed"}], "id": "7888400001", "name": "USPS COLLECTION BOX - BLUE BOX", "address": {"city": "UTOPIA", "state": "TX", "street": "700 N MAIN", "postcode": "78884"}}},
{"geometry": {"type": "Point", "coordinates": [-99.5269929954, 29.6190009421]}, "type": "Feature", "properties": {"collection_times": [{"days": "Mon-Fri", "time": "2:30pm"}, {"days": "Sat", "time": "10:00am"}, {"days": "Sun", "time": "Closed"}], "id": "7888400003", "name": "USPS COLLECTION BOX - PO LOBBY", "address": {"city": "UTOPIA", "state": "TX", "street": "700 N MAIN", "postcode": "78884"}}},
{"geometry": {"type": "Point", "coordinates": [-99.5566409471, 29.7459451359]}, "type": "Feature", "properties": {"collection_times": [{"days": "Mon-Sat", "time": "10:45am"}, {"days": "Sun", "time": "Closed"}], "id": "7888500001", "name": "USPS COLLECTION BOX - PO LOBBY", "address": {"city": "VANDERPOOL", "state": "TX", "street": "32474 FM 187", "postcode": "78885"}}},
{"geometry": {"type": "Point", "coordinates": [-99.1374449007, 29.1397297755]}, "type": "Feature", "properties": {"collection_times": [{"days": "Mon-Fri", "time": "11:00am"}, {"days": "Sat", "time": "10:30am"}, {"days": "Sun", "time": "Closed"}], "id": "7888600001", "name": "USPS COLLECTION BOX - BLUE BOX", "address": {"city": "YANCEY", "state": "TX", "street": "100 COUNTY ROAD 743", "postcode": "78886"}}},
{"geometry": {"type": "Point", "coordinates": [-99.1374449007, 29.1397297755]}, "type": "Feature", "properties": {"collection_times": [{"days": "Mon-Fri", "time": "11:15am"}, {"days": "Sat", "time": "10:30am"}, {"days": "Sun", "time": "Closed"}], "id": "7888600002", "name": "USPS COLLECTION BOX - PO LOBBY", "address": {"city": "YANCEY", "state": "TX", "street": "100 COUNTY ROAD 743", "postcode": "78886"}}}
]}
