{"type": "FeatureCollection", "features": [
{"geometry": {"type": "Point", "coordinates": [-96.6928019901, 30.1313357613]}, "type": "Feature", "properties": {"collection_times": [{"days": "Mon-Sat", "time": "4:45pm"}, {"days": "Sun", "time": "Closed"}], "id": "7893200000", "name": "USPS COLLECTION BOX - BLUE BOX", "address": {"city": "CARMINE", "state": "TX", "street": "201 W SYLVAN ST", "postcode": "78932"}}},
{"geometry": {"type": "Point", "coordinates": [-96.6928019901, 30.1313357613]}, "type": "Feature", "properties": {"collection_times": [{"days": "Mon-Fri", "time": "2:15pm"}, {"days": "Sat", "time": "9:30am"}, {"days": "Sun", "time": "Closed"}], "id": "7893200004", "name": "USPS COLLECTION BOX - PO LOBBY", "address": {"city": "CARMINE", "state": "TX", "street": "201 W SYLVAN ST", "postcode": "78932"}}},
{"geometry": {"type": "Point", "coordinates": [-96.540458652, 29.7064872761]}, "type": "Feature", "properties": {"collection_times": [{"days": "Mon-Fri", "time": "3:00pm"}, {"days": "Sat", "time": "12:00pm"}, {"days": "Sun", "time": "Closed"}], "id": "7893400000", "name": "USPS COLLECTION BOX - BLUE BOX", "address": {"city": "COLUMBUS", "state": "TX", "street": "1101 MILAM ST", "postcode": "78934"}}},
{"geometry": {"type": "Point", "coordinates": [-96.5417484543, 29.7045303412]}, "type": "Feature", "properties": {"collection_times": [{"days": "Mon-Fri", "time": "3:00pm"}, {"days": "Sat", "time": "12:00pm"}, {"days": "Sun", "time": "Closed"}], "id": "7893400001", "name": "USPS COLLECTION BOX - BLUE BOX", "address": {"city": "COLUMBUS", "state": "TX", "street": "1239 BOWIE ST", "postcode": "78934"}}},
{"geometry": {"type": "Point", "coordinates": [-96.5495885807, 29.7063655728]}, "type": "Feature", "properties": {"collection_times": [{"days": "Mon-Sat", "time": "5:00pm"}, {"days": "Sun", "time": "Closed"}], "id": "7893400002", "name": "USPS COLLECTION BOX - BLUE BOX", "address": {"city": "COLUMBUS", "state": "TX", "street": "1221 WALNUT ST", "postcode": "78934"}}},
{"geometry": {"type": "Point", "coordinates": [-96.5428554047, 29.6941672122]}, "type": "Feature", "properties": {"collection_times": [{"days": "Mon-Fri", "time": "1:30pm"}, {"days": "Sat", "time": "12:00pm"}, {"days": "Sun", "time": "Closed"}], "id": "7893400003", "name": "USPS COLLECTION BOX - BLUE BOX", "address": {"city": "COLUMBUS", "state": "TX", "street": "109 SHULT DR", "postcode": "78934"}}},
{"geometry": {"type": "Point", "coordinates": [-96.5495885807, 29.7063655728]}, "type": "Feature", "properties": {"collection_times": [{"days": "Mon-Sat", "time": "5:00pm"}, {"days": "Sun", "time": "Closed"}], "id": "7893400005", "name": "USPS COLLECTION BOX - BLUE BOX", "address": {"city": "COLUMBUS", "state": "TX", "street": "1221 WALNUT ST", "postcode": "78934"}}},
{"geometry": {"type": "Point", "coordinates": [-96.5495885807, 29.7063655728]}, "type": "Feature", "properties": {"collection_times": [{"days": "Mon-Fri", "time": "4:45pm"}, {"days": "Sat", "time": "3:00pm"}, {"days": "Sun", "time": "Closed"}], "id": "7893400006", "name": "USPS COLLECTION BOX - PO LOBBY", "address": {"city": "COLUMBUS", "state": "TX", "street": "1221 WALNUT ST", "postcode": "78934"}}},
{"geometry": {"type": "Point", "coordinates": [-96.5495885807, 29.7063655728]}, "type": "Feature", "properties": {"collection_times": [{"days": "Mon-Fri", "time": "4:45pm"}, {"days": "Sat", "time": "3:00pm"}, {"days": "Sun", "time": "Closed"}], "id": "7893400007", "name": "USPS COLLECTION BOX - PO LOBBY", "address": {"city": "COLUMBUS", "state": "TX", "street": "1221 WALNUT ST", "postcode": "78934"}}},
{"geometry": {"type": "Point", "coordinates": [-96.5495885807, 29.7063655728]}, "type": "Feature", "properties": {"collection_times": [{"days": "Mon-Fri", "time": "4:45pm"}, {"days": "Sat", "time": "3:00pm"}, {"days": "Sun", "time": "Closed"}], "id": "7893400008", "name": "USPS COLLECTION BOX - PO LOBBY", "address": {"city": "COLUMBUS", "state": "TX", "street": "1221 WALNUT ST", "postcode": "78934"}}},
{"geometry": {"type": "Point", "coordinates": [-96.5495885807, 29.7063655728]}, "type": "Feature", "properties": {"collection_times": [{"days": "Mon-Fri", "time": "4:45pm"}, {"days": "Sat", "time": "3:00pm"}, {"days": "Sun", "time": "Closed"}], "id": "7893400009", "name": "USPS COLLECTION BOX - PO LOBBY", "address": {"city": "COLUMBUS", "state": "TX", "street": "1221 WALNUT ST", "postcode": "78934"}}},
{"geometry": {"type": "Point", "coordinates": [-96.7161724827, 29.8509864626]}, "type": "Feature", "properties": {"collection_times": [{"days": "Mon-Sat", "time": "5:15pm"}, {"days": "Sun", "time": "Closed"}], "id": "7893800000", "name": "USPS COLLECTION BOX - BLUE BOX", "address": {"city": "ELLINGER", "state": "TX", "street": "706 FM 2503", "postcode": "78938"}}},
{"geometry": {"type": "Point", "coordinates": [-96.7161724827, 29.8509864626]}, "type": "Feature", "properties": {"collection_times": [{"days": "Mon-Fri", "time": "4:00pm"}, {"days": "Sat", "time": "9:30am"}, {"days": "Sun", "time": "Closed"}], "id": "7893800002", "name": "USPS COLLECTION BOX - PO LOBBY", "address": {"city": "ELLINGER", "state": "TX", "street": "706 FM 2503", "postcode": "78938"}}},
{"geometry": {"type": "Point", "coordinates": [-96.6741798783, 29.9051016331]}, "type": "Feature", "properties": {"collection_times": [{"days": "Mon-Sat", "time": "5:15pm"}, {"days": "Sun", "time": "Closed"}], "id": "7894000000", "name": "USPS COLLECTION BOX - BLUE BOX", "address": {"city": "FAYETTEVILLE", "state": "TX", "street": "212 E MAIN ST", "postcode": "78940"}}},
{"geometry": {"type": "Point", "coordinates": [-97.1083301287, 29.6867545256]}, "type": "Feature", "properties": {"collection_times": [{"days": "Mon-Sat", "time": "5:00pm"}, {"days": "Sun", "time": "Closed"}], "id": "7894100000", "name": "USPS COLLECTION BOX - BLUE BOX", "address": {"city": "FLATONIA", "state": "TX", "street": "105 E SOUTH MAIN ST", "postcode": "78941"}}},
{"geometry": {"type": "Point", "coordinates": [-97.1083301287, 29.6867545256]}, "type": "Feature", "properties": {"collection_times": [{"days": "Mon-Fri", "time": "4:30pm"}, {"days": "Sat", "time": "12:00pm"}, {"days": "Sun", "time": "Closed"}], "id": "7894100004", "name": "USPS COLLECTION BOX - PO LOBBY", "address": {"city": "FLATONIA", "state": "TX", "street": "105 E SOUTH MAIN ST", "postcode": "78941"}}},
{"geometry": {"type": "Point", "coordinates": [-96.9354827223, 30.1825886693]}, "type": "Feature", "properties": {"collection_times": [{"days": "Mon-Sat", "time": "4:45pm"}, {"days": "Sun", "time": "Closed"}], "id": "7894200000", "name": "USPS COLLECTION BOX - BLUE BOX", "address": {"city": "GIDDINGS", "state": "TX", "street": "279 E AUSTIN ST", "postcode": "78942"}}},
{"geometry": {"type": "Point", "coordinates": [-96.9354827223, 30.1825886693]}, "type": "Feature", "properties": {"collection_times": [{"days": "Mon-Fri", "time": "4:30pm"}, {"days": "Sat", "time": "10:00am"}, {"days": "Sun", "time": "Closed"}], "id": "7894200004", "name": "USPS COLLECTION BOX - PO LOBBY", "address": {"city": "GIDDINGS", "state": "TX", "street": "279 E AUSTIN ST", "postcode": "78942"}}},
{"geometry": {"type": "Point", "coordinates": [-96.9354827223, 30.1825886693]}, "type": "Feature", "properties": {"collection_times": [{"days": "Mon-Fri", "time": "4:30pm"}, {"days": "Sat", "time": "10:00am"}, {"days": "Sun", "time": "Closed"}], "id": "7894200005", "name": "USPS COLLECTION BOX - PO LOBBY", "address": {"city": "GIDDINGS", "state": "TX", "street": "279 E AUSTIN ST", "postcode": "78942"}}},
{"geometry": {"type": "Point", "coordinates": [-96.8782480274, 29.9047120924]}, "type": "Feature", "properties": {"collection_times": [{"days": "Mon-Fri", "time": "5:00pm"}, {"days": "Sat", "time": "3:00pm"}, {"days": "Sun", "time": "Closed"}], "id": "7894500000", "name": "USPS COLLECTION BOX - BLUE BOX", "address": {"city": "LA GRANGE", "state": "TX", "street": "253 W TRAVIS ST", "postcode": "78945"}}},
{"geometry": {"type": "Point", "coordinates": [-96.8778904995, 29.9053984609]}, "type": "Feature", "properties": {"collection_times": [{"days": "Mon-Fri", "time": "5:00pm"}, {"days": "Sat", "time": "3:00pm"}, {"days": "Sun", "time": "Closed"}], "id": "7894500001", "name": "USPS COLLECTION BOX - BLUE BOX", "address": {"city": "LA GRANGE", "state": "TX", "street": "134 N WASHINGTON ST", "postcode": "78945"}}},
{"geometry": {"type": "Point", "coordinates": [-96.8790279847, 29.9056698383]}, "type": "Feature", "properties": {"collection_times": [{"days": "Mon-Fri", "time": "5:00pm"}, {"days": "Sat", "time": "3:00pm"}, {"days": "Sun", "time": "Closed"}], "id": "7894500002", "name": "USPS COLLECTION BOX - BLUE BOX", "address": {"city": "LA GRANGE", "state": "TX", "street": "262 W COLORADO ST", "postcode": "78945"}}},
{"geometry": {"type": "Point", "coordinates": [-96.8723406015, 29.9078751939]}, "type": "Feature", "properties": {"collection_times": [{"days": "Mon-Sat", "time": "3:00pm"}, {"days": "Sun", "time": "Closed"}], "id": "7894500003", "name": "USPS COLLECTION BOX - BLUE BOX", "address": {"city": "LA GRANGE", "state": "TX", "street": "450 E TRAVIS ST", "postcode": "78945"}}},
{"geometry": {"type": "Point", "coordinates": [-96.8760868149, 29.9045770283]}, "type": "Feature", "properties": {"collection_times": [{"days": "Mon-Sat", "time": "3:00pm"}, {"days": "Sun", "time": "Closed"}], "id": "7894500005", "name": "USPS COLLECTION BOX - BLUE BOX", "address": {"city": "LA GRANGE", "state": "TX", "street": "107 W CROCKETT ST", "postcode": "78945"}}},
{"geometry": {"type": "Point", "coordinates": [-96.8751388998, 29.9119117736]}, "type": "Feature", "properties": {"collection_times": [{"days": "Mon-Sat", "time": "3:00pm"}, {"days": "Sun", "time": "Closed"}], "id": "7894500006", "name": "USPS COLLECTION BOX - BLUE BOX", "address": {"city": "LA GRANGE", "state": "TX", "street": "543 N JACKSON ST", "postcode": "78945"}}},
{"geometry": {"type": "Point", "coordinates": [-96.8770985197, 29.9065626163]}, "type": "Feature", "properties": {"collection_times": [{"days": "Mon-Fri", "time": "5:00pm"}, {"days": "Sat", "time": "4:00pm"}, {"days": "Sun", "time": "Closed"}], "id": "7894500007", "name": "USPS COLLECTION BOX - BLUE BOX", "address": {"city": "LA GRANGE", "state": "TX", "street": "113 E COLORADO ST", "postcode": "78945"}}},
{"geometry": {"type": "Point", "coordinates": [-96.8770985197, 29.9065626163]}, "type": "Feature", "properties": {"collection_times": [{"days": "Mon-Fri", "time": "5:00pm"}, {"days": "Sat", "time": "4:00pm"}, {"days": "Sun", "time": "Closed"}], "id": "7894500008", "name": "USPS COLLECTION BOX - BLUE BOX", "address": {"city": "LA GRANGE", "state": "TX", "street": "113 E COLORADO ST", "postcode": "78945"}}},
{"geometry": {"type": "Point", "coordinates": [-96.8770985197, 29.9065626163]}, "type": "Feature", "properties": {"collection_times": [{"days": "Mon-Fri", "time": "5:00pm"}, {"days": "Sat", "time": "4:00pm"}, {"days": "Sun", "time": "Closed"}], "id": "7894500009", "name": "USPS COLLECTION BOX - BLUE BOX", "address": {"city": "LA GRANGE", "state": "TX", "street": "113 E COLORADO ST", "postcode": "78945"}}},
{"geometry": {"type": "Point", "coordinates": [-96.873827199, 29.9152491836]}, "type": "Feature", "properties": {"collection_times": [{"days": "Mon-Sat", "time": "10:00am"}, {"days": "Sun", "time": "Closed"}], "id": "7894500010", "name": "USPS COLLECTION BOX - BLUE BOX", "address": {"city": "LA GRANGE", "state": "TX", "street": "750 E UPPER LINE ST", "postcode": "78945"}}},
{"geometry": {"type": "Point", "coordinates": [-96.8762699053, 29.9137110986]}, "type": "Feature", "properties": {"collection_times": [{"days": "Mon-Sat", "time": "1:00pm"}, {"days": "Sun", "time": "Closed"}], "id": "7894500011", "name": "USPS COLLECTION BOX - BLUE BOX", "address": {"city": "LA GRANGE", "state": "TX", "street": "2125 W STATE HIGHWAY 71", "postcode": "78945"}}},
{"geometry": {"type": "Point", "coordinates": [-96.8770985197, 29.9065626163]}, "type": "Feature", "properties": {"collection_times": [{"days": "Mon-Fri", "time": "5:30pm"}, {"days": "Sat", "time": "4:00pm"}, {"days": "Sun", "time": "Closed"}], "id": "7894500013", "name": "USPS COLLECTION BOX - PO LOBBY", "address": {"city": "LA GRANGE", "state": "TX", "street": "113 E COLORADO ST", "postcode": "78945"}}},
{"geometry": {"type": "Point", "coordinates": [-96.8103492173, 30.0987742104]}, "type": "Feature", "properties": {"collection_times": [{"days": "Mon-Sat", "time": "4:30pm"}, {"days": "Sun", "time": "Closed"}], "id": "7894600000", "name": "USPS COLLECTION BOX - BLUE BOX", "address": {"city": "LEDBETTER", "state": "TX", "street": "104 CHAPPEL ST", "postcode": "78946"}}},
{"geometry": {"type": "Point", "coordinates": [-96.8103492173, 30.0987742104]}, "type": "Feature", "properties": {"collection_times": [{"days": "Mon-Fri", "time": "10:30am"}, {"days": "Sat", "time": "8:45am"}, {"days": "Sun", "time": "Closed"}], "id": "7894600001", "name": "USPS COLLECTION BOX - PO LOBBY", "address": {"city": "LEDBETTER", "state": "TX", "street": "104 CHAPPEL ST", "postcode": "78946"}}},
{"geometry": {"type": "Point", "coordinates": [-97.0092504798, 30.4147309123]}, "type": "Feature", "properties": {"collection_times": [{"days": "Mon-Sat", "time": "4:45pm"}, {"days": "Sun", "time": "Closed"}], "id": "7894700000", "name": "USPS COLLECTION BOX - BLUE BOX", "address": {"city": "LEXINGTON", "state": "TX", "street": "624 N ROCKDALE ST", "postcode": "78947"}}},
{"geometry": {"type": "Point", "coordinates": [-97.0092504798, 30.4147309123]}, "type": "Feature", "properties": {"collection_times": [{"days": "Mon-Fri", "time": "4:30pm"}, {"days": "Sat", "time": "10:00am"}, {"days": "Sun", "time": "Closed"}], "id": "7894700003", "name": "USPS COLLECTION BOX - PO LOBBY", "address": {"city": "LEXINGTON", "state": "TX", "street": "624 N ROCKDALE ST", "postcode": "78947"}}},
{"geometry": {"type": "Point", "coordinates": [-97.0092504798, 30.4147309123]}, "type": "Feature", "properties": {"collection_times": [{"days": "Mon-Fri", "time": "4:30pm"}, {"days": "Sat", "time": "10:00am"}, {"days": "Sun", "time": "Closed"}], "id": "7894700004", "name": "USPS COLLECTION BOX - PO LOBBY", "address": {"city": "LEXINGTON", "state": "TX", "street": "624 N ROCKDALE ST", "postcode": "78947"}}},
{"geometry": {"type": "Point", "coordinates": [-96.9541667594, 30.3175452658]}, "type": "Feature", "properties": {"collection_times": [{"days": "Mon-Sat", "time": "4:30pm"}, {"days": "Sun", "time": "Closed"}], "id": "7894800000", "name": "USPS COLLECTION BOX - BLUE BOX", "address": {"city": "LINCOLN", "state": "TX", "street": "1243 MAIN AVE", "postcode": "78948"}}},
{"geometry": {"type": "Point", "coordinates": [-96.9541667594, 30.3175452658]}, "type": "Feature", "properties": {"collection_times": [{"days": "Mon-Fri", "time": "12:00pm"}, {"days": "Sat", "time": "10:30am"}, {"days": "Sun", "time": "Closed"}], "id": "7894800002", "name": "USPS COLLECTION BOX - PO LOBBY", "address": {"city": "LINCOLN", "state": "TX", "street": "1243 MAIN AVE", "postcode": "78948"}}},
{"geometry": {"type": "Point", "coordinates": [-96.9625792275, 29.9276165023]}, "type": "Feature", "properties": {"collection_times": [{"days": "Mon-Sat", "time": "5:45pm"}, {"days": "Sun", "time": "Closed"}], "id": "7895200000", "name": "USPS COLLECTION BOX - BLUE BOX", "address": {"city": "PLUM", "state": "TX", "street": "240 PLUM CHURCH RD", "postcode": "78952"}}},
{"geometry": {"type": "Point", "coordinates": [-97.3695147876, 29.8514553217]}, "type": "Feature", "properties": {"collection_times": [{"days": "Mon-Sat", "time": "4:00pm"}, {"days": "Sun", "time": "Closed"}], "id": "7895300000", "name": "USPS COLLECTION BOX - BLUE BOX", "address": {"city": "ROSANKY", "state": "TX", "street": "2024 FM 535", "postcode": "78953"}}},
{"geometry": {"type": "Point", "coordinates": [-97.3695147876, 29.8514553217]}, "type": "Feature", "properties": {"collection_times": [{"days": "Mon-Fri", "time": "11:45am"}, {"days": "Sat", "time": "9:45am"}, {"days": "Sun", "time": "Closed"}], "id": "7895300003", "name": "USPS COLLECTION BOX - PO LOBBY", "address": {"city": "ROSANKY", "state": "TX", "street": "2024 FM 535", "postcode": "78953"}}},
{"geometry": {"type": "Point", "coordinates": [-96.6957441054, 30.0649540935]}, "type": "Feature", "properties": {"collection_times": [{"days": "Mon-Sat", "time": "5:00pm"}, {"days": "Sun", "time": "Closed"}], "id": "7895400000", "name": "USPS COLLECTION BOX - BLUE BOX", "address": {"city": "ROUND TOP", "state": "TX", "street": "395 E MILL ST", "postcode": "78954"}}},
{"geometry": {"type": "Point", "coordinates": [-96.6957441054, 30.0649540935]}, "type": "Feature", "properties": {"collection_times": [{"days": "Mon-Fri", "time": "4:30pm"}, {"days": "Sat", "time": "9:00am"}, {"days": "Sun", "time": "Closed"}], "id": "7895400002", "name": "USPS COLLECTION BOX - PO LOBBY", "address": {"city": "ROUND TOP", "state": "TX", "street": "395 E MILL ST", "postcode": "78954"}}},
{"geometry": {"type": "Point", "coordinates": [-96.6957441054, 30.0649540935]}, "type": "Feature", "properties": {"collection_times": [{"days": "Mon-Fri", "time": "4:30pm"}, {"days": "Sat", "time": "9:00am"}, {"days": "Sun", "time": "Closed"}], "id": "7895400003", "name": "USPS COLLECTION BOX - PO LOBBY", "address": {"city": "ROUND TOP", "state": "TX", "street": "395 E MILL ST", "postcode": "78954"}}},
{"geometry": {"type": "Point", "coordinates": [-96.6957441054, 30.0649540935]}, "type": "Feature", "properties": {"collection_times": [{"days": "Mon-Sat", "time": "5:00pm"}, {"days": "Sun", "time": "Closed"}], "id": "7895400004", "name": "USPS COLLECTION BOX - BLUE BOX", "address": {"city": "ROUND TOP", "state": "TX", "street": "395 E MILL ST", "postcode": "78954"}}},
{"geometry": {"type": "Point", "coordinates": [-96.73196, 30.017618]}, "type": "Feature", "properties": {"collection_times": [{"days": "Mon-Sat", "time": "10:00am"}, {"days": "Sun", "time": "Closed"}], "id": "7895400005", "name": "USPS COLLECTION BOX - BLUE BOX", "address": {"city": "ROUND TOP", "state": "TX", "street": "4309 S STATE HIGHWAY 237", "postcode": "78954"}}},
{"geometry": {"type": "Point", "coordinates": [-96.9067377859, 29.6809768531]}, "type": "Feature", "properties": {"collection_times": [{"days": "Mon-Sat", "time": "4:45pm"}, {"days": "Sun", "time": "Closed"}], "id": "7895600000", "name": "USPS COLLECTION BOX - BLUE BOX", "address": {"city": "SCHULENBURG", "state": "TX", "street": "622 ANDERSON ST", "postcode": "78956"}}},
{"geometry": {"type": "Point", "coordinates": [-96.9067377859, 29.6809768531]}, "type": "Feature", "properties": {"collection_times": [{"days": "Mon-Sat", "time": "4:30pm"}, {"days": "Sun", "time": "Closed"}], "id": "7895600004", "name": "USPS COLLECTION BOX - PO LOBBY", "address": {"city": "SCHULENBURG", "state": "TX", "street": "622 ANDERSON ST", "postcode": "78956"}}},
{"geometry": {"type": "Point", "coordinates": [-96.9067377859, 29.6809768531]}, "type": "Feature", "properties": {"collection_times": [{"days": "Mon-Sat", "time": "4:30pm"}, {"days": "Sun", "time": "Closed"}], "id": "7895600005", "name": "USPS COLLECTION BOX - PO LOBBY", "address": {"city": "SCHULENBURG", "state": "TX", "street": "622 ANDERSON ST", "postcode": "78956"}}},
{"geometry": {"type": "Point", "coordinates": [-97.1589355912, 30.0095150404]}, "type": "Feature", "properties": {"collection_times": [{"days": "Mon-Sat", "time": "5:00pm"}, {"days": "Sun", "time": "Closed"}], "id": "7895700000", "name": "USPS COLLECTION BOX - BLUE BOX", "address": {"city": "SMITHVILLE", "state": "TX", "street": "400 MAIN ST", "postcode": "78957"}}},
{"geometry": {"type": "Point", "coordinates": [-97.1589355912, 30.0095150404]}, "type": "Feature", "properties": {"collection_times": [{"days": "Mon-Fri", "time": "4:30pm"}, {"days": "Sat", "time": "2:00pm"}, {"days": "Sun", "time": "Closed"}], "id": "7895700001", "name": "USPS COLLECTION BOX - BLUE BOX", "address": {"city": "SMITHVILLE", "state": "TX", "street": "400 MAIN ST", "postcode": "78957"}}},
{"geometry": {"type": "Point", "coordinates": [-97.1589355912, 30.0095150404]}, "type": "Feature", "properties": {"collection_times": [{"days": "Mon-Fri", "time": "4:30pm"}, {"days": "Sat", "time": "2:00pm"}, {"days": "Sun", "time": "Closed"}], "id": "7895700010", "name": "USPS COLLECTION BOX - PO LOBBY", "address": {"city": "SMITHVILLE", "state": "TX", "street": "400 MAIN ST", "postcode": "78957"}}},
{"geometry": {"type": "Point", "coordinates": [-97.1589355912, 30.0095150404]}, "type": "Feature", "properties": {"collection_times": [{"days": "Mon-Fri", "time": "4:30pm"}, {"days": "Sat", "time": "2:00pm"}, {"days": "Sun", "time": "Closed"}], "id": "7895700011", "name": "USPS COLLECTION BOX - PO LOBBY", "address": {"city": "SMITHVILLE", "state": "TX", "street": "400 MAIN ST", "postcode": "78957"}}},
{"geometry": {"type": "Point", "coordinates": [-97.1589355912, 30.0095150404]}, "type": "Feature", "properties": {"collection_times": [{"days": "Mon-Fri", "time": "4:30pm"}, {"days": "Sat", "time": "2:00pm"}, {"days": "Sun", "time": "Closed"}], "id": "7895700012", "name": "USPS COLLECTION BOX - PO LOBBY", "address": {"city": "SMITHVILLE", "state": "TX", "street": "400 MAIN ST", "postcode": "78957"}}},
{"geometry": {"type": "Point", "coordinates": [-97.1707787231, 30.0115302075]}, "type": "Feature", "properties": {"collection_times": [{"days": "Mon-Sat", "time": "2:00pm"}, {"days": "Sun", "time": "Closed"}], "id": "7895700013", "name": "USPS COLLECTION BOX - BLUE BOX", "address": {"city": "SMITHVILLE", "state": "TX", "street": "1501 NE LOOP 230", "postcode": "78957"}}},
{"geometry": {"type": "Point", "coordinates": [-97.2671543314, 29.7893783829]}, "type": "Feature", "properties": {"collection_times": [{"days": "Mon-Sat", "time": "5:15pm"}, {"days": "Sun", "time": "Closed"}], "id": "7895900000", "name": "USPS COLLECTION BOX - BLUE BOX", "address": {"city": "WAELDER", "state": "TX", "street": "423 W US HIGHWAY 90", "postcode": "78959"}}},
{"geometry": {"type": "Point", "coordinates": [-97.305048083, 29.6976904602]}, "type": "Feature", "properties": {"collection_times": [{"days": "Mon-Sat", "time": "5:15pm"}, {"days": "Sun", "time": "Closed"}], "id": "7895900001", "name": "USPS COLLECTION BOX - EXPRESS", "address": {"city": "WAELDER", "state": "TX", "street": "423 W US HIGHWAY 90", "postcode": "78959"}}},
{"geometry": {"type": "Point", "coordinates": [-97.2671543314, 29.7893783829]}, "type": "Feature", "properties": {"collection_times": [{"days": "Mon-Fri", "time": "2:45pm"}, {"days": "Sat", "time": "8:00am"}, {"days": "Sun", "time": "Closed"}], "id": "7895900005", "name": "USPS COLLECTION BOX - PO LOBBY", "address": {"city": "WAELDER", "state": "TX", "street": "423 W US HIGHWAY 90", "postcode": "78959"}}},
{"geometry": {"type": "Point", "coordinates": [-96.9143265269, 30.056686296]}, "type": "Feature", "properties": {"collection_times": [{"days": "Mon-Sat", "time": "4:30pm"}, {"days": "Sun", "time": "Closed"}], "id": "7896000000", "name": "USPS COLLECTION BOX - BLUE BOX", "address": {"city": "WARDA", "state": "TX", "street": "5621 S US HIGHWAY 77", "postcode": "78960"}}},
{"geometry": {"type": "Point", "coordinates": [-96.9143265269, 30.056686296]}, "type": "Feature", "properties": {"collection_times": [{"days": "Mon-Fri", "time": "4:45pm"}, {"days": "Sat", "time": "10:00am"}, {"days": "Sun", "time": "Closed"}], "id": "7896000001", "name": "USPS COLLECTION BOX - PO LOBBY", "address": {"city": "WARDA", "state": "TX", "street": "5621 S US HIGHWAY 77", "postcode": "78960"}}},
{"geometry": {"type": "Point", "coordinates": [-96.7807410259, 29.7026559018]}, "type": "Feature", "properties": {"collection_times": [{"days": "Mon-Sat", "time": "4:30pm"}, {"days": "Sun", "time": "Closed"}], "id": "7896200000", "name": "USPS COLLECTION BOX - BLUE BOX", "address": {"city": "WEIMAR", "state": "TX", "street": "100 E MAIN ST", "postcode": "78962"}}},
{"geometry": {"type": "Point", "coordinates": [-96.6454884284, 29.5899584193]}, "type": "Feature", "properties": {"collection_times": [{"days": "Mon-Sat", "time": "4:30pm"}, {"days": "Sun", "time": "Closed"}], "id": "7896200004", "name": "USPS COLLECTION BOX - PO LOBBY", "address": {"city": "WEIMAR", "state": "TX", "street": "100 E MAIN ST", "postcode": "78962"}}}
]}
