{"type": "FeatureCollection", "features": [
{"geometry": {"type": "Point", "coordinates": [-102.8549014549, 35.3843374111]}, "type": "Feature", "properties": {"collection_times": [{"days": "Mon-Fri", "time": "12:45pm"}, {"days": "Sat", "time": "8:00am"}, {"days": "Sun", "time": "Closed"}], "id": "7900100002", "name": "USPS COLLECTION BOX - PO LOBBY", "address": {"city": "ADRIAN", "state": "TX", "street": "201 HISTORIC ROUTE 66", "postcode": "79001"}}},
{"geometry": {"type": "Point", "coordinates": [-100.1002692648, 35.608088318]}, "type": "Feature", "properties": {"collection_times": [{"days": "Mon-Fri", "time": "11:45am"}, {"days": "Sat", "time": "9:45am"}, {"days": "Sun", "time": "Closed"}], "id": "7900300000", "name": "USPS COLLECTION BOX - PO LOBBY", "address": {"city": "ALLISON", "state": "TX", "street": "105 WHEELER AVE", "postcode": "79003"}}},
{"geometry": {"type": "Point", "coordinates": [-100.5375160064, 36.4541952614]}, "type": "Feature", "properties": {"collection_times": [{"days": "Mon-Fri", "time": "3:30pm"}, {"days": "Sat", "time": "9:30am"}, {"days": "Sun", "time": "Closed"}], "id": "7900500000", "name": "USPS COLLECTION BOX - PO LOBBY", "address": {"city": "BOOKER", "state": "TX", "street": "122 S AUSTIN ST", "postcode": "79005"}}},
{"geometry": {"type": "Point", "coordinates": [-100.5375160064, 36.4541952614]}, "type": "Feature", "properties": {"collection_times": [{"days": "Mon-Fri", "time": "3:30pm"}, {"days": "Sat", "time": "9:30am"}, {"days": "Sun", "time": "Closed"}], "id": "7900500001", "name": "USPS COLLECTION BOX - BLUE BOX", "address": {"city": "BOOKER", "state": "TX", "street": "122 S AUSTIN ST", "postcode": "79005"}}},
{"geometry": {"type": "Point", "coordinates": [-101.2462957676, 35.7199282519]}, "type": "Feature", "properties": {"collection_times": [{"days": "Mon-Fri", "time": "1:00pm"}, {"days": "Sat", "time": "12:30pm"}, {"days": "Sun", "time": "Closed"}], "id": "7900700005", "name": "USPS COLLECTION BOX - BLUE BOX", "address": {"city": "BORGER", "state": "TX", "street": "1008 MEGERT CTR", "postcode": "79007"}}},
{"geometry": {"type": "Point", "coordinates": [-101.4430146702, 35.646245574]}, "type": "Feature", "properties": {"collection_times": [{"days": "Mon-Sat", "time": "2:00pm"}, {"days": "Sun", "time": "Closed"}], "id": "7900700006", "name": "USPS COLLECTION BOX - BLUE BOX", "address": {"city": "BORGER", "state": "TX", "street": "100 BROADMOOR ST", "postcode": "79007"}}},
{"geometry": {"type": "Point", "coordinates": [-101.3943154199, 35.6619311099]}, "type": "Feature", "properties": {"collection_times": [{"days": "Mon-Fri", "time": "5:00pm"}, {"days": "Sat", "time": "3:30pm"}, {"days": "Sun", "time": "Closed"}], "id": "7900700011", "name": "USPS COLLECTION BOX - BLUE BOX", "address": {"city": "BORGER", "state": "TX", "street": "500 S MCGEE ST", "postcode": "79007"}}},
{"geometry": {"type": "Point", "coordinates": [-101.3910550756, 35.6704844614]}, "type": "Feature", "properties": {"collection_times": [{"days": "Mon-Fri", "time": "1:30pm"}, {"days": "Sat-Sun", "time": "Closed"}], "id": "7900700013", "name": "USPS COLLECTION BOX - BLUE BOX", "address": {"city": "BORGER", "state": "TX", "street": "503 DEAHL ST", "postcode": "79007"}}},
{"geometry": {"type": "Point", "coordinates": [-101.3943154199, 35.6619311099]}, "type": "Feature", "properties": {"collection_times": [{"days": "Mon-Fri", "time": "5:00pm"}, {"days": "Sat", "time": "3:30pm"}, {"days": "Sun", "time": "Closed"}], "id": "7900700014", "name": "USPS COLLECTION BOX - PO LOBBY", "address": {"city": "BORGER", "state": "TX", "street": "500 S MCGEE ST", "postcode": "79007"}}},
{"geometry": {"type": "Point", "coordinates": [-101.3943154199, 35.6619311099]}, "type": "Feature", "properties": {"collection_times": [{"days": "Mon-Fri", "time": "5:00pm"}, {"days": "Sat", "time": "3:30pm"}, {"days": "Sun", "time": "Closed"}], "id": "7900700015", "name": "USPS COLLECTION BOX - PO LOBBY", "address": {"city": "BORGER", "state": "TX", "street": "500 S MCGEE ST", "postcode": "79007"}}},
{"geometry": {"type": "Point", "coordinates": [-101.3943154199, 35.6619311099]}, "type": "Feature", "properties": {"collection_times": [{"days": "Mon-Fri", "time": "5:00pm"}, {"days": "Sat", "time": "3:30pm"}, {"days": "Sun", "time": "Closed"}], "id": "7900700016", "name": "USPS COLLECTION BOX - PO LOBBY", "address": {"city": "BORGER", "state": "TX", "street": "500 S MCGEE ST", "postcode": "79007"}}},
{"geometry": {"type": "Point", "coordinates": [-101.3943154199, 35.6619311099]}, "type": "Feature", "properties": {"collection_times": [{"days": "Mon-Fri", "time": "5:00pm"}, {"days": "Sat", "time": "3:30pm"}, {"days": "Sun", "time": "Closed"}], "id": "7900700017", "name": "USPS COLLECTION BOX - PO LOBBY", "address": {"city": "BORGER", "state": "TX", "street": "500 S MCGEE ST", "postcode": "79007"}}},
{"geometry": {"type": "Point", "coordinates": [-101.3943154199, 35.6619311099]}, "type": "Feature", "properties": {"collection_times": [{"days": "Mon-Fri", "time": "5:00pm"}, {"days": "Sat", "time": "3:30pm"}, {"days": "Sun", "time": "Closed"}], "id": "7900700018", "name": "USPS COLLECTION BOX - BLUE BOX", "address": {"city": "BORGER", "state": "TX", "street": "500 S MCGEE ST", "postcode": "79007"}}},
{"geometry": {"type": "Point", "coordinates": [-102.8882890502, 34.5200256795]}, "type": "Feature", "properties": {"collection_times": [{"days": "Mon-Fri", "time": "3:15pm"}, {"days": "Sat", "time": "10:30am"}, {"days": "Sun", "time": "Closed"}], "id": "7900900001", "name": "USPS COLLECTION BOX - BLUE BOX", "address": {"city": "BOVINA", "state": "TX", "street": "108 2ND ST", "postcode": "79009"}}},
{"geometry": {"type": "Point", "coordinates": [-102.8882890502, 34.5200256795]}, "type": "Feature", "properties": {"collection_times": [{"days": "Mon-Fri", "time": "3:30pm"}, {"days": "Sat", "time": "10:30am"}, {"days": "Sun", "time": "Closed"}], "id": "7900900003", "name": "USPS COLLECTION BOX - PO LOBBY", "address": {"city": "BOVINA", "state": "TX", "street": "108 2ND ST", "postcode": "79009"}}},
{"geometry": {"type": "Point", "coordinates": [-102.8882890502, 34.5200256795]}, "type": "Feature", "properties": {"collection_times": [{"days": "Mon-Fri", "time": "3:30pm"}, {"days": "Sat", "time": "10:30am"}, {"days": "Sun", "time": "Closed"}], "id": "7900900004", "name": "USPS COLLECTION BOX - PO LOBBY", "address": {"city": "BOVINA", "state": "TX", "street": "108 2ND ST", "postcode": "79009"}}},
{"geometry": {"type": "Point", "coordinates": [-100.1448122957, 35.547308556]}, "type": "Feature", "properties": {"collection_times": [{"days": "Mon-Fri", "time": "2:30pm"}, {"days": "Sat", "time": "9:30am"}, {"days": "Sun", "time": "Closed"}], "id": "7901100000", "name": "USPS COLLECTION BOX - BLUE BOX", "address": {"city": "BRISCOE", "state": "TX", "street": "15715 FM 1046", "postcode": "79011"}}},
{"geometry": {"type": "Point", "coordinates": [-100.1448122957, 35.547308556]}, "type": "Feature", "properties": {"collection_times": [{"days": "Mon-Fri", "time": "2:30pm"}, {"days": "Sat", "time": "9:30am"}, {"days": "Sun", "time": "Closed"}], "id": "7901100001", "name": "USPS COLLECTION BOX - PO LOBBY", "address": {"city": "BRISCOE", "state": "TX", "street": "15715 FM 1046", "postcode": "79011"}}},
{"geometry": {"type": "Point", "coordinates": [-102.0639234435, 35.1907753442]}, "type": "Feature", "properties": {"collection_times": [{"days": "Mon-Fri", "time": "4:00pm"}, {"days": "Sat", "time": "9:00am"}, {"days": "Sun", "time": "Closed"}], "id": "7901200000", "name": "USPS COLLECTION BOX - BLUE BOX", "address": {"city": "BUSHLAND", "state": "TX", "street": "300 SIMMONS RD", "postcode": "79012"}}},
{"geometry": {"type": "Point", "coordinates": [-102.0639234435, 35.1907753442]}, "type": "Feature", "properties": {"collection_times": [{"days": "Mon-Fri", "time": "4:00pm"}, {"days": "Sat", "time": "9:00am"}, {"days": "Sun", "time": "Closed"}], "id": "7901200002", "name": "USPS COLLECTION BOX - PO LOBBY", "address": {"city": "BUSHLAND", "state": "TX", "street": "300 SIMMONS RD", "postcode": "79012"}}},
{"geometry": {"type": "Point", "coordinates": [-102.0059255117, 36.0514168605]}, "type": "Feature", "properties": {"collection_times": [{"days": "Mon-Fri", "time": "4:00pm"}, {"days": "Sat", "time": "9:30am"}, {"days": "Sun", "time": "Closed"}], "id": "7901300000", "name": "USPS COLLECTION BOX - BLUE BOX", "address": {"city": "CACTUS", "state": "TX", "street": "103 NORTH DR", "postcode": "79013"}}},
{"geometry": {"type": "Point", "coordinates": [-102.0059255117, 36.0514168605]}, "type": "Feature", "properties": {"collection_times": [{"days": "Mon-Fri", "time": "4:00pm"}, {"days": "Sat", "time": "9:30am"}, {"days": "Sun", "time": "Closed"}], "id": "7901300001", "name": "USPS COLLECTION BOX - PO LOBBY", "address": {"city": "CACTUS", "state": "TX", "street": "103 NORTH DR", "postcode": "79013"}}},
{"geometry": {"type": "Point", "coordinates": [-100.385423068, 35.9139931072]}, "type": "Feature", "properties": {"collection_times": [{"days": "Mon-Fri", "time": "4:00pm"}, {"days": "Sat", "time": "10:30am"}, {"days": "Sun", "time": "Closed"}], "id": "7901400000", "name": "USPS COLLECTION BOX - BLUE BOX", "address": {"city": "CANADIAN", "state": "TX", "street": "311 PURCELL AVE", "postcode": "79014"}}},
{"geometry": {"type": "Point", "coordinates": [-100.385423068, 35.9139931072]}, "type": "Feature", "properties": {"collection_times": [{"days": "Mon-Fri", "time": "4:00pm"}, {"days": "Sat", "time": "10:30am"}, {"days": "Sun", "time": "Closed"}], "id": "7901400001", "name": "USPS COLLECTION BOX - BLUE BOX", "address": {"city": "CANADIAN", "state": "TX", "street": "311 PURCELL AVE", "postcode": "79014"}}},
{"geometry": {"type": "Point", "coordinates": [-100.385423068, 35.9139931072]}, "type": "Feature", "properties": {"collection_times": [{"days": "Mon-Fri", "time": "4:00pm"}, {"days": "Sat", "time": "10:30am"}, {"days": "Sun", "time": "Closed"}], "id": "7901400002", "name": "USPS COLLECTION BOX - PO LOBBY", "address": {"city": "CANADIAN", "state": "TX", "street": "311 PURCELL AVE", "postcode": "79014"}}},
{"geometry": {"type": "Point", "coordinates": [-100.385423068, 35.9139931072]}, "type": "Feature", "properties": {"collection_times": [{"days": "Mon-Fri", "time": "4:00pm"}, {"days": "Sat", "time": "10:30am"}, {"days": "Sun", "time": "Closed"}], "id": "7901400003", "name": "USPS COLLECTION BOX - PO LOBBY", "address": {"city": "CANADIAN", "state": "TX", "street": "311 PURCELL AVE", "postcode": "79014"}}},
{"geometry": {"type": "Point", "coordinates": [-101.9308104931, 34.979863695]}, "type": "Feature", "properties": {"collection_times": [{"days": "Mon-Fri", "time": "5:00pm"}, {"days": "Sat", "time": "2:30pm"}, {"days": "Sun", "time": "Closed"}], "id": "7901500001", "name": "USPS COLLECTION BOX - BLUE BOX", "address": {"city": "CANYON", "state": "TX", "street": "1304 4TH AVE", "postcode": "79015"}}},
{"geometry": {"type": "Point", "coordinates": [-101.9308104931, 34.979863695]}, "type": "Feature", "properties": {"collection_times": [{"days": "Mon-Fri", "time": "5:00pm"}, {"days": "Sat", "time": "2:30pm"}, {"days": "Sun", "time": "Closed"}], "id": "7901500003", "name": "USPS COLLECTION BOX - BLUE BOX", "address": {"city": "CANYON", "state": "TX", "street": "1304 4TH AVE", "postcode": "79015"}}},
{"geometry": {"type": "Point", "coordinates": [-101.9312772038, 34.9798493189]}, "type": "Feature", "properties": {"collection_times": [{"days": "Mon-Fri", "time": "5:00pm"}, {"days": "Sat", "time": "2:30pm"}, {"days": "Sun", "time": "Closed"}], "id": "7901500004", "name": "USPS COLLECTION BOX - BLUE BOX", "address": {"city": "CANYON", "state": "TX", "street": "1304 4TH AVE", "postcode": "79015"}}},
{"geometry": {"type": "Point", "coordinates": [-101.9312772038, 34.9798493189]}, "type": "Feature", "properties": {"collection_times": [{"days": "Mon-Fri", "time": "5:00pm"}, {"days": "Sat", "time": "2:45pm"}, {"days": "Sun", "time": "Closed"}], "id": "7901500007", "name": "USPS COLLECTION BOX - PO LOBBY", "address": {"city": "CANYON", "state": "TX", "street": "1304 4TH AVE", "postcode": "79015"}}},
{"geometry": {"type": "Point", "coordinates": [-101.9312772038, 34.9798493189]}, "type": "Feature", "properties": {"collection_times": [{"days": "Mon-Fri", "time": "5:00pm"}, {"days": "Sat", "time": "2:45pm"}, {"days": "Sun", "time": "Closed"}], "id": "7901500008", "name": "USPS COLLECTION BOX - PO LOBBY", "address": {"city": "CANYON", "state": "TX", "street": "1304 4TH AVE", "postcode": "79015"}}},
{"geometry": {"type": "Point", "coordinates": [-102.8219221932, 35.6693156274]}, "type": "Feature", "properties": {"collection_times": [{"days": "Mon-Fri", "time": "12:00pm"}, {"days": "Sat", "time": "9:00am"}, {"days": "Sun", "time": "Closed"}], "id": "7901800001", "name": "USPS COLLECTION BOX - PO LOBBY", "address": {"city": "CHANNING", "state": "TX", "street": "705 ROCK ISLAND ST", "postcode": "79018"}}},
{"geometry": {"type": "Point", "coordinates": [-101.3604059837, 35.1081118649]}, "type": "Feature", "properties": {"collection_times": [{"days": "Mon-Fri", "time": "3:30pm"}, {"days": "Sat", "time": "9:30am"}, {"days": "Sun", "time": "Closed"}], "id": "7901900000", "name": "USPS COLLECTION BOX - BLUE BOX", "address": {"city": "CLAUDE", "state": "TX", "street": "302 TRICE ST", "postcode": "79019"}}},
{"geometry": {"type": "Point", "coordinates": [-101.3604059837, 35.1081118649]}, "type": "Feature", "properties": {"collection_times": [{"days": "Mon-Fri", "time": "3:30pm"}, {"days": "Sat", "time": "9:30am"}, {"days": "Sun", "time": "Closed"}], "id": "7901900003", "name": "USPS COLLECTION BOX - PO LOBBY", "address": {"city": "CLAUDE", "state": "TX", "street": "302 TRICE ST", "postcode": "79019"}}},
{"geometry": {"type": "Point", "coordinates": [-101.3604059837, 35.1081118649]}, "type": "Feature", "properties": {"collection_times": [{"days": "Mon-Fri", "time": "3:30pm"}, {"days": "Sat", "time": "9:30am"}, {"days": "Sun", "time": "Closed"}], "id": "7901900004", "name": "USPS COLLECTION BOX - PO LOBBY", "address": {"city": "CLAUDE", "state": "TX", "street": "302 TRICE ST", "postcode": "79019"}}},
{"geometry": {"type": "Point", "coordinates": [-101.9955652142, 33.992033455]}, "type": "Feature", "properties": {"collection_times": [{"days": "Mon-Sat", "time": "1:00pm"}, {"days": "Sun", "time": "Closed"}], "id": "7902100000", "name": "USPS COLLECTION BOX - BLUE BOX", "address": {"city": "COTTON CENTER", "state": "TX", "street": "2359 FM 179", "postcode": "79021"}}},
{"geometry": {"type": "Point", "coordinates": [-101.9955652142, 33.992033455]}, "type": "Feature", "properties": {"collection_times": [{"days": "Mon-Sat", "time": "1:00pm"}, {"days": "Sun", "time": "Closed"}], "id": "7902100001", "name": "USPS COLLECTION BOX - PO LOBBY", "address": {"city": "COTTON CENTER", "state": "TX", "street": "2359 FM 179", "postcode": "79021"}}},
{"geometry": {"type": "Point", "coordinates": [-102.5135045979, 36.050855849]}, "type": "Feature", "properties": {"collection_times": [{"days": "Mon-Sat", "time": "12:00pm"}, {"days": "Sun", "time": "Closed"}], "id": "7902200000", "name": "USPS COLLECTION BOX - BLUE BOX", "address": {"city": "DALHART", "state": "TX", "street": "1601 TENNESSEE AVE", "postcode": "79022"}}},
{"geometry": {"type": "Point", "coordinates": [-102.5306369039, 36.0594129122]}, "type": "Feature", "properties": {"collection_times": [{"days": "Mon-Fri", "time": "4:30pm"}, {"days": "Sat", "time": "3:30pm"}, {"days": "Sun", "time": "Closed"}], "id": "7902200002", "name": "USPS COLLECTION BOX - BLUE BOX", "address": {"city": "DALHART", "state": "TX", "street": "702 W 7TH ST", "postcode": "79022"}}},
{"geometry": {"type": "Point", "coordinates": [-102.5306369039, 36.0594129122]}, "type": "Feature", "properties": {"collection_times": [{"days": "Mon-Fri", "time": "4:30pm"}, {"days": "Sat", "time": "3:30pm"}, {"days": "Sun", "time": "Closed"}], "id": "7902200003", "name": "USPS COLLECTION BOX - BLUE BOX", "address": {"city": "DALHART", "state": "TX", "street": "702 W 7TH ST", "postcode": "79022"}}},
{"geometry": {"type": "Point", "coordinates": [-102.5306369039, 36.0594129122]}, "type": "Feature", "properties": {"collection_times": [{"days": "Mon-Fri", "time": "4:30pm"}, {"days": "Sat", "time": "3:30pm"}, {"days": "Sun", "time": "Closed"}], "id": "7902200005", "name": "USPS COLLECTION BOX - PO LOBBY", "address": {"city": "DALHART", "state": "TX", "street": "702 W 7TH ST", "postcode": "79022"}}},
{"geometry": {"type": "Point", "coordinates": [-102.5306369039, 36.0594129122]}, "type": "Feature", "properties": {"collection_times": [{"days": "Mon-Fri", "time": "4:30pm"}, {"days": "Sat", "time": "3:30pm"}, {"days": "Sun", "time": "Closed"}], "id": "7902200006", "name": "USPS COLLECTION BOX - PO LOBBY", "address": {"city": "DALHART", "state": "TX", "street": "702 W 7TH ST", "postcode": "79022"}}},
{"geometry": {"type": "Point", "coordinates": [-102.5243390392, 36.0642130784]}, "type": "Feature", "properties": {"collection_times": [{"days": "Mon-Sat", "time": "2:00pm"}, {"days": "Sun", "time": "Closed"}], "id": "7902200007", "name": "USPS COLLECTION BOX - BLUE BOX", "address": {"city": "DALHART", "state": "TX", "street": "205 ROCK ISLAND AVE", "postcode": "79022"}}},
{"geometry": {"type": "Point", "coordinates": [-100.3272936603, 36.4460687392]}, "type": "Feature", "properties": {"collection_times": [{"days": "Mon-Fri", "time": "3:00pm"}, {"days": "Sat", "time": "10:00am"}, {"days": "Sun", "time": "Closed"}], "id": "7902400000", "name": "USPS COLLECTION BOX - BLUE BOX", "address": {"city": "DARROUZETT", "state": "TX", "street": "302 MAIN ST", "postcode": "79024"}}},
{"geometry": {"type": "Point", "coordinates": [-100.3272936603, 36.4460687392]}, "type": "Feature", "properties": {"collection_times": [{"days": "Mon-Fri", "time": "3:00pm"}, {"days": "Sat", "time": "10:00am"}, {"days": "Sun", "time": "Closed"}], "id": "7902400001", "name": "USPS COLLECTION BOX - PO LOBBY", "address": {"city": "DARROUZETT", "state": "TX", "street": "302 MAIN ST", "postcode": "79024"}}},
{"geometry": {"type": "Point", "coordinates": [-102.2049022571, 34.9080092902]}, "type": "Feature", "properties": {"collection_times": [{"days": "Mon-Fri", "time": "1:30pm"}, {"days": "Sat", "time": "10:30am"}, {"days": "Sun", "time": "Closed"}], "id": "7902500000", "name": "USPS COLLECTION BOX - PO LOBBY", "address": {"city": "DAWN", "state": "TX", "street": "101 FRYE AVE", "postcode": "79025"}}},
{"geometry": {"type": "Point", "coordinates": [-102.2049022571, 34.9080092902]}, "type": "Feature", "properties": {"collection_times": [{"days": "Mon-Fri", "time": "1:30pm"}, {"days": "Sat", "time": "10:30am"}, {"days": "Sun", "time": "Closed"}], "id": "7902500001", "name": "USPS COLLECTION BOX - BLUE BOX", "address": {"city": "DAWN", "state": "TX", "street": "101 FRYE AVE", "postcode": "79025"}}},
{"geometry": {"type": "Point", "coordinates": [-102.3111198171, 34.5495796842]}, "type": "Feature", "properties": {"collection_times": [{"days": "Mon-Fri", "time": "4:00pm"}, {"days": "Sat", "time": "3:30pm"}, {"days": "Sun", "time": "Closed"}], "id": "7902700006", "name": "USPS COLLECTION BOX - BLUE BOX", "address": {"city": "DIMMITT", "state": "TX", "street": "217 SE 2ND ST", "postcode": "79027"}}},
{"geometry": {"type": "Point", "coordinates": [-102.3111198171, 34.5495796842]}, "type": "Feature", "properties": {"collection_times": [{"days": "Mon-Fri", "time": "4:00pm"}, {"days": "Sat", "time": "3:30pm"}, {"days": "Sun", "time": "Closed"}], "id": "7902700007", "name": "USPS COLLECTION BOX - BLUE BOX", "address": {"city": "DIMMITT", "state": "TX", "street": "217 SE 2ND ST", "postcode": "79027"}}},
{"geometry": {"type": "Point", "coordinates": [-102.3111198171, 34.5495796842]}, "type": "Feature", "properties": {"collection_times": [{"days": "Mon-Fri", "time": "4:00pm"}, {"days": "Sat", "time": "3:30pm"}, {"days": "Sun", "time": "Closed"}], "id": "7902700008", "name": "USPS COLLECTION BOX - PO LOBBY", "address": {"city": "DIMMITT", "state": "TX", "street": "217 SE 2ND ST", "postcode": "79027"}}},
{"geometry": {"type": "Point", "coordinates": [-102.3111198171, 34.5495796842]}, "type": "Feature", "properties": {"collection_times": [{"days": "Mon-Fri", "time": "4:00pm"}, {"days": "Sat", "time": "3:30pm"}, {"days": "Sun", "time": "Closed"}], "id": "7902700009", "name": "USPS COLLECTION BOX - PO LOBBY", "address": {"city": "DIMMITT", "state": "TX", "street": "217 SE 2ND ST", "postcode": "79027"}}},
{"geometry": {"type": "Point", "coordinates": [-101.9717636011, 35.8629953925]}, "type": "Feature", "properties": {"collection_times": [{"days": "Mon-Fri", "time": "4:30pm"}, {"days": "Sat", "time": "3:30pm"}, {"days": "Sun", "time": "Closed"}], "id": "7902900000", "name": "USPS COLLECTION BOX - PO LOBBY", "address": {"city": "DUMAS", "state": "TX", "street": "315 S BLISS AVE", "postcode": "79029"}}},
{"geometry": {"type": "Point", "coordinates": [-101.9717636011, 35.8629953925]}, "type": "Feature", "properties": {"collection_times": [{"days": "Mon-Fri", "time": "4:30pm"}, {"days": "Sat", "time": "3:30pm"}, {"days": "Sun", "time": "Closed"}], "id": "7902900001", "name": "USPS COLLECTION BOX - BLUE BOX", "address": {"city": "DUMAS", "state": "TX", "street": "315 S BLISS AVE", "postcode": "79029"}}},
{"geometry": {"type": "Point", "coordinates": [-101.9717636011, 35.8629953925]}, "type": "Feature", "properties": {"collection_times": [{"days": "Mon-Fri", "time": "4:30pm"}, {"days": "Sat", "time": "3:30pm"}, {"days": "Sun", "time": "Closed"}], "id": "7902900002", "name": "USPS COLLECTION BOX - BLUE BOX", "address": {"city": "DUMAS", "state": "TX", "street": "315 S BLISS AVE", "postcode": "79029"}}},
{"geometry": {"type": "Point", "coordinates": [-101.9734053701, 35.8509016433]}, "type": "Feature", "properties": {"collection_times": [{"days": "Mon-Sat", "time": "2:45pm"}, {"days": "Sun", "time": "Closed"}], "id": "7902900004", "name": "USPS COLLECTION BOX - BLUE BOX", "address": {"city": "DUMAS", "state": "TX", "street": "1404 S DUMAS AVE", "postcode": "79029"}}},
{"geometry": {"type": "Point", "coordinates": [-101.9717636011, 35.8629953925]}, "type": "Feature", "properties": {"collection_times": [{"days": "Mon-Fri", "time": "4:30pm"}, {"days": "Sat", "time": "3:30pm"}, {"days": "Sun", "time": "Closed"}], "id": "7902900005", "name": "USPS COLLECTION BOX - PO LOBBY", "address": {"city": "DUMAS", "state": "TX", "street": "315 S BLISS AVE", "postcode": "79029"}}},
{"geometry": {"type": "Point", "coordinates": [-102.4108552444, 34.2330815066]}, "type": "Feature", "properties": {"collection_times": [{"days": "Mon-Fri", "time": "3:15pm"}, {"days": "Sat", "time": "11:00am"}, {"days": "Sun", "time": "Closed"}], "id": "7903100001", "name": "USPS COLLECTION BOX - PO LOBBY", "address": {"city": "EARTH", "state": "TX", "street": "103 N AMHERST RD", "postcode": "79031"}}},
{"geometry": {"type": "Point", "coordinates": [-102.4108552444, 34.2330815066]}, "type": "Feature", "properties": {"collection_times": [{"days": "Mon-Fri", "time": "3:15pm"}, {"days": "Sat", "time": "11:00am"}, {"days": "Sun", "time": "Closed"}], "id": "7903100002", "name": "USPS COLLECTION BOX - BLUE BOX", "address": {"city": "EARTH", "state": "TX", "street": "103 N AMHERST RD", "postcode": "79031"}}},
{"geometry": {"type": "Point", "coordinates": [-102.4108552444, 34.2330815066]}, "type": "Feature", "properties": {"collection_times": [{"days": "Mon-Fri", "time": "3:15pm"}, {"days": "Sat", "time": "11:00am"}, {"days": "Sun", "time": "Closed"}], "id": "7903100003", "name": "USPS COLLECTION BOX - PO LOBBY", "address": {"city": "EARTH", "state": "TX", "street": "103 N AMHERST RD", "postcode": "79031"}}},
{"geometry": {"type": "Point", "coordinates": [-101.9003186285, 34.2817883504]}, "type": "Feature", "properties": {"collection_times": [{"days": "Mon-Fri", "time": "3:30pm"}, {"days": "Sat", "time": "9:30am"}, {"days": "Sun", "time": "Closed"}], "id": "7903200000", "name": "USPS COLLECTION BOX - BLUE BOX", "address": {"city": "EDMONSON", "state": "TX", "street": "100 E 1ST ST", "postcode": "79032"}}},
{"geometry": {"type": "Point", "coordinates": [-101.9003186285, 34.2817883504]}, "type": "Feature", "properties": {"collection_times": [{"days": "Mon-Fri", "time": "12:00pm"}, {"days": "Sat", "time": "9:30am"}, {"days": "Sun", "time": "Closed"}], "id": "7903200001", "name": "USPS COLLECTION BOX - PO LOBBY", "address": {"city": "EDMONSON", "state": "TX", "street": "100 E 1ST ST", "postcode": "79032"}}},
{"geometry": {"type": "Point", "coordinates": [-100.9665176245, 36.3209217329]}, "type": "Feature", "properties": {"collection_times": [{"days": "Mon-Fri", "time": "1:30pm"}, {"days": "Sat", "time": "9:15am"}, {"days": "Sun", "time": "Closed"}], "id": "7903300001", "name": "USPS COLLECTION BOX - PO LOBBY", "address": {"city": "FARNSWORTH", "state": "TX", "street": "200 FARNSWORTH ST", "postcode": "79033"}}},
{"geometry": {"type": "Point", "coordinates": [-100.9665176245, 36.3209217329]}, "type": "Feature", "properties": {"collection_times": [{"days": "Mon-Fri", "time": "1:30pm"}, {"days": "Sat", "time": "9:15am"}, {"days": "Sun", "time": "Closed"}], "id": "7903300002", "name": "USPS COLLECTION BOX - BLUE BOX", "address": {"city": "FARNSWORTH", "state": "TX", "street": "200 FARNSWORTH ST", "postcode": "79033"}}},
{"geometry": {"type": "Point", "coordinates": [-100.1417897454, 36.4337968007]}, "type": "Feature", "properties": {"collection_times": [{"days": "Mon-Fri", "time": "3:00pm"}, {"days": "Sat", "time": "10:00am"}, {"days": "Sun", "time": "Closed"}], "id": "7903400000", "name": "USPS COLLECTION BOX - BLUE BOX", "address": {"city": "FOLLETT", "state": "TX", "street": "101 S MAIN ST", "postcode": "79034"}}},
{"geometry": {"type": "Point", "coordinates": [-100.1417897454, 36.4337968007]}, "type": "Feature", "properties": {"collection_times": [{"days": "Mon-Fri", "time": "3:00pm"}, {"days": "Sat", "time": "10:00am"}, {"days": "Sun", "time": "Closed"}], "id": "7903400002", "name": "USPS COLLECTION BOX - PO LOBBY", "address": {"city": "FOLLETT", "state": "TX", "street": "101 S MAIN ST", "postcode": "79034"}}},
{"geometry": {"type": "Point", "coordinates": [-102.7184244041, 34.6407468876]}, "type": "Feature", "properties": {"collection_times": [{"days": "Mon-Fri", "time": "4:00pm"}, {"days": "Sat", "time": "12:00pm"}, {"days": "Sun", "time": "Closed"}], "id": "7903500000", "name": "USPS COLLECTION BOX - BLUE BOX", "address": {"city": "FRIONA", "state": "TX", "street": "1010 MAIN ST", "postcode": "79035"}}},
{"geometry": {"type": "Point", "coordinates": [-102.7184244041, 34.6407468876]}, "type": "Feature", "properties": {"collection_times": [{"days": "Mon-Fri", "time": "4:00pm"}, {"days": "Sat", "time": "12:00pm"}, {"days": "Sun", "time": "Closed"}], "id": "7903500002", "name": "USPS COLLECTION BOX - PO LOBBY", "address": {"city": "FRIONA", "state": "TX", "street": "1010 MAIN ST", "postcode": "79035"}}},
{"geometry": {"type": "Point", "coordinates": [-102.7184244041, 34.6407468876]}, "type": "Feature", "properties": {"collection_times": [{"days": "Mon-Fri", "time": "4:00pm"}, {"days": "Sat", "time": "12:00pm"}, {"days": "Sun", "time": "Closed"}], "id": "7903500003", "name": "USPS COLLECTION BOX - PO LOBBY", "address": {"city": "FRIONA", "state": "TX", "street": "1010 MAIN ST", "postcode": "79035"}}},
{"geometry": {"type": "Point", "coordinates": [-101.6051336582, 35.6384011479]}, "type": "Feature", "properties": {"collection_times": [{"days": "Mon-Fri", "time": "4:30pm"}, {"days": "Sat", "time": "9:00am"}, {"days": "Sun", "time": "Closed"}], "id": "7903600001", "name": "USPS COLLECTION BOX - BLUE BOX", "address": {"city": "FRITCH", "state": "TX", "street": "107 N HOYNE AVE", "postcode": "79036"}}},
{"geometry": {"type": "Point", "coordinates": [-101.6051336582, 35.6384011479]}, "type": "Feature", "properties": {"collection_times": [{"days": "Mon-Fri", "time": "4:30pm"}, {"days": "Sat", "time": "9:00am"}, {"days": "Sun", "time": "Closed"}], "id": "7903600003", "name": "USPS COLLECTION BOX - PO LOBBY", "address": {"city": "FRITCH", "state": "TX", "street": "107 N HOYNE AVE", "postcode": "79036"}}},
{"geometry": {"type": "Point", "coordinates": [-101.214809751, 35.2568475304]}, "type": "Feature", "properties": {"collection_times": [{"days": "Mon-Fri", "time": "3:45pm"}, {"days": "Sat", "time": "8:00am"}, {"days": "Sun", "time": "Closed"}], "id": "7903900000", "name": "USPS COLLECTION BOX - BLUE BOX", "address": {"city": "GROOM", "state": "TX", "street": "104 W 1ST ST", "postcode": "79039"}}},
{"geometry": {"type": "Point", "coordinates": [-101.214809751, 35.2568475304]}, "type": "Feature", "properties": {"collection_times": [{"days": "Mon-Fri", "time": "3:45pm"}, {"days": "Sat-Sun", "time": "Closed"}], "id": "7903900001", "name": "USPS COLLECTION BOX - PO LOBBY", "address": {"city": "GROOM", "state": "TX", "street": "104 W 1ST ST", "postcode": "79039"}}},
{"geometry": {"type": "Point", "coordinates": [-101.4060261416, 36.2662463216]}, "type": "Feature", "properties": {"collection_times": [{"days": "Mon-Fri", "time": "4:00pm"}, {"days": "Sat", "time": "10:30am"}, {"days": "Sun", "time": "Closed"}], "id": "7904000000", "name": "USPS COLLECTION BOX - PO LOBBY", "address": {"city": "GRUVER", "state": "TX", "street": "301 MAIN ST", "postcode": "79040"}}},
{"geometry": {"type": "Point", "coordinates": [-101.4060261416, 36.2662463216]}, "type": "Feature", "properties": {"collection_times": [{"days": "Mon-Fri", "time": "4:00pm"}, {"days": "Sat", "time": "10:30am"}, {"days": "Sun", "time": "Closed"}], "id": "7904000001", "name": "USPS COLLECTION BOX - BLUE BOX", "address": {"city": "GRUVER", "state": "TX", "street": "301 MAIN ST", "postcode": "79040"}}},
{"geometry": {"type": "Point", "coordinates": [-101.4060261416, 36.2662463216]}, "type": "Feature", "properties": {"collection_times": [{"days": "Mon-Fri", "time": "4:00pm"}, {"days": "Sat", "time": "10:30am"}, {"days": "Sun", "time": "Closed"}], "id": "7904000003", "name": "USPS COLLECTION BOX - PO LOBBY", "address": {"city": "GRUVER", "state": "TX", "street": "301 MAIN ST", "postcode": "79040"}}},
{"geometry": {"type": "Point", "coordinates": [-101.9339542929, 34.0733350358]}, "type": "Feature", "properties": {"collection_times": [{"days": "Mon-Fri", "time": "4:00pm"}, {"days": "Sat", "time": "10:30am"}, {"days": "Sun", "time": "Closed"}], "id": "7904100001", "name": "USPS COLLECTION BOX - BLUE BOX", "address": {"city": "HALE CENTER", "state": "TX", "street": "203 W STEVENSON AVE", "postcode": "79041"}}},
{"geometry": {"type": "Point", "coordinates": [-101.9339542929, 34.0733350358]}, "type": "Feature", "properties": {"collection_times": [{"days": "Mon-Fri", "time": "4:00pm"}, {"days": "Sat", "time": "10:30am"}, {"days": "Sun", "time": "Closed"}], "id": "7904100003", "name": "USPS COLLECTION BOX - PO LOBBY", "address": {"city": "HALE CENTER", "state": "TX", "street": "203 W STEVENSON AVE", "postcode": "79041"}}},
{"geometry": {"type": "Point", "coordinates": [-101.9339542929, 34.0733350358]}, "type": "Feature", "properties": {"collection_times": [{"days": "Mon-Fri", "time": "4:00pm"}, {"days": "Sat", "time": "10:30am"}, {"days": "Sun", "time": "Closed"}], "id": "7904100004", "name": "USPS COLLECTION BOX - PO LOBBY", "address": {"city": "HALE CENTER", "state": "TX", "street": "203 W STEVENSON AVE", "postcode": "79041"}}},
{"geometry": {"type": "Point", "coordinates": [-101.8550841545, 34.7435812519]}, "type": "Feature", "properties": {"collection_times": [{"days": "Mon-Fri", "time": "3:30pm"}, {"days": "Sat", "time": "9:30am"}, {"days": "Sun", "time": "Closed"}], "id": "7904200000", "name": "USPS COLLECTION BOX - BLUE BOX", "address": {"city": "HAPPY", "state": "TX", "street": "202 MAIN ST", "postcode": "79042"}}},
{"geometry": {"type": "Point", "coordinates": [-101.8550841545, 34.7435812519]}, "type": "Feature", "properties": {"collection_times": [{"days": "Mon-Fri", "time": "3:30pm"}, {"days": "Sat", "time": "9:30am"}, {"days": "Sun", "time": "Closed"}], "id": "7904200001", "name": "USPS COLLECTION BOX - PO LOBBY", "address": {"city": "HAPPY", "state": "TX", "street": "202 MAIN ST", "postcode": "79042"}}},
{"geometry": {"type": "Point", "coordinates": [-102.1158594597, 34.3873000923]}, "type": "Feature", "properties": {"collection_times": [{"days": "Mon-Fri", "time": "4:00pm"}, {"days": "Sat", "time": "9:30am"}, {"days": "Sun", "time": "Closed"}], "id": "7904300000", "name": "USPS COLLECTION BOX - BLUE BOX", "address": {"city": "HART", "state": "TX", "street": "600 BROADWAY ST", "postcode": "79043"}}},
{"geometry": {"type": "Point", "coordinates": [-102.1158594597, 34.3873000923]}, "type": "Feature", "properties": {"collection_times": [{"days": "Mon-Fri", "time": "4:00pm"}, {"days": "Sat", "time": "9:30am"}, {"days": "Sun", "time": "Closed"}], "id": "7904300002", "name": "USPS COLLECTION BOX - PO LOBBY", "address": {"city": "HART", "state": "TX", "street": "600 BROADWAY ST", "postcode": "79043"}}},
{"geometry": {"type": "Point", "coordinates": [-102.3890362277, 35.9059290964]}, "type": "Feature", "properties": {"collection_times": [{"days": "Mon-Fri", "time": "4:00pm"}, {"days": "Sat", "time": "8:30am"}, {"days": "Sun", "time": "Closed"}], "id": "7904400000", "name": "USPS COLLECTION BOX - BLUE BOX", "address": {"city": "HARTLEY", "state": "TX", "street": "210 WHITE ST", "postcode": "79044"}}},
{"geometry": {"type": "Point", "coordinates": [-102.3890362277, 35.9059290964]}, "type": "Feature", "properties": {"collection_times": [{"days": "Mon-Fri", "time": "4:00pm"}, {"days": "Sat", "time": "8:30am"}, {"days": "Sun", "time": "Closed"}], "id": "7904400001", "name": "USPS COLLECTION BOX - PO LOBBY", "address": {"city": "HARTLEY", "state": "TX", "street": "210 WHITE ST", "postcode": "79044"}}},
{"geometry": {"type": "Point", "coordinates": [-102.3890362277, 35.9059290964]}, "type": "Feature", "properties": {"collection_times": [{"days": "Mon-Fri", "time": "4:00pm"}, {"days": "Sat", "time": "8:30am"}, {"days": "Sun", "time": "Closed"}], "id": "7904400003", "name": "USPS COLLECTION BOX - PO LOBBY", "address": {"city": "HARTLEY", "state": "TX", "street": "210 WHITE ST", "postcode": "79044"}}},
{"geometry": {"type": "Point", "coordinates": [-102.419734836, 34.8222664655]}, "type": "Feature", "properties": {"collection_times": [{"days": "Mon-Fri", "time": "3:00pm"}, {"days": "Sat", "time": "2:30pm"}, {"days": "Sun", "time": "Closed"}], "id": "7904500005", "name": "USPS COLLECTION BOX - BLUE BOX", "address": {"city": "HEREFORD", "state": "TX", "street": "1115 W PARK AVE", "postcode": "79045"}}},
{"geometry": {"type": "Point", "coordinates": [-102.4057204277, 34.8215420253]}, "type": "Feature", "properties": {"collection_times": [{"days": "Mon-Sat", "time": "2:30pm"}, {"days": "Sun", "time": "Closed"}], "id": "7904500007", "name": "USPS COLLECTION BOX - BLUE BOX", "address": {"city": "HEREFORD", "state": "TX", "street": "830 S 25 MILE AVE", "postcode": "79045"}}},
{"geometry": {"type": "Point", "coordinates": [-102.400101318, 34.8177292152]}, "type": "Feature", "properties": {"collection_times": [{"days": "Mon-Fri", "time": "4:45pm"}, {"days": "Sat", "time": "3:00pm"}, {"days": "Sun", "time": "Closed"}], "id": "7904500008", "name": "USPS COLLECTION BOX - BLUE BOX", "address": {"city": "HEREFORD", "state": "TX", "street": "408 MAIN ST", "postcode": "79045"}}},
{"geometry": {"type": "Point", "coordinates": [-102.400101318, 34.8177292152]}, "type": "Feature", "properties": {"collection_times": [{"days": "Mon-Fri", "time": "4:45pm"}, {"days": "Sat", "time": "3:00pm"}, {"days": "Sun", "time": "Closed"}], "id": "7904500009", "name": "USPS COLLECTION BOX - BLUE BOX", "address": {"city": "HEREFORD", "state": "TX", "street": "408 MAIN ST", "postcode": "79045"}}},
{"geometry": {"type": "Point", "coordinates": [-102.400101318, 34.8177292152]}, "type": "Feature", "properties": {"collection_times": [{"days": "Mon-Fri", "time": "4:45pm"}, {"days": "Sat", "time": "3:00pm"}, {"days": "Sun", "time": "Closed"}], "id": "7904500010", "name": "USPS COLLECTION BOX - BLUE BOX", "address": {"city": "HEREFORD", "state": "TX", "street": "408 MAIN ST", "postcode": "79045"}}},
{"geometry": {"type": "Point", "coordinates": [-102.400101318, 34.8177292152]}, "type": "Feature", "properties": {"collection_times": [{"days": "Mon-Fri", "time": "4:45pm"}, {"days": "Sat", "time": "3:00pm"}, {"days": "Sun", "time": "Closed"}], "id": "7904500011", "name": "USPS COLLECTION BOX - BLUE BOX", "address": {"city": "HEREFORD", "state": "TX", "street": "408 MAIN ST", "postcode": "79045"}}},
{"geometry": {"type": "Point", "coordinates": [-102.400101318, 34.8177292152]}, "type": "Feature", "properties": {"collection_times": [{"days": "Mon-Fri", "time": "4:45pm"}, {"days": "Sat", "time": "3:00pm"}, {"days": "Sun", "time": "Closed"}], "id": "7904500013", "name": "USPS COLLECTION BOX - PO LOBBY", "address": {"city": "HEREFORD", "state": "TX", "street": "408 MAIN ST", "postcode": "79045"}}},
{"geometry": {"type": "Point", "coordinates": [-102.408014871, 34.8341993375]}, "type": "Feature", "properties": {"collection_times": [{"days": "Mon-Fri", "time": "1:00pm"}, {"days": "Sat", "time": "12:00pm"}, {"days": "Sun", "time": "Closed"}], "id": "7904500015", "name": "USPS COLLECTION BOX - BLUE BOX", "address": {"city": "HEREFORD", "state": "TX", "street": "400 JACK GRIFFIN DR", "postcode": "79045"}}},
{"geometry": {"type": "Point", "coordinates": [-102.408014871, 34.8340896919]}, "type": "Feature", "properties": {"collection_times": [{"days": "Mon-Fri", "time": "1:00pm"}, {"days": "Sat", "time": "12:00pm"}, {"days": "Sun", "time": "Closed"}], "id": "7904500016", "name": "USPS COLLECTION BOX - BLUE BOX", "address": {"city": "HEREFORD", "state": "TX", "street": "401 JACK GRIFFIN DR", "postcode": "79045"}}},
{"geometry": {"type": "Point", "coordinates": [-102.400101318, 34.8177292152]}, "type": "Feature", "properties": {"collection_times": [{"days": "Mon-Fri", "time": "4:45pm"}, {"days": "Sat", "time": "3:00pm"}, {"days": "Sun", "time": "Closed"}], "id": "7904500018", "name": "USPS COLLECTION BOX - PO LOBBY", "address": {"city": "HEREFORD", "state": "TX", "street": "408 MAIN ST", "postcode": "79045"}}},
{"geometry": {"type": "Point", "coordinates": [-100.0246565111, 36.1200947542]}, "type": "Feature", "properties": {"collection_times": [{"days": "Mon-Fri", "time": "12:15pm"}, {"days": "Sat", "time": "10:00am"}, {"days": "Sun", "time": "Closed"}], "id": "7904600000", "name": "USPS COLLECTION BOX - BLUE BOX", "address": {"city": "HIGGINS", "state": "TX", "street": "116 N MAIN ST", "postcode": "79046"}}},
{"geometry": {"type": "Point", "coordinates": [-100.0246565111, 36.1200947542]}, "type": "Feature", "properties": {"collection_times": [{"days": "Mon-Fri", "time": "12:15pm"}, {"days": "Sat", "time": "10:00am"}, {"days": "Sun", "time": "Closed"}], "id": "7904600002", "name": "USPS COLLECTION BOX - PO LOBBY", "address": {"city": "HIGGINS", "state": "TX", "street": "116 N MAIN ST", "postcode": "79046"}}},
{"geometry": {"type": "Point", "coordinates": [-101.7500565053, 34.3651010113]}, "type": "Feature", "properties": {"collection_times": [{"days": "Mon-Fri", "time": "4:00pm"}, {"days": "Sat", "time": "9:00am"}, {"days": "Sun", "time": "Closed"}], "id": "7905200000", "name": "USPS COLLECTION BOX - BLUE BOX", "address": {"city": "KRESS", "state": "TX", "street": "400 SKIPWORTH ST", "postcode": "79052"}}},
{"geometry": {"type": "Point", "coordinates": [-101.7500565053, 34.3651010113]}, "type": "Feature", "properties": {"collection_times": [{"days": "Mon-Fri", "time": "4:00pm"}, {"days": "Sat", "time": "9:00am"}, {"days": "Sun", "time": "Closed"}], "id": "7905200001", "name": "USPS COLLECTION BOX - PO LOBBY", "address": {"city": "KRESS", "state": "TX", "street": "400 SKIPWORTH ST", "postcode": "79052"}}},
{"geometry": {"type": "Point", "coordinates": [-102.6111700483, 34.3934293744]}, "type": "Feature", "properties": {"collection_times": [{"days": "Mon-Sat", "time": "11:00am"}, {"days": "Sun", "time": "Closed"}], "id": "7905300000", "name": "USPS COLLECTION BOX - PO LOBBY", "address": {"city": "LAZBUDDIE", "state": "TX", "street": "610 FM 1172", "postcode": "79053"}}},
{"geometry": {"type": "Point", "coordinates": [-102.6111700483, 34.3934293744]}, "type": "Feature", "properties": {"collection_times": [{"days": "Mon-Sat", "time": "11:00am"}, {"days": "Sun", "time": "Closed"}], "id": "7905300001", "name": "USPS COLLECTION BOX - PO LOBBY", "address": {"city": "LAZBUDDIE", "state": "TX", "street": "610 FM 1172", "postcode": "79053"}}},
{"geometry": {"type": "Point", "coordinates": [-100.8059873883, 35.4365555227]}, "type": "Feature", "properties": {"collection_times": [{"days": "Mon-Fri", "time": "4:00pm"}, {"days": "Sat", "time": "10:15am"}, {"days": "Sun", "time": "Closed"}], "id": "7905400000", "name": "USPS COLLECTION BOX - BLUE BOX", "address": {"city": "LEFORS", "state": "TX", "street": "111 E 2ND ST", "postcode": "79054"}}},
{"geometry": {"type": "Point", "coordinates": [-100.8059873883, 35.4365555227]}, "type": "Feature", "properties": {"collection_times": [{"days": "Mon-Fri", "time": "4:00pm"}, {"days": "Sat", "time": "10:15am"}, {"days": "Sun", "time": "Closed"}], "id": "7905400002", "name": "USPS COLLECTION BOX - PO LOBBY", "address": {"city": "LEFORS", "state": "TX", "street": "111 E 2ND ST", "postcode": "79054"}}},
{"geometry": {"type": "Point", "coordinates": [-100.2802031619, 36.2198243546]}, "type": "Feature", "properties": {"collection_times": [{"days": "Mon-Fri", "time": "12:00pm"}, {"days": "Sat", "time": "10:30am"}, {"days": "Sun", "time": "Closed"}], "id": "7905600000", "name": "USPS COLLECTION BOX - PO LOBBY", "address": {"city": "LIPSCOMB", "state": "TX", "street": "100 S MAIN ST", "postcode": "79056"}}},
{"geometry": {"type": "Point", "coordinates": [-100.5656875089, 35.2263038918]}, "type": "Feature", "properties": {"collection_times": [{"days": "Mon-Sat", "time": "10:30am"}, {"days": "Sun", "time": "Closed"}], "id": "7905700000", "name": "USPS COLLECTION BOX - BLUE BOX", "address": {"city": "MCLEAN", "state": "TX", "street": "13100 INTERSTATE 40", "postcode": "79057"}}},
{"geometry": {"type": "Point", "coordinates": [-100.6002677362, 35.2314825895]}, "type": "Feature", "properties": {"collection_times": [{"days": "Mon-Fri", "time": "4:00pm"}, {"days": "Sat", "time": "11:00am"}, {"days": "Sun", "time": "Closed"}], "id": "7905700001", "name": "USPS COLLECTION BOX - BLUE BOX", "address": {"city": "MCLEAN", "state": "TX", "street": "101 S MAIN ST", "postcode": "79057"}}},
{"geometry": {"type": "Point", "coordinates": [-100.6002677362, 35.2314825895]}, "type": "Feature", "properties": {"collection_times": [{"days": "Mon-Fri", "time": "4:00pm"}, {"days": "Sat", "time": "11:00am"}, {"days": "Sun", "time": "Closed"}], "id": "7905700003", "name": "USPS COLLECTION BOX - PO LOBBY", "address": {"city": "MCLEAN", "state": "TX", "street": "101 S MAIN ST", "postcode": "79057"}}},
{"geometry": {"type": "Point", "coordinates": [-100.6380632354, 35.6913462678]}, "type": "Feature", "properties": {"collection_times": [{"days": "Mon-Fri", "time": "4:00pm"}, {"days": "Sat", "time": "8:30am"}, {"days": "Sun", "time": "Closed"}], "id": "7905900000", "name": "USPS COLLECTION BOX - BLUE BOX", "address": {"city": "MIAMI", "state": "TX", "street": "116 S MAIN ST", "postcode": "79059"}}},
{"geometry": {"type": "Point", "coordinates": [-100.6380632354, 35.6913462678]}, "type": "Feature", "properties": {"collection_times": [{"days": "Mon-Fri", "time": "4:00pm"}, {"days": "Sat", "time": "8:30am"}, {"days": "Sun", "time": "Closed"}], "id": "7905900001", "name": "USPS COLLECTION BOX - PO LOBBY", "address": {"city": "MIAMI", "state": "TX", "street": "116 S MAIN ST", "postcode": "79059"}}},
{"geometry": {"type": "Point", "coordinates": [-100.4057863491, 35.5395041839]}, "type": "Feature", "properties": {"collection_times": [{"days": "Mon-Fri", "time": "2:45pm"}, {"days": "Sat", "time": "10:00am"}, {"days": "Sun", "time": "Closed"}], "id": "7906100000", "name": "USPS COLLECTION BOX - BLUE BOX", "address": {"city": "MOBEETIE", "state": "TX", "street": "214 W 1ST ST", "postcode": "79061"}}},
{"geometry": {"type": "Point", "coordinates": [-100.4057863491, 35.5395041839]}, "type": "Feature", "properties": {"collection_times": [{"days": "Mon-Fri", "time": "2:45pm"}, {"days": "Sat", "time": "10:00am"}, {"days": "Sun", "time": "Closed"}], "id": "7906100002", "name": "USPS COLLECTION BOX - PO LOBBY", "address": {"city": "MOBEETIE", "state": "TX", "street": "214 W 1ST ST", "postcode": "79061"}}},
{"geometry": {"type": "Point", "coordinates": [-101.5333071272, 36.0667162993]}, "type": "Feature", "properties": {"collection_times": [{"days": "Mon-Fri", "time": "4:00pm"}, {"days": "Sat", "time": "9:15am"}, {"days": "Sun", "time": "Closed"}], "id": "7906200000", "name": "USPS COLLECTION BOX - BLUE BOX", "address": {"city": "MORSE", "state": "TX", "street": "200 MAIN ST", "postcode": "79062"}}},
{"geometry": {"type": "Point", "coordinates": [-101.5333071272, 36.0667162993]}, "type": "Feature", "properties": {"collection_times": [{"days": "Mon-Fri", "time": "4:00pm"}, {"days": "Sat", "time": "9:15am"}, {"days": "Sun", "time": "Closed"}], "id": "7906200002", "name": "USPS COLLECTION BOX - PO LOBBY", "address": {"city": "MORSE", "state": "TX", "street": "200 MAIN ST", "postcode": "79062"}}},
{"geometry": {"type": "Point", "coordinates": [-102.1010266846, 34.5452903889]}, "type": "Feature", "properties": {"collection_times": [{"days": "Mon-Fri", "time": "4:00pm"}, {"days": "Sat", "time": "9:00am"}, {"days": "Sun", "time": "Closed"}], "id": "7906300000", "name": "USPS COLLECTION BOX - BLUE BOX", "address": {"city": "NAZARETH", "state": "TX", "street": "101 SAINT JOSEPH ST", "postcode": "79063"}}},
{"geometry": {"type": "Point", "coordinates": [-102.1010266846, 34.5452903889]}, "type": "Feature", "properties": {"collection_times": [{"days": "Mon-Fri", "time": "4:00pm"}, {"days": "Sat", "time": "9:00am"}, {"days": "Sun", "time": "Closed"}], "id": "7906300001", "name": "USPS COLLECTION BOX - PO LOBBY", "address": {"city": "NAZARETH", "state": "TX", "street": "101 SAINT JOSEPH ST", "postcode": "79063"}}},
{"geometry": {"type": "Point", "coordinates": [-102.1326326928, 34.1812035209]}, "type": "Feature", "properties": {"collection_times": [{"days": "Mon-Fri", "time": "4:00pm"}, {"days": "Sat", "time": "10:30am"}, {"days": "Sun", "time": "Closed"}], "id": "7906400000", "name": "USPS COLLECTION BOX - BLUE BOX", "address": {"city": "OLTON", "state": "TX", "street": "416 8TH ST", "postcode": "79064"}}},
{"geometry": {"type": "Point", "coordinates": [-102.1326326928, 34.1812035209]}, "type": "Feature", "properties": {"collection_times": [{"days": "Mon-Fri", "time": "4:00pm"}, {"days": "Sat", "time": "10:30am"}, {"days": "Sun", "time": "Closed"}], "id": "7906400001", "name": "USPS COLLECTION BOX - BLUE BOX", "address": {"city": "OLTON", "state": "TX", "street": "416 8TH ST", "postcode": "79064"}}},
{"geometry": {"type": "Point", "coordinates": [-102.1326326928, 34.1812035209]}, "type": "Feature", "properties": {"collection_times": [{"days": "Mon-Fri", "time": "4:00pm"}, {"days": "Sat", "time": "10:30am"}, {"days": "Sun", "time": "Closed"}], "id": "7906400003", "name": "USPS COLLECTION BOX - PO LOBBY", "address": {"city": "OLTON", "state": "TX", "street": "416 8TH ST", "postcode": "79064"}}},
{"geometry": {"type": "Point", "coordinates": [-100.838986541, 35.4222595839]}, "type": "Feature", "properties": {"collection_times": [{"days": "Mon-Fri", "time": "4:30pm"}, {"days": "Sat", "time": "4:00pm"}, {"days": "Sun", "time": "Closed"}], "id": "7906500008", "name": "USPS COLLECTION BOX - BLUE BOX", "address": {"city": "PAMPA", "state": "TX", "street": "101 E ATCHISON AVE", "postcode": "79065"}}},
{"geometry": {"type": "Point", "coordinates": [-100.9607494872, 35.5349477089]}, "type": "Feature", "properties": {"collection_times": [{"days": "Mon-Fri", "time": "4:30pm"}, {"days": "Sat", "time": "4:00pm"}, {"days": "Sun", "time": "Closed"}], "id": "7906500009", "name": "USPS COLLECTION BOX - BLUE BOX", "address": {"city": "PAMPA", "state": "TX", "street": "101 E ATCHISON AVE", "postcode": "79065"}}},
{"geometry": {"type": "Point", "coordinates": [-100.838986541, 35.4222595839]}, "type": "Feature", "properties": {"collection_times": [{"days": "Mon-Fri", "time": "4:30pm"}, {"days": "Sat", "time": "4:00pm"}, {"days": "Sun", "time": "Closed"}], "id": "7906500010", "name": "USPS COLLECTION BOX - BLUE BOX", "address": {"city": "PAMPA", "state": "TX", "street": "101 E ATCHISON AVE", "postcode": "79065"}}},
{"geometry": {"type": "Point", "coordinates": [-100.9628289497, 35.5542410014]}, "type": "Feature", "properties": {"collection_times": [{"days": "Mon-Fri", "time": "4:30pm"}, {"days": "Sat", "time": "3:00pm"}, {"days": "Sun", "time": "Closed"}], "id": "7906500014", "name": "USPS COLLECTION BOX - BLUE BOX", "address": {"city": "PAMPA", "state": "TX", "street": "317 E 17TH AVE", "postcode": "79065"}}},
{"geometry": {"type": "Point", "coordinates": [-100.9719301152, 35.550020582]}, "type": "Feature", "properties": {"collection_times": [{"days": "Mon-Sat", "time": "2:30pm"}, {"days": "Sun", "time": "Closed"}], "id": "7906500015", "name": "USPS COLLECTION BOX - BLUE BOX", "address": {"city": "PAMPA", "state": "TX", "street": "1420 N HOBART ST", "postcode": "79065"}}},
{"geometry": {"type": "Point", "coordinates": [-100.9718752257, 35.5468129692]}, "type": "Feature", "properties": {"collection_times": [{"days": "Mon-Fri", "time": "4:45pm"}, {"days": "Sat", "time": "3:15pm"}, {"days": "Sun", "time": "Closed"}], "id": "7906500017", "name": "USPS COLLECTION BOX - BLUE BOX", "address": {"city": "PAMPA", "state": "TX", "street": "1224 N HOBART ST", "postcode": "79065"}}},
{"geometry": {"type": "Point", "coordinates": [-100.9720099854, 35.5465070601]}, "type": "Feature", "properties": {"collection_times": [{"days": "Mon-Fri", "time": "4:45pm"}, {"days": "Sat", "time": "3:15pm"}, {"days": "Sun", "time": "Closed"}], "id": "7906500020", "name": "USPS COLLECTION BOX - BLUE BOX", "address": {"city": "PAMPA", "state": "TX", "street": "1201 N HOBART ST", "postcode": "79065"}}},
{"geometry": {"type": "Point", "coordinates": [-100.9720099854, 35.5465070601]}, "type": "Feature", "properties": {"collection_times": [{"days": "Mon-Fri", "time": "4:45pm"}, {"days": "Sat", "time": "3:15pm"}, {"days": "Sun", "time": "Closed"}], "id": "7906500021", "name": "USPS COLLECTION BOX - BLUE BOX", "address": {"city": "PAMPA", "state": "TX", "street": "1201 N HOBART ST", "postcode": "79065"}}},
{"geometry": {"type": "Point", "coordinates": [-100.9625953018, 35.5353684381]}, "type": "Feature", "properties": {"collection_times": [{"days": "Mon-Sat", "time": "2:30pm"}, {"days": "Sun", "time": "Closed"}], "id": "7906500023", "name": "USPS COLLECTION BOX - BLUE BOX", "address": {"city": "PAMPA", "state": "TX", "street": "200 W FOSTER AVE", "postcode": "79065"}}},
{"geometry": {"type": "Point", "coordinates": [-100.9712320547, 35.5606701602]}, "type": "Feature", "properties": {"collection_times": [{"days": "Mon-Fri", "time": "4:30pm"}, {"days": "Sat", "time": "3:00pm"}, {"days": "Sun", "time": "Closed"}], "id": "7906500030", "name": "USPS COLLECTION BOX - BLUE BOX", "address": {"city": "PAMPA", "state": "TX", "street": "2217 PERRYTON PKWY", "postcode": "79065"}}},
{"geometry": {"type": "Point", "coordinates": [-100.9611474598, 35.5359096637]}, "type": "Feature", "properties": {"collection_times": [{"days": "Mon-Fri", "time": "4:30pm"}, {"days": "Sat", "time": "4:00pm"}, {"days": "Sun", "time": "Closed"}], "id": "7906500032", "name": "USPS COLLECTION BOX - PO LOBBY", "address": {"city": "PAMPA", "state": "TX", "street": "120 E FOSTER AVE", "postcode": "79065"}}},
{"geometry": {"type": "Point", "coordinates": [-100.9611474598, 35.5359096637]}, "type": "Feature", "properties": {"collection_times": [{"days": "Mon-Fri", "time": "4:30pm"}, {"days": "Sat", "time": "4:00pm"}, {"days": "Sun", "time": "Closed"}], "id": "7906500033", "name": "USPS COLLECTION BOX - PO LOBBY", "address": {"city": "PAMPA", "state": "TX", "street": "120 E FOSTER AVE", "postcode": "79065"}}},
{"geometry": {"type": "Point", "coordinates": [-100.9633023087, 35.5363207175]}, "type": "Feature", "properties": {"collection_times": [{"days": "Mon-Fri", "time": "2:30pm"}, {"days": "Sat-Sun", "time": "Closed"}], "id": "7906500034", "name": "USPS COLLECTION BOX - BLUE BOX", "address": {"city": "PAMPA", "state": "TX", "street": "205 N RUSSELL ST", "postcode": "79065"}}},
{"geometry": {"type": "Point", "coordinates": [-100.9653198213, 35.5422529484]}, "type": "Feature", "properties": {"collection_times": [{"days": "Mon-Fri", "time": "4:15pm"}, {"days": "Sat", "time": "2:30pm"}, {"days": "Sun", "time": "Closed"}], "id": "7906500035", "name": "USPS COLLECTION BOX - BLUE BOX", "address": {"city": "PAMPA", "state": "TX", "street": "311 W 30TH AVE", "postcode": "79065"}}},
{"geometry": {"type": "Point", "coordinates": [-101.3800964848, 35.3447081776]}, "type": "Feature", "properties": {"collection_times": [{"days": "Mon-Fri", "time": "4:00pm"}, {"days": "Sat", "time": "9:30am"}, {"days": "Sun", "time": "Closed"}], "id": "7906800001", "name": "USPS COLLECTION BOX - BLUE BOX", "address": {"city": "PANHANDLE", "state": "TX", "street": "402 MAIN ST", "postcode": "79068"}}},
{"geometry": {"type": "Point", "coordinates": [-101.3800964848, 35.3447081776]}, "type": "Feature", "properties": {"collection_times": [{"days": "Mon-Fri", "time": "4:00pm"}, {"days": "Sat", "time": "9:30am"}, {"days": "Sun", "time": "Closed"}], "id": "7906800003", "name": "USPS COLLECTION BOX - PO LOBBY", "address": {"city": "PANHANDLE", "state": "TX", "street": "402 MAIN ST", "postcode": "79068"}}},
{"geometry": {"type": "Point", "coordinates": [-100.8094811934, 36.3912470587]}, "type": "Feature", "properties": {"collection_times": [{"days": "Mon-Sat", "time": "12:30pm"}, {"days": "Sun", "time": "Closed"}], "id": "7907000002", "name": "USPS COLLECTION BOX - BLUE BOX", "address": {"city": "PERRYTON", "state": "TX", "street": "522 SW 9TH AVE", "postcode": "79070"}}},
{"geometry": {"type": "Point", "coordinates": [-100.8026308244, 36.3744057376]}, "type": "Feature", "properties": {"collection_times": [{"days": "Mon-Fri", "time": "4:00pm"}, {"days": "Sat", "time": "3:15pm"}, {"days": "Sun", "time": "Closed"}], "id": "7907000007", "name": "USPS COLLECTION BOX - BLUE BOX", "address": {"city": "PERRYTON", "state": "TX", "street": "2722 S MAIN ST", "postcode": "79070"}}},
{"geometry": {"type": "Point", "coordinates": [-100.8026308244, 36.3744057376]}, "type": "Feature", "properties": {"collection_times": [{"days": "Mon-Fri", "time": "4:00pm"}, {"days": "Sat", "time": "3:15pm"}, {"days": "Sun", "time": "Closed"}], "id": "7907000008", "name": "USPS COLLECTION BOX - PO LOBBY", "address": {"city": "PERRYTON", "state": "TX", "street": "2722 S MAIN ST", "postcode": "79070"}}},
{"geometry": {"type": "Point", "coordinates": [-100.8026308244, 36.3744057376]}, "type": "Feature", "properties": {"collection_times": [{"days": "Mon-Fri", "time": "4:00pm"}, {"days": "Sat", "time": "3:15pm"}, {"days": "Sun", "time": "Closed"}], "id": "7907000009", "name": "USPS COLLECTION BOX - PO LOBBY", "address": {"city": "PERRYTON", "state": "TX", "street": "2722 S MAIN ST", "postcode": "79070"}}},
{"geometry": {"type": "Point", "coordinates": [-100.8026308244, 36.3744057376]}, "type": "Feature", "properties": {"collection_times": [{"days": "Mon-Fri", "time": "4:00pm"}, {"days": "Sat", "time": "3:15pm"}, {"days": "Sun", "time": "Closed"}], "id": "7907000011", "name": "USPS COLLECTION BOX - BLUE BOX", "address": {"city": "PERRYTON", "state": "TX", "street": "2722 S MAIN ST", "postcode": "79070"}}},
{"geometry": {"type": "Point", "coordinates": [-100.8027306727, 36.3911598594]}, "type": "Feature", "properties": {"collection_times": [{"days": "Mon-Sat", "time": "2:00pm"}, {"days": "Sun", "time": "Closed"}], "id": "7907000013", "name": "USPS COLLECTION BOX - BLUE BOX", "address": {"city": "PERRYTON", "state": "TX", "street": "900 S MAIN ST", "postcode": "79070"}}},
{"geometry": {"type": "Point", "coordinates": [-101.7017932252, 34.1873619382]}, "type": "Feature", "properties": {"collection_times": [{"days": "Mon-Fri", "time": "5:00pm"}, {"days": "Sat", "time": "12:00pm"}, {"days": "Sun", "time": "Closed"}], "id": "7907200002", "name": "USPS COLLECTION BOX - BLUE BOX", "address": {"city": "PLAINVIEW", "state": "TX", "street": "725 ASH ST", "postcode": "79072"}}},
{"geometry": {"type": "Point", "coordinates": [-101.7030135457, 34.1809710569]}, "type": "Feature", "properties": {"collection_times": [{"days": "Mon-Fri", "time": "4:30pm"}, {"days": "Sat-Sun", "time": "Closed"}], "id": "7907200009", "name": "USPS COLLECTION BOX - BLUE BOX", "address": {"city": "PLAINVIEW", "state": "TX", "street": "225 BROADWAY ST", "postcode": "79072"}}},
{"geometry": {"type": "Point", "coordinates": [-101.7029411614, 34.184640042]}, "type": "Feature", "properties": {"collection_times": [{"days": "Mon-Fri", "time": "4:30pm"}, {"days": "Sat-Sun", "time": "Closed"}], "id": "7907200010", "name": "USPS COLLECTION BOX - BLUE BOX", "address": {"city": "PLAINVIEW", "state": "TX", "street": "500 BROADWAY ST", "postcode": "79072"}}},
{"geometry": {"type": "Point", "coordinates": [-101.7230666875, 34.1895320136]}, "type": "Feature", "properties": {"collection_times": [{"days": "Mon-Fri", "time": "3:15pm"}, {"days": "Sat-Sun", "time": "Closed"}], "id": "7907200011", "name": "USPS COLLECTION BOX - BLUE BOX", "address": {"city": "PLAINVIEW", "state": "TX", "street": "912 PORTLAND ST", "postcode": "79072"}}},
{"geometry": {"type": "Point", "coordinates": [-101.7438793761, 34.1859512765]}, "type": "Feature", "properties": {"collection_times": [{"days": "Mon-Fri", "time": "3:30pm"}, {"days": "Sat-Sun", "time": "Closed"}], "id": "7907200015", "name": "USPS COLLECTION BOX - BLUE BOX", "address": {"city": "PLAINVIEW", "state": "TX", "street": "3404 OLTON RD", "postcode": "79072"}}},
{"geometry": {"type": "Point", "coordinates": [-101.7504792387, 34.1898518982]}, "type": "Feature", "properties": {"collection_times": [{"days": "Mon-Fri", "time": "3:45pm"}, {"days": "Sat-Sun", "time": "Closed"}], "id": "7907200016", "name": "USPS COLLECTION BOX - BLUE BOX", "address": {"city": "PLAINVIEW", "state": "TX", "street": "1001 N INTERSTATE 27", "postcode": "79072"}}},
{"geometry": {"type": "Point", "coordinates": [-101.7017932252, 34.1873619382]}, "type": "Feature", "properties": {"collection_times": [{"days": "Mon-Fri", "time": "5:00pm"}, {"days": "Sat", "time": "3:30pm"}, {"days": "Sun", "time": "Closed"}], "id": "7907200033", "name": "USPS COLLECTION BOX - PO LOBBY", "address": {"city": "PLAINVIEW", "state": "TX", "street": "725 ASH ST", "postcode": "79072"}}},
{"geometry": {"type": "Point", "coordinates": [-101.7017932252, 34.1873619382]}, "type": "Feature", "properties": {"collection_times": [{"days": "Mon-Fri", "time": "5:00pm"}, {"days": "Sat", "time": "3:30pm"}, {"days": "Sun", "time": "Closed"}], "id": "7907200034", "name": "USPS COLLECTION BOX - PO LOBBY", "address": {"city": "PLAINVIEW", "state": "TX", "street": "725 ASH ST", "postcode": "79072"}}},
{"geometry": {"type": "Point", "coordinates": [-101.7017932252, 34.1873619382]}, "type": "Feature", "properties": {"collection_times": [{"days": "Mon-Fri", "time": "5:00pm"}, {"days": "Sat", "time": "3:30pm"}, {"days": "Sun", "time": "Closed"}], "id": "7907200035", "name": "USPS COLLECTION BOX - PO LOBBY", "address": {"city": "PLAINVIEW", "state": "TX", "street": "725 ASH ST", "postcode": "79072"}}},
{"geometry": {"type": "Point", "coordinates": [-101.7450951595, 34.1860789259]}, "type": "Feature", "properties": {"collection_times": [{"days": "Mon-Fri", "time": "3:45pm"}, {"days": "Sat-Sun", "time": "Closed"}], "id": "7907200036", "name": "USPS COLLECTION BOX - BLUE BOX", "address": {"city": "PLAINVIEW", "state": "TX", "street": "3501 OLTON RD", "postcode": "79072"}}},
{"geometry": {"type": "Point", "coordinates": [-101.7450951595, 34.1860789259]}, "type": "Feature", "properties": {"collection_times": [{"days": "Mon-Fri", "time": "3:45pm"}, {"days": "Sat-Sun", "time": "Closed"}], "id": "7907200037", "name": "USPS COLLECTION BOX - BLUE BOX", "address": {"city": "PLAINVIEW", "state": "TX", "street": "3501 OLTON RD", "postcode": "79072"}}},
{"geometry": {"type": "Point", "coordinates": [-101.7306623626, 34.1841948506]}, "type": "Feature", "properties": {"collection_times": [{"days": "Mon-Fri", "time": "3:15pm"}, {"days": "Sat-Sun", "time": "Closed"}], "id": "7907200039", "name": "USPS COLLECTION BOX - BLUE BOX", "address": {"city": "PLAINVIEW", "state": "TX", "street": "2308 W 5TH ST", "postcode": "79072"}}},
{"geometry": {"type": "Point", "coordinates": [-101.7219166404, 34.1840397603]}, "type": "Feature", "properties": {"collection_times": [{"days": "Mon-Fri", "time": "4:00pm"}, {"days": "Sat-Sun", "time": "Closed"}], "id": "7907200043", "name": "USPS COLLECTION BOX - BLUE BOX", "address": {"city": "PLAINVIEW", "state": "TX", "street": "1609 W 5TH ST", "postcode": "79072"}}},
{"geometry": {"type": "Point", "coordinates": [-101.7402929584, 34.1850903241]}, "type": "Feature", "properties": {"collection_times": [{"days": "Mon-Fri", "time": "4:00pm"}, {"days": "Sat-Sun", "time": "Closed"}], "id": "7907200044", "name": "USPS COLLECTION BOX - BLUE BOX", "address": {"city": "PLAINVIEW", "state": "TX", "street": "3109 OLTON RD", "postcode": "79072"}}},
{"geometry": {"type": "Point", "coordinates": [-101.5335941258, 35.7034840861]}, "type": "Feature", "properties": {"collection_times": [{"days": "Mon-Fri", "time": "3:30pm"}, {"days": "Sat", "time": "8:00am"}, {"days": "Sun", "time": "Closed"}], "id": "7907800000", "name": "USPS COLLECTION BOX - BLUE BOX", "address": {"city": "SANFORD", "state": "TX", "street": "305 E MAIN ST", "postcode": "79078"}}},
{"geometry": {"type": "Point", "coordinates": [-101.5335941258, 35.7034840861]}, "type": "Feature", "properties": {"collection_times": [{"days": "Mon-Fri", "time": "3:30pm"}, {"days": "Sat-Sun", "time": "Closed"}], "id": "7907800001", "name": "USPS COLLECTION BOX - PO LOBBY", "address": {"city": "SANFORD", "state": "TX", "street": "305 E MAIN ST", "postcode": "79078"}}},
{"geometry": {"type": "Point", "coordinates": [-100.247782524, 35.2151246845]}, "type": "Feature", "properties": {"collection_times": [{"days": "Mon-Fri", "time": "4:00pm"}, {"days": "Sat", "time": "12:00pm"}, {"days": "Sun", "time": "Closed"}], "id": "7907900003", "name": "USPS COLLECTION BOX - BLUE BOX", "address": {"city": "SHAMROCK", "state": "TX", "street": "210 N MADDEN ST", "postcode": "79079"}}},
{"geometry": {"type": "Point", "coordinates": [-100.247782524, 35.2151246845]}, "type": "Feature", "properties": {"collection_times": [{"days": "Mon-Fri", "time": "4:00pm"}, {"days": "Sat", "time": "12:00pm"}, {"days": "Sun", "time": "Closed"}], "id": "7907900007", "name": "USPS COLLECTION BOX - PO LOBBY", "address": {"city": "SHAMROCK", "state": "TX", "street": "210 N MADDEN ST", "postcode": "79079"}}},
{"geometry": {"type": "Point", "coordinates": [-101.1709291518, 35.5732583369]}, "type": "Feature", "properties": {"collection_times": [{"days": "Mon-Fri", "time": "12:15pm"}, {"days": "Sat", "time": "9:00am"}, {"days": "Sun", "time": "Closed"}], "id": "7908000000", "name": "USPS COLLECTION BOX - PO LOBBY", "address": {"city": "SKELLYTOWN", "state": "TX", "street": "301 MAIN ST", "postcode": "79080"}}},
{"geometry": {"type": "Point", "coordinates": [-101.1920585648, 36.199198161]}, "type": "Feature", "properties": {"collection_times": [{"days": "Mon-Fri", "time": "4:00pm"}, {"days": "Sat", "time": "10:00am"}, {"days": "Sun", "time": "Closed"}], "id": "7908100000", "name": "USPS COLLECTION BOX - PO LOBBY", "address": {"city": "SPEARMAN", "state": "TX", "street": "101 N BERNICE ST", "postcode": "79081"}}},
{"geometry": {"type": "Point", "coordinates": [-101.1920585648, 36.199198161]}, "type": "Feature", "properties": {"collection_times": [{"days": "Mon-Fri", "time": "4:00pm"}, {"days": "Sat", "time": "10:00am"}, {"days": "Sun", "time": "Closed"}], "id": "7908100001", "name": "USPS COLLECTION BOX - PO LOBBY", "address": {"city": "SPEARMAN", "state": "TX", "street": "101 N BERNICE ST", "postcode": "79081"}}},
{"geometry": {"type": "Point", "coordinates": [-101.1920585648, 36.199198161]}, "type": "Feature", "properties": {"collection_times": [{"days": "Mon-Fri", "time": "4:00pm"}, {"days": "Sat", "time": "10:00am"}, {"days": "Sun", "time": "Closed"}], "id": "7908100002", "name": "USPS COLLECTION BOX - BLUE BOX", "address": {"city": "SPEARMAN", "state": "TX", "street": "101 N BERNICE ST", "postcode": "79081"}}},
{"geometry": {"type": "Point", "coordinates": [-102.3159010862, 34.2487920393]}, "type": "Feature", "properties": {"collection_times": [{"days": "Mon-Fri", "time": "3:15pm"}, {"days": "Sat", "time": "11:15am"}, {"days": "Sun", "time": "Closed"}], "id": "7908200000", "name": "USPS COLLECTION BOX - BLUE BOX", "address": {"city": "SPRINGLAKE", "state": "TX", "street": "108 W MAIN ST", "postcode": "79082"}}},
{"geometry": {"type": "Point", "coordinates": [-102.3159010862, 34.2487920393]}, "type": "Feature", "properties": {"collection_times": [{"days": "Mon-Fri", "time": "3:15pm"}, {"days": "Sat", "time": "11:15am"}, {"days": "Sun", "time": "Closed"}], "id": "7908200001", "name": "USPS COLLECTION BOX - PO LOBBY", "address": {"city": "SPRINGLAKE", "state": "TX", "street": "108 W MAIN ST", "postcode": "79082"}}},
{"geometry": {"type": "Point", "coordinates": [-102.3159010862, 34.2487920393]}, "type": "Feature", "properties": {"collection_times": [{"days": "Mon-Fri", "time": "3:15pm"}, {"days": "Sat", "time": "11:15am"}, {"days": "Sun", "time": "Closed"}], "id": "7908200002", "name": "USPS COLLECTION BOX - PO LOBBY", "address": {"city": "SPRINGLAKE", "state": "TX", "street": "108 W MAIN ST", "postcode": "79082"}}},
{"geometry": {"type": "Point", "coordinates": [-101.3884453081, 35.9069007179]}, "type": "Feature", "properties": {"collection_times": [{"days": "Mon-Fri", "time": "4:00pm"}, {"days": "Sat", "time": "10:00am"}, {"days": "Sun", "time": "Closed"}], "id": "7908300000", "name": "USPS COLLECTION BOX - BLUE BOX", "address": {"city": "STINNETT", "state": "TX", "street": "431 MAIN ST", "postcode": "79083"}}},
{"geometry": {"type": "Point", "coordinates": [-101.3884453081, 35.9069007179]}, "type": "Feature", "properties": {"collection_times": [{"days": "Mon-Fri", "time": "4:00pm"}, {"days": "Sat", "time": "10:00am"}, {"days": "Sun", "time": "Closed"}], "id": "7908300003", "name": "USPS COLLECTION BOX - PO LOBBY", "address": {"city": "STINNETT", "state": "TX", "street": "431 MAIN ST", "postcode": "79083"}}},
{"geometry": {"type": "Point", "coordinates": [-102.0719182114, 36.3355770762]}, "type": "Feature", "properties": {"collection_times": [{"days": "Mon-Fri", "time": "4:00pm"}, {"days": "Sat", "time": "11:00am"}, {"days": "Sun", "time": "Closed"}], "id": "7908400000", "name": "USPS COLLECTION BOX - BLUE BOX", "address": {"city": "STRATFORD", "state": "TX", "street": "201 N MAIN ST", "postcode": "79084"}}},
{"geometry": {"type": "Point", "coordinates": [-102.0719182114, 36.3355770762]}, "type": "Feature", "properties": {"collection_times": [{"days": "Mon-Fri", "time": "4:00pm"}, {"days": "Sat", "time": "11:00am"}, {"days": "Sun", "time": "Closed"}], "id": "7908400001", "name": "USPS COLLECTION BOX - BLUE BOX", "address": {"city": "STRATFORD", "state": "TX", "street": "201 N MAIN ST", "postcode": "79084"}}},
{"geometry": {"type": "Point", "coordinates": [-102.0719182114, 36.3355770762]}, "type": "Feature", "properties": {"collection_times": [{"days": "Mon-Fri", "time": "4:00pm"}, {"days": "Sat", "time": "11:00am"}, {"days": "Sun", "time": "Closed"}], "id": "7908400004", "name": "USPS COLLECTION BOX - PO LOBBY", "address": {"city": "STRATFORD", "state": "TX", "street": "201 N MAIN ST", "postcode": "79084"}}},
{"geometry": {"type": "Point", "coordinates": [-102.0719182114, 36.3355770762]}, "type": "Feature", "properties": {"collection_times": [{"days": "Mon-Fri", "time": "4:00pm"}, {"days": "Sat", "time": "11:00am"}, {"days": "Sun", "time": "Closed"}], "id": "7908400005", "name": "USPS COLLECTION BOX - PO LOBBY", "address": {"city": "STRATFORD", "state": "TX", "street": "201 N MAIN ST", "postcode": "79084"}}},
{"geometry": {"type": "Point", "coordinates": [-101.8267102857, 36.0301305342]}, "type": "Feature", "properties": {"collection_times": [{"days": "Mon-Fri", "time": "4:00pm"}, {"days": "Sat", "time": "11:00am"}, {"days": "Sun", "time": "Closed"}], "id": "7908600000", "name": "USPS COLLECTION BOX - BLUE BOX", "address": {"city": "SUNRAY", "state": "TX", "street": "400 MAIN ST", "postcode": "79086"}}},
{"geometry": {"type": "Point", "coordinates": [-101.8267102857, 36.0301305342]}, "type": "Feature", "properties": {"collection_times": [{"days": "Mon-Fri", "time": "4:00pm"}, {"days": "Sat", "time": "11:00am"}, {"days": "Sun", "time": "Closed"}], "id": "7908600003", "name": "USPS COLLECTION BOX - PO LOBBY", "address": {"city": "SUNRAY", "state": "TX", "street": "400 MAIN ST", "postcode": "79086"}}},
{"geometry": {"type": "Point", "coordinates": [-101.8267102857, 36.0301305342]}, "type": "Feature", "properties": {"collection_times": [{"days": "Mon-Fri", "time": "4:00pm"}, {"days": "Sat", "time": "11:00am"}, {"days": "Sun", "time": "Closed"}], "id": "7908600004", "name": "USPS COLLECTION BOX - PO LOBBY", "address": {"city": "SUNRAY", "state": "TX", "street": "400 MAIN ST", "postcode": "79086"}}},
{"geometry": {"type": "Point", "coordinates": [-103.0164543865, 36.3723302453]}, "type": "Feature", "properties": {"collection_times": [{"days": "Mon-Fri", "time": "3:45pm"}, {"days": "Sat", "time": "9:00am"}, {"days": "Sun", "time": "Closed"}], "id": "7908700000", "name": "USPS COLLECTION BOX - BLUE BOX", "address": {"city": "TEXLINE", "state": "TX", "street": "303 S 2ND ST", "postcode": "79087"}}},
{"geometry": {"type": "Point", "coordinates": [-103.0164543865, 36.3723302453]}, "type": "Feature", "properties": {"collection_times": [{"days": "Mon-Fri", "time": "3:45pm"}, {"days": "Sat", "time": "9:00am"}, {"days": "Sun", "time": "Closed"}], "id": "7908700001", "name": "USPS COLLECTION BOX - PO LOBBY", "address": {"city": "TEXLINE", "state": "TX", "street": "303 S 2ND ST", "postcode": "79087"}}},
{"geometry": {"type": "Point", "coordinates": [-101.7658725902, 34.5376107487]}, "type": "Feature", "properties": {"collection_times": [{"days": "Mon-Fri", "time": "4:30pm"}, {"days": "Sat", "time": "3:00pm"}, {"days": "Sun", "time": "Closed"}], "id": "7908800000", "name": "USPS COLLECTION BOX - BLUE BOX", "address": {"city": "TULIA", "state": "TX", "street": "129 N ARMSTRONG AVE", "postcode": "79088"}}},
{"geometry": {"type": "Point", "coordinates": [-101.7658725902, 34.5376107487]}, "type": "Feature", "properties": {"collection_times": [{"days": "Mon-Fri", "time": "4:30pm"}, {"days": "Sat", "time": "3:00pm"}, {"days": "Sun", "time": "Closed"}], "id": "7908800002", "name": "USPS COLLECTION BOX - BLUE BOX", "address": {"city": "TULIA", "state": "TX", "street": "129 N ARMSTRONG AVE", "postcode": "79088"}}},
{"geometry": {"type": "Point", "coordinates": [-101.7613771332, 34.5294676672]}, "type": "Feature", "properties": {"collection_times": [{"days": "Mon-Fri", "time": "12:15pm"}, {"days": "Sat", "time": "11:30am"}, {"days": "Sun", "time": "Closed"}], "id": "7908800003", "name": "USPS COLLECTION BOX - BLUE BOX", "address": {"city": "TULIA", "state": "TX", "street": "321 SE 7TH ST", "postcode": "79088"}}},
{"geometry": {"type": "Point", "coordinates": [-101.7643603902, 34.5369097894]}, "type": "Feature", "properties": {"collection_times": [{"days": "Mon-Fri", "time": "5:00pm"}, {"days": "Sat-Sun", "time": "Closed"}], "id": "7908800005", "name": "USPS COLLECTION BOX - BLUE BOX", "address": {"city": "TULIA", "state": "TX", "street": "119 S MAXWELL AVE", "postcode": "79088"}}},
{"geometry": {"type": "Point", "coordinates": [-101.7658725902, 34.5376107487]}, "type": "Feature", "properties": {"collection_times": [{"days": "Mon-Fri", "time": "4:30pm"}, {"days": "Sat", "time": "3:00pm"}, {"days": "Sun", "time": "Closed"}], "id": "7908800008", "name": "USPS COLLECTION BOX - PO LOBBY", "address": {"city": "TULIA", "state": "TX", "street": "129 N ARMSTRONG AVE", "postcode": "79088"}}},
{"geometry": {"type": "Point", "coordinates": [-101.7658725902, 34.5376107487]}, "type": "Feature", "properties": {"collection_times": [{"days": "Mon-Fri", "time": "4:30pm"}, {"days": "Sat", "time": "3:00pm"}, {"days": "Sun", "time": "Closed"}], "id": "7908800009", "name": "USPS COLLECTION BOX - PO LOBBY", "address": {"city": "TULIA", "state": "TX", "street": "129 N ARMSTRONG AVE", "postcode": "79088"}}},
{"geometry": {"type": "Point", "coordinates": [-102.1055538651, 34.9551012094]}, "type": "Feature", "properties": {"collection_times": [{"days": "Mon-Fri", "time": "11:00am"}, {"days": "Sat", "time": "10:00am"}, {"days": "Sun", "time": "Closed"}], "id": "7909100001", "name": "USPS COLLECTION BOX - PO LOBBY", "address": {"city": "UMBARGER", "state": "TX", "street": "25380 STOREY ST", "postcode": "79091"}}},
{"geometry": {"type": "Point", "coordinates": [-102.4409756325, 35.4345891562]}, "type": "Feature", "properties": {"collection_times": [{"days": "Mon-Fri", "time": "4:00pm"}, {"days": "Sat", "time": "11:00am"}, {"days": "Sun", "time": "Closed"}], "id": "7909200000", "name": "USPS COLLECTION BOX - BLUE BOX", "address": {"city": "VEGA", "state": "TX", "street": "222 N MAIN ST", "postcode": "79092"}}},
{"geometry": {"type": "Point", "coordinates": [-102.4409756325, 35.4345891562]}, "type": "Feature", "properties": {"collection_times": [{"days": "Mon-Fri", "time": "4:00pm"}, {"days": "Sat", "time": "11:00am"}, {"days": "Sun", "time": "Closed"}], "id": "7909200001", "name": "USPS COLLECTION BOX - PO LOBBY", "address": {"city": "VEGA", "state": "TX", "street": "222 N MAIN ST", "postcode": "79092"}}},
{"geometry": {"type": "Point", "coordinates": [-100.2140570716, 34.8540713573]}, "type": "Feature", "properties": {"collection_times": [{"days": "Mon-Fri", "time": "3:45pm"}, {"days": "Sat", "time": "12:00pm"}, {"days": "Sun", "time": "Closed"}], "id": "7909500001", "name": "USPS COLLECTION BOX - BLUE BOX", "address": {"city": "WELLINGTON", "state": "TX", "street": "1000 WEST AVE", "postcode": "79095"}}},
{"geometry": {"type": "Point", "coordinates": [-100.2140570716, 34.8540713573]}, "type": "Feature", "properties": {"collection_times": [{"days": "Mon-Fri", "time": "3:45pm"}, {"days": "Sat", "time": "12:00pm"}, {"days": "Sun", "time": "Closed"}], "id": "7909500003", "name": "USPS COLLECTION BOX - PO LOBBY", "address": {"city": "WELLINGTON", "state": "TX", "street": "1000 WEST AVE", "postcode": "79095"}}},
{"geometry": {"type": "Point", "coordinates": [-100.2747425164, 35.4439765381]}, "type": "Feature", "properties": {"collection_times": [{"days": "Mon-Fri", "time": "3:15pm"}, {"days": "Sat", "time": "10:30am"}, {"days": "Sun", "time": "Closed"}], "id": "7909600001", "name": "USPS COLLECTION BOX - BLUE BOX", "address": {"city": "WHEELER", "state": "TX", "street": "507 S CANADIAN ST", "postcode": "79096"}}},
{"geometry": {"type": "Point", "coordinates": [-100.2747425164, 35.4439765381]}, "type": "Feature", "properties": {"collection_times": [{"days": "Mon-Fri", "time": "3:15pm"}, {"days": "Sat", "time": "10:30am"}, {"days": "Sun", "time": "Closed"}], "id": "7909600002", "name": "USPS COLLECTION BOX - PO LOBBY", "address": {"city": "WHEELER", "state": "TX", "street": "507 S CANADIAN ST", "postcode": "79096"}}},
{"geometry": {"type": "Point", "coordinates": [-101.1975173766, 35.4214824145]}, "type": "Feature", "properties": {"collection_times": [{"days": "Mon-Fri", "time": "4:00pm"}, {"days": "Sat", "time": "9:30am"}, {"days": "Sun", "time": "Closed"}], "id": "7909700000", "name": "USPS COLLECTION BOX - BLUE BOX", "address": {"city": "WHITE DEER", "state": "TX", "street": "110 E 3RD ST", "postcode": "79097"}}},
{"geometry": {"type": "Point", "coordinates": [-101.1975173766, 35.4214824145]}, "type": "Feature", "properties": {"collection_times": [{"days": "Mon-Fri", "time": "4:00pm"}, {"days": "Sat-Sun", "time": "Closed"}], "id": "7909700001", "name": "USPS COLLECTION BOX - PO LOBBY", "address": {"city": "WHITE DEER", "state": "TX", "street": "110 E 3RD ST", "postcode": "79097"}}},
{"geometry": {"type": "Point", "coordinates": [-102.2019910122, 35.2077814503]}, "type": "Feature", "properties": {"collection_times": [{"days": "Mon-Fri", "time": "12:00pm"}, {"days": "Sat", "time": "8:00am"}, {"days": "Sun", "time": "Closed"}], "id": "7909800000", "name": "USPS COLLECTION BOX - PO LOBBY", "address": {"city": "WILDORADO", "state": "TX", "street": "306 N LOCUST ST", "postcode": "79098"}}}
]}
