{"type": "FeatureCollection", "features": [
{"geometry": {"type": "Point", "coordinates": [-101.8427457326, 35.2052015413]}, "type": "Feature", "properties": {"collection_times": [{"days": "Mon-Fri", "time": "4:45pm"}, {"days": "Sat-Sun", "time": "Closed"}], "id": "7910100001", "name": "USPS COLLECTION BOX - PO LOBBY", "address": {"city": "AMARILLO", "state": "TX", "street": "505 E 9TH AVE", "postcode": "79101"}}},
{"geometry": {"type": "Point", "coordinates": [-101.8427457326, 35.2052015413]}, "type": "Feature", "properties": {"collection_times": [{"days": "Mon-Fri", "time": "4:45pm"}, {"days": "Sat-Sun", "time": "Closed"}], "id": "7910100002", "name": "USPS COLLECTION BOX - PO LOBBY", "address": {"city": "AMARILLO", "state": "TX", "street": "505 E 9TH AVE", "postcode": "79101"}}},
{"geometry": {"type": "Point", "coordinates": [-101.8324525852, 35.2038823291]}, "type": "Feature", "properties": {"collection_times": [{"days": "Mon-Fri", "time": "5:00pm"}, {"days": "Sat", "time": "2:45pm"}, {"days": "Sun", "time": "Closed"}], "id": "7910100003", "name": "USPS COLLECTION BOX - BLUE BOX", "address": {"city": "AMARILLO", "state": "TX", "street": "505 E 9TH AVE", "postcode": "79101"}}},
{"geometry": {"type": "Point", "coordinates": [-101.8324525852, 35.2038823291]}, "type": "Feature", "properties": {"collection_times": [{"days": "Mon-Fri", "time": "5:00pm"}, {"days": "Sat", "time": "2:45pm"}, {"days": "Sun", "time": "Closed"}], "id": "7910100004", "name": "USPS COLLECTION BOX - BLUE BOX", "address": {"city": "AMARILLO", "state": "TX", "street": "505 E 9TH AVE", "postcode": "79101"}}},
{"geometry": {"type": "Point", "coordinates": [-101.8406776643, 35.2050240365]}, "type": "Feature", "properties": {"collection_times": [{"days": "Mon-Fri", "time": "4:45pm"}, {"days": "Sat", "time": "2:45pm"}, {"days": "Sun", "time": "Closed"}], "id": "7910100006", "name": "USPS COLLECTION BOX - EXPRESS", "address": {"city": "AMARILLO", "state": "TX", "street": "505 E 9TH AVE", "postcode": "79101"}}},
{"geometry": {"type": "Point", "coordinates": [-101.8342326514, 35.2083171476]}, "type": "Feature", "properties": {"collection_times": [{"days": "Mon-Fri", "time": "3:45pm"}, {"days": "Sat-Sun", "time": "Closed"}], "id": "7910100011", "name": "USPS COLLECTION BOX - BLUE BOX", "address": {"city": "AMARILLO", "state": "TX", "street": "501 S FILLMORE ST", "postcode": "79101"}}},
{"geometry": {"type": "Point", "coordinates": [-101.8400257411, 35.1993504177]}, "type": "Feature", "properties": {"collection_times": [{"days": "Mon-Fri", "time": "4:00pm"}, {"days": "Sat", "time": "2:45pm"}, {"days": "Sun", "time": "Closed"}], "id": "7910100015", "name": "USPS COLLECTION BOX - BLUE BOX", "address": {"city": "AMARILLO", "state": "TX", "street": "1422 S TYLER ST", "postcode": "79101"}}},
{"geometry": {"type": "Point", "coordinates": [-101.8379100648, 35.2035274278]}, "type": "Feature", "properties": {"collection_times": [{"days": "Mon-Fri", "time": "2:30pm"}, {"days": "Sat-Sun", "time": "Closed"}], "id": "7910100016", "name": "USPS COLLECTION BOX - BLUE BOX", "address": {"city": "AMARILLO", "state": "TX", "street": "1000 S POLK ST", "postcode": "79101"}}},
{"geometry": {"type": "Point", "coordinates": [-101.8341836168, 35.2092775368]}, "type": "Feature", "properties": {"collection_times": [{"days": "Mon-Fri", "time": "3:45pm"}, {"days": "Sat", "time": "2:30pm"}, {"days": "Sun", "time": "Closed"}], "id": "7910100032", "name": "USPS COLLECTION BOX - BLUE BOX", "address": {"city": "AMARILLO", "state": "TX", "street": "410 S FILLMORE ST", "postcode": "79101"}}},
{"geometry": {"type": "Point", "coordinates": [-101.8353645498, 35.209535245]}, "type": "Feature", "properties": {"collection_times": [{"days": "Mon-Fri", "time": "3:45pm"}, {"days": "Sat", "time": "2:30pm"}, {"days": "Sun", "time": "Closed"}], "id": "7910100036", "name": "USPS COLLECTION BOX - BLUE BOX", "address": {"city": "AMARILLO", "state": "TX", "street": "401 S TAYLOR ST", "postcode": "79101"}}},
{"geometry": {"type": "Point", "coordinates": [-101.8353645498, 35.209535245]}, "type": "Feature", "properties": {"collection_times": [{"days": "Mon-Fri", "time": "3:45pm"}, {"days": "Sat", "time": "2:30pm"}, {"days": "Sun", "time": "Closed"}], "id": "7910100037", "name": "USPS COLLECTION BOX - BLUE BOX", "address": {"city": "AMARILLO", "state": "TX", "street": "401 S TAYLOR ST", "postcode": "79101"}}},
{"geometry": {"type": "Point", "coordinates": [-101.8529452508, 35.2077422059]}, "type": "Feature", "properties": {"collection_times": [{"days": "Mon-Fri", "time": "2:45pm"}, {"days": "Sat", "time": "3:00pm"}, {"days": "Sun", "time": "Closed"}], "id": "7910100049", "name": "USPS COLLECTION BOX - BLUE BOX", "address": {"city": "AMARILLO", "state": "TX", "street": "1400 W 8TH AVE", "postcode": "79101"}}},
{"geometry": {"type": "Point", "coordinates": [-101.8365057363, 35.2105399457]}, "type": "Feature", "properties": {"collection_times": [{"days": "Mon-Fri", "time": "2:15pm"}, {"days": "Sat", "time": "2:30pm"}, {"days": "Sun", "time": "Closed"}], "id": "7910100050", "name": "USPS COLLECTION BOX - BLUE BOX", "address": {"city": "AMARILLO", "state": "TX", "street": "320 S POLK ST", "postcode": "79101"}}},
{"geometry": {"type": "Point", "coordinates": [-101.838356351, 35.2078088599]}, "type": "Feature", "properties": {"collection_times": [{"days": "Mon-Fri", "time": "4:00pm"}, {"days": "Sat-Sun", "time": "Closed"}], "id": "7910100053", "name": "USPS COLLECTION BOX - BLUE BOX", "address": {"city": "AMARILLO", "state": "TX", "street": "600 S TYLER ST", "postcode": "79101"}}},
{"geometry": {"type": "Point", "coordinates": [-101.838356351, 35.2078088599]}, "type": "Feature", "properties": {"collection_times": [{"days": "Mon-Fri", "time": "4:00pm"}, {"days": "Sat-Sun", "time": "Closed"}], "id": "7910100054", "name": "USPS COLLECTION BOX - BLUE BOX", "address": {"city": "AMARILLO", "state": "TX", "street": "600 S TYLER ST", "postcode": "79101"}}},
{"geometry": {"type": "Point", "coordinates": [-101.8663282803, 35.2020124647]}, "type": "Feature", "properties": {"collection_times": [{"days": "Mon-Sat", "time": "3:00pm"}, {"days": "Sun", "time": "Closed"}], "id": "7910200003", "name": "USPS COLLECTION BOX - BLUE BOX", "address": {"city": "AMARILLO", "state": "TX", "street": "1220 S GEORGIA ST", "postcode": "79102"}}},
{"geometry": {"type": "Point", "coordinates": [-101.8486562153, 35.1955982863]}, "type": "Feature", "properties": {"collection_times": [{"days": "Mon-Fri", "time": "2:45pm"}, {"days": "Sat-Sun", "time": "Closed"}], "id": "7910200004", "name": "USPS COLLECTION BOX - BLUE BOX", "address": {"city": "AMARILLO", "state": "TX", "street": "1800 S WASHINGTON ST", "postcode": "79102"}}},
{"geometry": {"type": "Point", "coordinates": [-101.8695786436, 35.1972385764]}, "type": "Feature", "properties": {"collection_times": [{"days": "Mon-Fri", "time": "3:00pm"}, {"days": "Sat-Sun", "time": "Closed"}], "id": "7910200011", "name": "USPS COLLECTION BOX - BLUE BOX", "address": {"city": "AMARILLO", "state": "TX", "street": "1616 S KENTUCKY ST", "postcode": "79102"}}},
{"geometry": {"type": "Point", "coordinates": [-101.8083986185, 35.1855931719]}, "type": "Feature", "properties": {"collection_times": [{"days": "Mon-Fri", "time": "3:00pm"}, {"days": "Sat", "time": "6:00pm"}, {"days": "Sun", "time": "Closed"}], "id": "7910300002", "name": "USPS COLLECTION BOX - EXPRESS", "address": {"city": "AMARILLO", "state": "TX", "street": "2301 ROSS ST", "postcode": "79103"}}},
{"geometry": {"type": "Point", "coordinates": [-101.81710722, 35.1890227396]}, "type": "Feature", "properties": {"collection_times": [{"days": "Mon-Fri", "time": "7:00pm"}, {"days": "Sat", "time": "6:00pm"}, {"days": "Sun", "time": "Closed"}], "id": "7910300004", "name": "USPS COLLECTION BOX - BLUE BOX", "address": {"city": "AMARILLO", "state": "TX", "street": "2301 ROSS ST", "postcode": "79103"}}},
{"geometry": {"type": "Point", "coordinates": [-101.81710722, 35.1890227396]}, "type": "Feature", "properties": {"collection_times": [{"days": "Mon-Fri", "time": "7:00pm"}, {"days": "Sat", "time": "6:00pm"}, {"days": "Sun", "time": "Closed"}], "id": "7910300006", "name": "USPS COLLECTION BOX - PO LOBBY", "address": {"city": "AMARILLO", "state": "TX", "street": "2301 ROSS ST", "postcode": "79103"}}},
{"geometry": {"type": "Point", "coordinates": [-101.81710722, 35.1890227396]}, "type": "Feature", "properties": {"collection_times": [{"days": "Mon-Fri", "time": "7:00pm"}, {"days": "Sat", "time": "6:00pm"}, {"days": "Sun", "time": "Closed"}], "id": "7910300007", "name": "USPS COLLECTION BOX - PO LOBBY", "address": {"city": "AMARILLO", "state": "TX", "street": "2301 ROSS ST", "postcode": "79103"}}},
{"geometry": {"type": "Point", "coordinates": [-101.81710722, 35.1890227396]}, "type": "Feature", "properties": {"collection_times": [{"days": "Mon-Fri", "time": "7:00pm"}, {"days": "Sat", "time": "6:00pm"}, {"days": "Sun", "time": "Closed"}], "id": "7910300008", "name": "USPS COLLECTION BOX - PO LOBBY", "address": {"city": "AMARILLO", "state": "TX", "street": "2301 ROSS ST", "postcode": "79103"}}},
{"geometry": {"type": "Point", "coordinates": [-101.81710722, 35.1890227396]}, "type": "Feature", "properties": {"collection_times": [{"days": "Mon-Fri", "time": "7:00pm"}, {"days": "Sat", "time": "6:00pm"}, {"days": "Sun", "time": "Closed"}], "id": "7910300010", "name": "USPS COLLECTION BOX - APC", "address": {"city": "AMARILLO", "state": "TX", "street": "2301 ROSS ST", "postcode": "79103"}}},
{"geometry": {"type": "Point", "coordinates": [-101.8979064359, 35.2059989461]}, "type": "Feature", "properties": {"collection_times": [{"days": "Mon-Sat", "time": "10:45am"}, {"days": "Sun", "time": "Closed"}], "id": "7910600007", "name": "USPS COLLECTION BOX - BLUE BOX", "address": {"city": "AMARILLO", "state": "TX", "street": "5500 W 9TH AVE", "postcode": "79106"}}},
{"geometry": {"type": "Point", "coordinates": [-101.907892736, 35.2008993218]}, "type": "Feature", "properties": {"collection_times": [{"days": "Mon-Sat", "time": "9:45am"}, {"days": "Sun", "time": "Closed"}], "id": "7910600023", "name": "USPS COLLECTION BOX - BLUE BOX", "address": {"city": "AMARILLO", "state": "TX", "street": "6010 W AMARILLO BLVD", "postcode": "79106"}}},
{"geometry": {"type": "Point", "coordinates": [-101.9212639126, 35.1935959618]}, "type": "Feature", "properties": {"collection_times": [{"days": "Mon-Sat", "time": "11:00am"}, {"days": "Sun", "time": "Closed"}], "id": "7910600024", "name": "USPS COLLECTION BOX - BLUE BOX", "address": {"city": "AMARILLO", "state": "TX", "street": "1600 S COULTER ST", "postcode": "79106"}}},
{"geometry": {"type": "Point", "coordinates": [-101.9180545509, 35.1870744216]}, "type": "Feature", "properties": {"collection_times": [{"days": "Mon-Fri", "time": "4:30pm"}, {"days": "Sat", "time": "4:15pm"}, {"days": "Sun", "time": "Closed"}], "id": "7910600026", "name": "USPS COLLECTION BOX - BLUE BOX", "address": {"city": "AMARILLO", "state": "TX", "street": "7120 W INTERSTATE 40", "postcode": "79106"}}},
{"geometry": {"type": "Point", "coordinates": [-101.9180545509, 35.1870744216]}, "type": "Feature", "properties": {"collection_times": [{"days": "Mon-Fri", "time": "4:30pm"}, {"days": "Sat", "time": "4:15pm"}, {"days": "Sun", "time": "Closed"}], "id": "7910600027", "name": "USPS COLLECTION BOX - BLUE BOX", "address": {"city": "AMARILLO", "state": "TX", "street": "7120 W INTERSTATE 40", "postcode": "79106"}}},
{"geometry": {"type": "Point", "coordinates": [-101.8932509917, 35.1958256142]}, "type": "Feature", "properties": {"collection_times": [{"days": "Mon-Fri", "time": "3:45pm"}, {"days": "Sat", "time": "3:30pm"}, {"days": "Sun", "time": "Closed"}], "id": "7910600028", "name": "USPS COLLECTION BOX - BLUE BOX", "address": {"city": "AMARILLO", "state": "TX", "street": "1733 S AVONDALE ST", "postcode": "79106"}}},
{"geometry": {"type": "Point", "coordinates": [-101.8932863985, 35.1958185832]}, "type": "Feature", "properties": {"collection_times": [{"days": "Mon-Fri", "time": "3:45pm"}, {"days": "Sat", "time": "3:30pm"}, {"days": "Sun", "time": "Closed"}], "id": "7910600029", "name": "USPS COLLECTION BOX - BLUE BOX", "address": {"city": "AMARILLO", "state": "TX", "street": "1733 S AVONDALE ST", "postcode": "79106"}}},
{"geometry": {"type": "Point", "coordinates": [-101.9201913323, 35.1770948763]}, "type": "Feature", "properties": {"collection_times": [{"days": "Mon-Fri", "time": "3:00pm"}, {"days": "Sat", "time": "3:45pm"}, {"days": "Sun", "time": "Closed"}], "id": "7910600030", "name": "USPS COLLECTION BOX - BLUE BOX", "address": {"city": "AMARILLO", "state": "TX", "street": "3333 S COULTER ST", "postcode": "79106"}}},
{"geometry": {"type": "Point", "coordinates": [-101.8840369945, 35.2137999528]}, "type": "Feature", "properties": {"collection_times": [{"days": "Mon-Fri", "time": "4:00pm"}, {"days": "Sat", "time": "3:15pm"}, {"days": "Sun", "time": "Closed"}], "id": "7910600033", "name": "USPS COLLECTION BOX - BLUE BOX", "address": {"city": "AMARILLO", "state": "TX", "street": "307 S WESTERN ST", "postcode": "79106"}}},
{"geometry": {"type": "Point", "coordinates": [-101.8839827267, 35.2145146096]}, "type": "Feature", "properties": {"collection_times": [{"days": "Mon-Fri", "time": "4:00pm"}, {"days": "Sat-Sun", "time": "Closed"}], "id": "7910600037", "name": "USPS COLLECTION BOX - PO LOBBY", "address": {"city": "AMARILLO", "state": "TX", "street": "307 S WESTERN ST", "postcode": "79106"}}},
{"geometry": {"type": "Point", "coordinates": [-101.8839827267, 35.2145146096]}, "type": "Feature", "properties": {"collection_times": [{"days": "Mon-Fri", "time": "4:00pm"}, {"days": "Sat-Sun", "time": "Closed"}], "id": "7910600038", "name": "USPS COLLECTION BOX - PO LOBBY", "address": {"city": "AMARILLO", "state": "TX", "street": "307 S WESTERN ST", "postcode": "79106"}}},
{"geometry": {"type": "Point", "coordinates": [-101.9155277827, 35.1874074011]}, "type": "Feature", "properties": {"collection_times": [{"days": "Mon-Fri", "time": "4:15pm"}, {"days": "Sat-Sun", "time": "Closed"}], "id": "7910600039", "name": "USPS COLLECTION BOX - BLUE BOX", "address": {"city": "AMARILLO", "state": "TX", "street": "6900 W INTERSTATE 40", "postcode": "79106"}}},
{"geometry": {"type": "Point", "coordinates": [-101.9133506523, 35.1871105153]}, "type": "Feature", "properties": {"collection_times": [{"days": "Mon-Fri", "time": "3:15pm"}, {"days": "Sat", "time": "4:45pm"}, {"days": "Sun", "time": "Closed"}], "id": "7910600041", "name": "USPS COLLECTION BOX - BLUE BOX", "address": {"city": "AMARILLO", "state": "TX", "street": "7001 W INTERSTATE 40", "postcode": "79106"}}},
{"geometry": {"type": "Point", "coordinates": [-101.9024884335, 35.1883636225]}, "type": "Feature", "properties": {"collection_times": [{"days": "Mon-Fri", "time": "3:15pm"}, {"days": "Sat", "time": "4:00pm"}, {"days": "Sun", "time": "Closed"}], "id": "7910600042", "name": "USPS COLLECTION BOX - BLUE BOX", "address": {"city": "AMARILLO", "state": "TX", "street": "2200 BELL ST", "postcode": "79106"}}},
{"geometry": {"type": "Point", "coordinates": [-101.9024464738, 35.1779876877]}, "type": "Feature", "properties": {"collection_times": [{"days": "Mon-Fri", "time": "3:30pm"}, {"days": "Sat", "time": "4:15pm"}, {"days": "Sun", "time": "Closed"}], "id": "7910600043", "name": "USPS COLLECTION BOX - BLUE BOX", "address": {"city": "AMARILLO", "state": "TX", "street": "3318 BELL ST", "postcode": "79106"}}},
{"geometry": {"type": "Point", "coordinates": [-101.831300591, 35.2479468693]}, "type": "Feature", "properties": {"collection_times": [{"days": "Mon-Fri", "time": "2:00pm"}, {"days": "Sat", "time": "2:15pm"}, {"days": "Sun", "time": "Closed"}], "id": "7910700000", "name": "USPS COLLECTION BOX - BLUE BOX", "address": {"city": "AMARILLO", "state": "TX", "street": "3400 RIVER RD", "postcode": "79107"}}},
{"geometry": {"type": "Point", "coordinates": [-101.7990304521, 35.2364480296]}, "type": "Feature", "properties": {"collection_times": [{"days": "Mon-Fri", "time": "1:45pm"}, {"days": "Sat", "time": "2:15pm"}, {"days": "Sun", "time": "Closed"}], "id": "7910700004", "name": "USPS COLLECTION BOX - BLUE BOX", "address": {"city": "AMARILLO", "state": "TX", "street": "3400 NE 24TH AVE", "postcode": "79107"}}},
{"geometry": {"type": "Point", "coordinates": [-101.8121746813, 35.2224028723]}, "type": "Feature", "properties": {"collection_times": [{"days": "Mon-Fri", "time": "1:45pm"}, {"days": "Sat-Sun", "time": "Closed"}], "id": "7910700007", "name": "USPS COLLECTION BOX - PO LOBBY", "address": {"city": "AMARILLO", "state": "TX", "street": "841 MARTIN RD", "postcode": "79107"}}},
{"geometry": {"type": "Point", "coordinates": [-101.8121746813, 35.2224028723]}, "type": "Feature", "properties": {"collection_times": [{"days": "Mon-Fri", "time": "1:45pm"}, {"days": "Sat-Sun", "time": "Closed"}], "id": "7910700008", "name": "USPS COLLECTION BOX - PO LOBBY", "address": {"city": "AMARILLO", "state": "TX", "street": "841 MARTIN RD", "postcode": "79107"}}},
{"geometry": {"type": "Point", "coordinates": [-101.7706107972, 35.222067502]}, "type": "Feature", "properties": {"collection_times": [{"days": "Mon-Fri", "time": "1:45pm"}, {"days": "Sat", "time": "2:00pm"}, {"days": "Sun", "time": "Closed"}], "id": "7910700012", "name": "USPS COLLECTION BOX - BLUE BOX", "address": {"city": "AMARILLO", "state": "TX", "street": "5631 E AMARILLO BLVD", "postcode": "79107"}}},
{"geometry": {"type": "Point", "coordinates": [-101.8734312924, 35.1866858936]}, "type": "Feature", "properties": {"collection_times": [{"days": "Mon-Sat", "time": "3:45pm"}, {"days": "Sun", "time": "Closed"}], "id": "7910900001", "name": "USPS COLLECTION BOX - BLUE BOX", "address": {"city": "AMARILLO", "state": "TX", "street": "2518 PARAMOUNT BLVD", "postcode": "79109"}}},
{"geometry": {"type": "Point", "coordinates": [-101.8775620019, 35.1847741001]}, "type": "Feature", "properties": {"collection_times": [{"days": "Mon-Sat", "time": "3:45pm"}, {"days": "Sun", "time": "Closed"}], "id": "7910900003", "name": "USPS COLLECTION BOX - BLUE BOX", "address": {"city": "AMARILLO", "state": "TX", "street": "3416 OLSEN BLVD", "postcode": "79109"}}},
{"geometry": {"type": "Point", "coordinates": [-101.8785597724, 35.1847988182]}, "type": "Feature", "properties": {"collection_times": [{"days": "Mon-Sat", "time": "3:45pm"}, {"days": "Sun", "time": "Closed"}], "id": "7910900004", "name": "USPS COLLECTION BOX - BLUE BOX", "address": {"city": "AMARILLO", "state": "TX", "street": "3505 OLSEN BLVD", "postcode": "79109"}}},
{"geometry": {"type": "Point", "coordinates": [-101.8840440663, 35.1861311644]}, "type": "Feature", "properties": {"collection_times": [{"days": "Mon-Sat", "time": "4:00pm"}, {"days": "Sun", "time": "Closed"}], "id": "7910900012", "name": "USPS COLLECTION BOX - BLUE BOX", "address": {"city": "AMARILLO", "state": "TX", "street": "2700 S WESTERN ST", "postcode": "79109"}}},
{"geometry": {"type": "Point", "coordinates": [-101.8839136588, 35.1555196223]}, "type": "Feature", "properties": {"collection_times": [{"days": "Mon-Sat", "time": "5:00pm"}, {"days": "Sun", "time": "Closed"}], "id": "7910900036", "name": "USPS COLLECTION BOX - BLUE BOX", "address": {"city": "AMARILLO", "state": "TX", "street": "5000 S WESTERN ST", "postcode": "79109"}}},
{"geometry": {"type": "Point", "coordinates": [-101.8839247865, 35.1556764965]}, "type": "Feature", "properties": {"collection_times": [{"days": "Mon-Sat", "time": "4:45pm"}, {"days": "Sun", "time": "Closed"}], "id": "7910900037", "name": "USPS COLLECTION BOX - PO LOBBY", "address": {"city": "AMARILLO", "state": "TX", "street": "5000 S WESTERN ST", "postcode": "79109"}}},
{"geometry": {"type": "Point", "coordinates": [-101.8839247865, 35.1556764965]}, "type": "Feature", "properties": {"collection_times": [{"days": "Mon-Sat", "time": "4:45pm"}, {"days": "Sun", "time": "Closed"}], "id": "7910900038", "name": "USPS COLLECTION BOX - PO LOBBY", "address": {"city": "AMARILLO", "state": "TX", "street": "5000 S WESTERN ST", "postcode": "79109"}}},
{"geometry": {"type": "Point", "coordinates": [-101.8839136588, 35.1555196223]}, "type": "Feature", "properties": {"collection_times": [{"days": "Mon-Sat", "time": "5:00pm"}, {"days": "Sun", "time": "Closed"}], "id": "7910900041", "name": "USPS COLLECTION BOX - BLUE BOX", "address": {"city": "AMARILLO", "state": "TX", "street": "5000 S WESTERN ST", "postcode": "79109"}}},
{"geometry": {"type": "Point", "coordinates": [-101.9021316604, 35.1504152493]}, "type": "Feature", "properties": {"collection_times": [{"days": "Mon-Sat", "time": "4:30pm"}, {"days": "Sun", "time": "Closed"}], "id": "7910900043", "name": "USPS COLLECTION BOX - BLUE BOX", "address": {"city": "AMARILLO", "state": "TX", "street": "5410 BELL ST", "postcode": "79109"}}},
{"geometry": {"type": "Point", "coordinates": [-101.8835697478, 35.1783135845]}, "type": "Feature", "properties": {"collection_times": [{"days": "Mon-Sat", "time": "4:00pm"}, {"days": "Sun", "time": "Closed"}], "id": "7910900044", "name": "USPS COLLECTION BOX - BLUE BOX", "address": {"city": "AMARILLO", "state": "TX", "street": "4165 W 34TH AVE", "postcode": "79109"}}},
{"geometry": {"type": "Point", "coordinates": [-101.8661316915, 35.1710532538]}, "type": "Feature", "properties": {"collection_times": [{"days": "Mon-Sat", "time": "3:00pm"}, {"days": "Sun", "time": "Closed"}], "id": "7910900045", "name": "USPS COLLECTION BOX - BLUE BOX", "address": {"city": "AMARILLO", "state": "TX", "street": "4111 S GEORGIA ST", "postcode": "79109"}}},
{"geometry": {"type": "Point", "coordinates": [-101.8661316915, 35.1710532538]}, "type": "Feature", "properties": {"collection_times": [{"days": "Mon-Sat", "time": "3:00pm"}, {"days": "Sun", "time": "Closed"}], "id": "7910900046", "name": "USPS COLLECTION BOX - BLUE BOX", "address": {"city": "AMARILLO", "state": "TX", "street": "4111 S GEORGIA ST", "postcode": "79109"}}},
{"geometry": {"type": "Point", "coordinates": [-101.8839247865, 35.1556764965]}, "type": "Feature", "properties": {"collection_times": [{"days": "Mon-Sat", "time": "5:00pm"}, {"days": "Sun", "time": "Closed"}], "id": "7910900048", "name": "USPS COLLECTION BOX - APC", "address": {"city": "AMARILLO", "state": "TX", "street": "5000 S WESTERN ST", "postcode": "79109"}}},
{"geometry": {"type": "Point", "coordinates": [-101.848584562, 35.1651194055]}, "type": "Feature", "properties": {"collection_times": [{"days": "Mon-Sat", "time": "2:45pm"}, {"days": "Sun", "time": "Closed"}], "id": "7911000002", "name": "USPS COLLECTION BOX - BLUE BOX", "address": {"city": "AMARILLO", "state": "TX", "street": "4400 S WASHINGTON ST", "postcode": "79110"}}},
{"geometry": {"type": "Point", "coordinates": [-101.8837661539, 35.1488364268]}, "type": "Feature", "properties": {"collection_times": [{"days": "Mon-Sat", "time": "2:30pm"}, {"days": "Sun", "time": "Closed"}], "id": "7911000004", "name": "USPS COLLECTION BOX - BLUE BOX", "address": {"city": "AMARILLO", "state": "TX", "street": "5809 S WESTERN ST", "postcode": "79110"}}},
{"geometry": {"type": "Point", "coordinates": [-101.8836286083, 35.1428119342]}, "type": "Feature", "properties": {"collection_times": [{"days": "Mon-Fri", "time": "2:15pm"}, {"days": "Sat", "time": "2:30pm"}, {"days": "Sun", "time": "Closed"}], "id": "7911000007", "name": "USPS COLLECTION BOX - BLUE BOX", "address": {"city": "AMARILLO", "state": "TX", "street": "4178 BUSINESS PARK DR", "postcode": "79110"}}},
{"geometry": {"type": "Point", "coordinates": [-101.8662998552, 35.1633499231]}, "type": "Feature", "properties": {"collection_times": [{"days": "Mon-Fri", "time": "2:30pm"}, {"days": "Sat", "time": "2:45pm"}, {"days": "Sun", "time": "Closed"}], "id": "7911000008", "name": "USPS COLLECTION BOX - BLUE BOX", "address": {"city": "AMARILLO", "state": "TX", "street": "4515 S GEORGIA ST", "postcode": "79110"}}},
{"geometry": {"type": "Point", "coordinates": [-101.8202637765, 35.0913436408]}, "type": "Feature", "properties": {"collection_times": [{"days": "Mon-Sat", "time": "11:00am"}, {"days": "Sun", "time": "Closed"}], "id": "7911800005", "name": "USPS COLLECTION BOX - BLUE BOX", "address": {"city": "AMARILLO", "state": "TX", "street": "2210 E FM 1151", "postcode": "79118"}}},
{"geometry": {"type": "Point", "coordinates": [-101.8322657337, 35.0996924132]}, "type": "Feature", "properties": {"collection_times": [{"days": "Mon-Sat", "time": "10:00am"}, {"days": "Sun", "time": "Closed"}], "id": "7911800006", "name": "USPS COLLECTION BOX - EXPRESS", "address": {"city": "AMARILLO", "state": "TX", "street": "8500 E INTERSTATE 40", "postcode": "79118"}}},
{"geometry": {"type": "Point", "coordinates": [-101.7449477206, 35.19235986]}, "type": "Feature", "properties": {"collection_times": [{"days": "Mon-Sat", "time": "10:00am"}, {"days": "Sun", "time": "Closed"}], "id": "7911800007", "name": "USPS COLLECTION BOX - BLUE BOX", "address": {"city": "AMARILLO", "state": "TX", "street": "8500 E INTERSTATE 40", "postcode": "79118"}}},
{"geometry": {"type": "Point", "coordinates": [-101.8322657337, 35.0996924132]}, "type": "Feature", "properties": {"collection_times": [{"days": "Mon-Sat", "time": "1:00pm"}, {"days": "Sun", "time": "Closed"}], "id": "7911800008", "name": "USPS COLLECTION BOX - EXPRESS", "address": {"city": "AMARILLO", "state": "TX", "street": "9601 E INTERSTATE 40", "postcode": "79118"}}},
{"geometry": {"type": "Point", "coordinates": [-101.7224295791, 35.1932121962]}, "type": "Feature", "properties": {"collection_times": [{"days": "Mon-Sat", "time": "1:00pm"}, {"days": "Sun", "time": "Closed"}], "id": "7911800009", "name": "USPS COLLECTION BOX - BLUE BOX", "address": {"city": "AMARILLO", "state": "TX", "street": "9601 E INTERSTATE 40", "postcode": "79118"}}},
{"geometry": {"type": "Point", "coordinates": [-101.7449477206, 35.19235986]}, "type": "Feature", "properties": {"collection_times": [{"days": "Mon-Sat", "time": "10:00am"}, {"days": "Sun", "time": "Closed"}], "id": "7911800011", "name": "USPS COLLECTION BOX - BLUE BOX", "address": {"city": "AMARILLO", "state": "TX", "street": "8500 E INTERSTATE 40", "postcode": "79118"}}},
{"geometry": {"type": "Point", "coordinates": [-101.7600132281, 35.1922724281]}, "type": "Feature", "properties": {"collection_times": [{"days": "Mon-Sat", "time": "10:00am"}, {"days": "Sun", "time": "Closed"}], "id": "7911800014", "name": "USPS COLLECTION BOX - BLUE BOX", "address": {"city": "AMARILLO", "state": "TX", "street": "7000 E INTERSTATE 40", "postcode": "79118"}}},
{"geometry": {"type": "Point", "coordinates": [-101.7419005056, 35.202395305]}, "type": "Feature", "properties": {"collection_times": [{"days": "Mon-Sat", "time": "10:00am"}, {"days": "Sun", "time": "Closed"}], "id": "7911800015", "name": "USPS COLLECTION BOX - BLUE BOX", "address": {"city": "AMARILLO", "state": "TX", "street": "715 S LAKESIDE DR", "postcode": "79118"}}},
{"geometry": {"type": "Point", "coordinates": [-101.938085389, 35.1753591666]}, "type": "Feature", "properties": {"collection_times": [{"days": "Mon-Fri", "time": "2:45pm"}, {"days": "Sat-Sun", "time": "Closed"}], "id": "7911900000", "name": "USPS COLLECTION BOX - BLUE BOX", "address": {"city": "AMARILLO", "state": "TX", "street": "3501 S SONCY RD", "postcode": "79119"}}},
{"geometry": {"type": "Point", "coordinates": [-101.9355682816, 35.1841792355]}, "type": "Feature", "properties": {"collection_times": [{"days": "Mon-Fri", "time": "3:00pm"}, {"days": "Sat", "time": "4:30pm"}, {"days": "Sun", "time": "Closed"}], "id": "7912100001", "name": "USPS COLLECTION BOX - BLUE BOX", "address": {"city": "AMARILLO", "state": "TX", "street": "201 WESTGATE PKWY", "postcode": "79121"}}},
{"geometry": {"type": "Point", "coordinates": [-101.9075277289, 35.2154992533]}, "type": "Feature", "properties": {"collection_times": [{"days": "Mon-Sat", "time": "2:30pm"}, {"days": "Sun", "time": "Closed"}], "id": "7912400000", "name": "USPS COLLECTION BOX - BLUE BOX", "address": {"city": "AMARILLO", "state": "TX", "street": "421 TASCOSA RD", "postcode": "79124"}}},
{"geometry": {"type": "Point", "coordinates": [-101.935114819, 35.1913315884]}, "type": "Feature", "properties": {"collection_times": [{"days": "Mon-Fri", "time": "5:00pm"}, {"days": "Sat", "time": "4:30pm"}, {"days": "Sun", "time": "Closed"}], "id": "7912400001", "name": "USPS COLLECTION BOX - BLUE BOX", "address": {"city": "AMARILLO", "state": "TX", "street": "8301 W AMARILLO BLVD", "postcode": "79124"}}},
{"geometry": {"type": "Point", "coordinates": [-101.935114819, 35.1913315884]}, "type": "Feature", "properties": {"collection_times": [{"days": "Mon-Fri", "time": "5:00pm"}, {"days": "Sat", "time": "4:30pm"}, {"days": "Sun", "time": "Closed"}], "id": "7912400002", "name": "USPS COLLECTION BOX - BLUE BOX", "address": {"city": "AMARILLO", "state": "TX", "street": "8301 W AMARILLO BLVD", "postcode": "79124"}}},
{"geometry": {"type": "Point", "coordinates": [-101.9381969678, 35.2342224735]}, "type": "Feature", "properties": {"collection_times": [{"days": "Mon-Fri", "time": "5:00pm"}, {"days": "Sat", "time": "4:30pm"}, {"days": "Sun", "time": "Closed"}], "id": "7912400003", "name": "USPS COLLECTION BOX - EXPRESS", "address": {"city": "AMARILLO", "state": "TX", "street": "8301 W AMARILLO BLVD", "postcode": "79124"}}},
{"geometry": {"type": "Point", "coordinates": [-101.935114819, 35.1913315884]}, "type": "Feature", "properties": {"collection_times": [{"days": "Mon-Fri", "time": "5:00pm"}, {"days": "Sat", "time": "4:30pm"}, {"days": "Sun", "time": "Closed"}], "id": "7912400004", "name": "USPS COLLECTION BOX - PO LOBBY", "address": {"city": "AMARILLO", "state": "TX", "street": "8301 W AMARILLO BLVD", "postcode": "79124"}}},
{"geometry": {"type": "Point", "coordinates": [-101.935114819, 35.1913315884]}, "type": "Feature", "properties": {"collection_times": [{"days": "Mon-Fri", "time": "5:00pm"}, {"days": "Sat", "time": "4:30pm"}, {"days": "Sun", "time": "Closed"}], "id": "7912400005", "name": "USPS COLLECTION BOX - PO LOBBY", "address": {"city": "AMARILLO", "state": "TX", "street": "8301 W AMARILLO BLVD", "postcode": "79124"}}},
{"geometry": {"type": "Point", "coordinates": [-101.935114819, 35.1913315884]}, "type": "Feature", "properties": {"collection_times": [{"days": "Mon-Sat", "time": "5:15pm"}, {"days": "Sun", "time": "Closed"}], "id": "7912400006", "name": "USPS COLLECTION BOX - APC", "address": {"city": "AMARILLO", "state": "TX", "street": "8301 W AMARILLO BLVD", "postcode": "79124"}}},
{"geometry": {"type": "Point", "coordinates": [-102.054605181, 35.1907190939]}, "type": "Feature", "properties": {"collection_times": [{"days": "Mon-Sat", "time": "1:00pm"}, {"days": "Sun", "time": "Closed"}], "id": "7912400007", "name": "USPS COLLECTION BOX - BLUE BOX", "address": {"city": "AMARILLO", "state": "TX", "street": "14701 W INTERSTATE 40", "postcode": "79124"}}}
]}
