{"type": "FeatureCollection", "features": [
{"geometry": {"type": "Point", "coordinates": [-100.2089153995, 34.427968618]}, "type": "Feature", "properties": {"collection_times": [{"days": "Mon-Sat", "time": "5:00pm"}, {"days": "Sun", "time": "Closed"}], "id": "7920100000", "name": "USPS COLLECTION BOX - BLUE BOX", "address": {"city": "CHILDRESS", "state": "TX", "street": "507 AVENUE F NW", "postcode": "79201"}}},
{"geometry": {"type": "Point", "coordinates": [-100.2089153995, 34.427968618]}, "type": "Feature", "properties": {"collection_times": [{"days": "Mon-Sat", "time": "5:00pm"}, {"days": "Sun", "time": "Closed"}], "id": "7920100001", "name": "USPS COLLECTION BOX - BLUE BOX", "address": {"city": "CHILDRESS", "state": "TX", "street": "507 AVENUE F NW", "postcode": "79201"}}},
{"geometry": {"type": "Point", "coordinates": [-100.2089153995, 34.427968618]}, "type": "Feature", "properties": {"collection_times": [{"days": "Mon-Sat", "time": "5:00pm"}, {"days": "Sun", "time": "Closed"}], "id": "7920100013", "name": "USPS COLLECTION BOX - PO LOBBY", "address": {"city": "CHILDRESS", "state": "TX", "street": "507 AVENUE F NW", "postcode": "79201"}}},
{"geometry": {"type": "Point", "coordinates": [-100.2089153995, 34.427968618]}, "type": "Feature", "properties": {"collection_times": [{"days": "Mon-Sat", "time": "5:00pm"}, {"days": "Sun", "time": "Closed"}], "id": "7920100014", "name": "USPS COLLECTION BOX - PO LOBBY", "address": {"city": "CHILDRESS", "state": "TX", "street": "507 AVENUE F NW", "postcode": "79201"}}},
{"geometry": {"type": "Point", "coordinates": [-99.5385150242, 34.2416625401]}, "type": "Feature", "properties": {"collection_times": [{"days": "Mon-Fri", "time": "3:45pm"}, {"days": "Sat", "time": "8:00am"}, {"days": "Sun", "time": "Closed"}], "id": "7922500001", "name": "USPS COLLECTION BOX - BLUE BOX", "address": {"city": "CHILLICOTHE", "state": "TX", "street": "14125 US HIGHWAY 287 S", "postcode": "79225"}}},
{"geometry": {"type": "Point", "coordinates": [-99.5385150242, 34.2416625401]}, "type": "Feature", "properties": {"collection_times": [{"days": "Mon-Fri", "time": "3:45pm"}, {"days": "Sat-Sun", "time": "Closed"}], "id": "7922500002", "name": "USPS COLLECTION BOX - PO LOBBY", "address": {"city": "CHILLICOTHE", "state": "TX", "street": "14125 US HIGHWAY 287 S", "postcode": "79225"}}},
{"geometry": {"type": "Point", "coordinates": [-100.8662357768, 35.0030129216]}, "type": "Feature", "properties": {"collection_times": [{"days": "Mon-Fri", "time": "4:15pm"}, {"days": "Sat", "time": "9:00am"}, {"days": "Sun", "time": "Closed"}], "id": "7922600001", "name": "USPS COLLECTION BOX - BLUE BOX", "address": {"city": "CLARENDON", "state": "TX", "street": "101 W 4TH ST", "postcode": "79226"}}},
{"geometry": {"type": "Point", "coordinates": [-100.8662357768, 35.0030129216]}, "type": "Feature", "properties": {"collection_times": [{"days": "Mon-Fri", "time": "4:15pm"}, {"days": "Sat", "time": "9:00am"}, {"days": "Sun", "time": "Closed"}], "id": "7922600003", "name": "USPS COLLECTION BOX - PO LOBBY", "address": {"city": "CLARENDON", "state": "TX", "street": "101 W 4TH ST", "postcode": "79226"}}},
{"geometry": {"type": "Point", "coordinates": [-99.7779080282, 33.9745402039]}, "type": "Feature", "properties": {"collection_times": [{"days": "Mon-Sat", "time": "10:45am"}, {"days": "Sun", "time": "Closed"}], "id": "7922700000", "name": "USPS COLLECTION BOX - BLUE BOX", "address": {"city": "CROWELL", "state": "TX", "street": "100 N MAIN ST", "postcode": "79227"}}},
{"geometry": {"type": "Point", "coordinates": [-99.6602294138, 33.7626747096]}, "type": "Feature", "properties": {"collection_times": [{"days": "Mon-Fri", "time": "3:00pm"}, {"days": "Sat", "time": "8:45am"}, {"days": "Sun", "time": "Closed"}], "id": "7922700001", "name": "USPS COLLECTION BOX - BLUE BOX", "address": {"city": "CROWELL", "state": "TX", "street": "121 N MAIN ST", "postcode": "79227"}}},
{"geometry": {"type": "Point", "coordinates": [-99.6602294138, 33.7626747096]}, "type": "Feature", "properties": {"collection_times": [{"days": "Mon-Fri", "time": "3:45pm"}, {"days": "Sat", "time": "8:45am"}, {"days": "Sun", "time": "Closed"}], "id": "7922700003", "name": "USPS COLLECTION BOX - PO LOBBY", "address": {"city": "CROWELL", "state": "TX", "street": "121 N MAIN ST", "postcode": "79227"}}},
{"geometry": {"type": "Point", "coordinates": [-100.7253734675, 33.6378189643]}, "type": "Feature", "properties": {"collection_times": [{"days": "Mon-Fri", "time": "11:45am"}, {"days": "Sat", "time": "9:00am"}, {"days": "Sun", "time": "Closed"}], "id": "7922900000", "name": "USPS COLLECTION BOX - BLUE BOX", "address": {"city": "DICKENS", "state": "TX", "street": "921 5TH ST", "postcode": "79229"}}},
{"geometry": {"type": "Point", "coordinates": [-100.7253734675, 33.6378189643]}, "type": "Feature", "properties": {"collection_times": [{"days": "Mon-Fri", "time": "11:45am"}, {"days": "Sat-Sun", "time": "Closed"}], "id": "7922900001", "name": "USPS COLLECTION BOX - PO LOBBY", "address": {"city": "DICKENS", "state": "TX", "street": "921 5TH ST", "postcode": "79229"}}},
{"geometry": {"type": "Point", "coordinates": [-101.0922656229, 33.9418484868]}, "type": "Feature", "properties": {"collection_times": [{"days": "Mon-Fri", "time": "11:00am"}, {"days": "Sat", "time": "10:00am"}, {"days": "Sun", "time": "Closed"}], "id": "7923100000", "name": "USPS COLLECTION BOX - BLUE BOX", "address": {"city": "DOUGHERTY", "state": "TX", "street": "611 TEXAS AVE", "postcode": "79231"}}},
{"geometry": {"type": "Point", "coordinates": [-101.0922656229, 33.9418484868]}, "type": "Feature", "properties": {"collection_times": [{"days": "Mon-Fri", "time": "11:00am"}, {"days": "Sat", "time": "10:00am"}, {"days": "Sun", "time": "Closed"}], "id": "7923100001", "name": "USPS COLLECTION BOX - PO LOBBY", "address": {"city": "DOUGHERTY", "state": "TX", "street": "611 TEXAS AVE", "postcode": "79231"}}},
{"geometry": {"type": "Point", "coordinates": [-100.4404329033, 34.5470305829]}, "type": "Feature", "properties": {"collection_times": [{"days": "Mon-Fri", "time": "1:45pm"}, {"days": "Sat", "time": "8:45am"}, {"days": "Sun", "time": "Closed"}], "id": "7923300000", "name": "USPS COLLECTION BOX - BLUE BOX", "address": {"city": "ESTELLINE", "state": "TX", "street": "710 CLEVELAND ST", "postcode": "79233"}}},
{"geometry": {"type": "Point", "coordinates": [-100.4404329033, 34.5470305829]}, "type": "Feature", "properties": {"collection_times": [{"days": "Mon-Fri", "time": "1:45pm"}, {"days": "Sat", "time": "8:45am"}, {"days": "Sun", "time": "Closed"}], "id": "7923300001", "name": "USPS COLLECTION BOX - PO LOBBY", "address": {"city": "ESTELLINE", "state": "TX", "street": "710 CLEVELAND ST", "postcode": "79233"}}},
{"geometry": {"type": "Point", "coordinates": [-101.336842374, 33.9856022979]}, "type": "Feature", "properties": {"collection_times": [{"days": "Mon-Fri", "time": "4:30pm"}, {"days": "Sat", "time": "11:00am"}, {"days": "Sun", "time": "Closed"}], "id": "7923500002", "name": "USPS COLLECTION BOX - BLUE BOX", "address": {"city": "FLOYDADA", "state": "TX", "street": "226 W MISSOURI ST", "postcode": "79235"}}},
{"geometry": {"type": "Point", "coordinates": [-101.336842374, 33.9856022979]}, "type": "Feature", "properties": {"collection_times": [{"days": "Mon-Fri", "time": "4:30pm"}, {"days": "Sat", "time": "11:00am"}, {"days": "Sun", "time": "Closed"}], "id": "7923500004", "name": "USPS COLLECTION BOX - PO LOBBY", "address": {"city": "FLOYDADA", "state": "TX", "street": "226 W MISSOURI ST", "postcode": "79235"}}},
{"geometry": {"type": "Point", "coordinates": [-100.3231463889, 33.6206217825]}, "type": "Feature", "properties": {"collection_times": [{"days": "Mon-Fri", "time": "2:15pm"}, {"days": "Sat", "time": "11:45am"}, {"days": "Sun", "time": "Closed"}], "id": "7923600000", "name": "USPS COLLECTION BOX - BLUE BOX", "address": {"city": "GUTHRIE", "state": "TX", "street": "600 N HIGHWAY 83", "postcode": "79236"}}},
{"geometry": {"type": "Point", "coordinates": [-100.3231463889, 33.6206217825]}, "type": "Feature", "properties": {"collection_times": [{"days": "Mon-Fri", "time": "2:15pm"}, {"days": "Sat", "time": "11:45am"}, {"days": "Sun", "time": "Closed"}], "id": "7923600002", "name": "USPS COLLECTION BOX - PO LOBBY", "address": {"city": "GUTHRIE", "state": "TX", "street": "600 N HIGHWAY 83", "postcode": "79236"}}},
{"geometry": {"type": "Point", "coordinates": [-100.6599502132, 34.8678214366]}, "type": "Feature", "properties": {"collection_times": [{"days": "Mon-Fri", "time": "4:00pm"}, {"days": "Sat", "time": "8:30am"}, {"days": "Sun", "time": "Closed"}], "id": "7923700000", "name": "USPS COLLECTION BOX - BLUE BOX", "address": {"city": "HEDLEY", "state": "TX", "street": "200 MAIN ST", "postcode": "79237"}}},
{"geometry": {"type": "Point", "coordinates": [-100.6599502132, 34.8678214366]}, "type": "Feature", "properties": {"collection_times": [{"days": "Mon-Fri", "time": "4:00pm"}, {"days": "Sat", "time": "8:30am"}, {"days": "Sun", "time": "Closed"}], "id": "7923700002", "name": "USPS COLLECTION BOX - PO LOBBY", "address": {"city": "HEDLEY", "state": "TX", "street": "200 MAIN ST", "postcode": "79237"}}},
{"geometry": {"type": "Point", "coordinates": [-100.7027597128, 34.6743083289]}, "type": "Feature", "properties": {"collection_times": [{"days": "Mon-Fri", "time": "10:30am"}, {"days": "Sat", "time": "8:00am"}, {"days": "Sun", "time": "Closed"}], "id": "7923900000", "name": "USPS COLLECTION BOX - PO LOBBY", "address": {"city": "LAKEVIEW", "state": "TX", "street": "13406 HIGHWAY 256", "postcode": "79239"}}},
{"geometry": {"type": "Point", "coordinates": [-100.7027597128, 34.6743083289]}, "type": "Feature", "properties": {"collection_times": [{"days": "Mon-Fri", "time": "4:15pm"}, {"days": "Sat", "time": "8:00am"}, {"days": "Sun", "time": "Closed"}], "id": "7923900001", "name": "USPS COLLECTION BOX - BLUE BOX", "address": {"city": "LAKEVIEW", "state": "TX", "street": "13406 HIGHWAY 256", "postcode": "79239"}}},
{"geometry": {"type": "Point", "coordinates": [-101.4417045344, 34.1246083267]}, "type": "Feature", "properties": {"collection_times": [{"days": "Mon-Fri", "time": "4:30pm"}, {"days": "Sat", "time": "9:45am"}, {"days": "Sun", "time": "Closed"}], "id": "7924100000", "name": "USPS COLLECTION BOX - BLUE BOX", "address": {"city": "LOCKNEY", "state": "TX", "street": "107 N MAIN ST", "postcode": "79241"}}},
{"geometry": {"type": "Point", "coordinates": [-101.4417045344, 34.1246083267]}, "type": "Feature", "properties": {"collection_times": [{"days": "Mon-Fri", "time": "4:30pm"}, {"days": "Sat", "time": "9:45am"}, {"days": "Sun", "time": "Closed"}], "id": "7924100003", "name": "USPS COLLECTION BOX - PO LOBBY", "address": {"city": "LOCKNEY", "state": "TX", "street": "107 N MAIN ST", "postcode": "79241"}}},
{"geometry": {"type": "Point", "coordinates": [-100.9614709962, 33.776993381]}, "type": "Feature", "properties": {"collection_times": [{"days": "Mon-Fri", "time": "2:45pm"}, {"days": "Sat", "time": "9:45am"}, {"days": "Sun", "time": "Closed"}], "id": "7924300000", "name": "USPS COLLECTION BOX - BLUE BOX", "address": {"city": "MCADOO", "state": "TX", "street": "106 S MAIN", "postcode": "79243"}}},
{"geometry": {"type": "Point", "coordinates": [-100.9614709962, 33.776993381]}, "type": "Feature", "properties": {"collection_times": [{"days": "Mon-Fri", "time": "2:45pm"}, {"days": "Sat", "time": "9:45am"}, {"days": "Sun", "time": "Closed"}], "id": "7924300001", "name": "USPS COLLECTION BOX - PO LOBBY", "address": {"city": "MCADOO", "state": "TX", "street": "106 S MAIN", "postcode": "79243"}}},
{"geometry": {"type": "Point", "coordinates": [-100.775073948, 34.1219955016]}, "type": "Feature", "properties": {"collection_times": [{"days": "Mon-Fri", "time": "4:00pm"}, {"days": "Sat", "time": "8:45am"}, {"days": "Sun", "time": "Closed"}], "id": "7924400001", "name": "USPS COLLECTION BOX - PO LOBBY", "address": {"city": "MATADOR", "state": "TX", "street": "716 DUNDEE ST", "postcode": "79244"}}},
{"geometry": {"type": "Point", "coordinates": [-100.775073948, 34.1219955016]}, "type": "Feature", "properties": {"collection_times": [{"days": "Mon-Fri", "time": "4:00pm"}, {"days": "Sat", "time": "8:45am"}, {"days": "Sun", "time": "Closed"}], "id": "7924400002", "name": "USPS COLLECTION BOX - BLUE BOX", "address": {"city": "MATADOR", "state": "TX", "street": "716 DUNDEE ST", "postcode": "79244"}}},
{"geometry": {"type": "Point", "coordinates": [-100.5377508513, 34.7253041338]}, "type": "Feature", "properties": {"collection_times": [{"days": "Mon-Fri", "time": "4:45pm"}, {"days": "Sat", "time": "8:00am"}, {"days": "Sun", "time": "Closed"}], "id": "7924500000", "name": "USPS COLLECTION BOX - BLUE BOX", "address": {"city": "MEMPHIS", "state": "TX", "street": "700 W MAIN ST", "postcode": "79245"}}},
{"geometry": {"type": "Point", "coordinates": [-100.5377508513, 34.7253041338]}, "type": "Feature", "properties": {"collection_times": [{"days": "Mon-Fri", "time": "4:45pm"}, {"days": "Sat-Sun", "time": "Closed"}], "id": "7924500004", "name": "USPS COLLECTION BOX - PO LOBBY", "address": {"city": "MEMPHIS", "state": "TX", "street": "700 W MAIN ST", "postcode": "79245"}}},
{"geometry": {"type": "Point", "coordinates": [-100.5377508513, 34.7253041338]}, "type": "Feature", "properties": {"collection_times": [{"days": "Mon-Fri", "time": "4:45pm"}, {"days": "Sat", "time": "8:00am"}, {"days": "Sun", "time": "Closed"}], "id": "7924500005", "name": "USPS COLLECTION BOX - BLUE BOX", "address": {"city": "MEMPHIS", "state": "TX", "street": "700 W MAIN ST", "postcode": "79245"}}},
{"geometry": {"type": "Point", "coordinates": [-100.3031567066, 34.0152786632]}, "type": "Feature", "properties": {"collection_times": [{"days": "Mon-Fri", "time": "3:30pm"}, {"days": "Sat", "time": "8:00am"}, {"days": "Sun", "time": "Closed"}], "id": "7924800000", "name": "USPS COLLECTION BOX - BLUE BOX", "address": {"city": "PADUCAH", "state": "TX", "street": "718 10TH ST", "postcode": "79248"}}},
{"geometry": {"type": "Point", "coordinates": [-100.3031567066, 34.0152786632]}, "type": "Feature", "properties": {"collection_times": [{"days": "Mon-Fri", "time": "3:30pm"}, {"days": "Sat", "time": "8:00am"}, {"days": "Sun", "time": "Closed"}], "id": "7924800001", "name": "USPS COLLECTION BOX - PO LOBBY", "address": {"city": "PADUCAH", "state": "TX", "street": "718 10TH ST", "postcode": "79248"}}},
{"geometry": {"type": "Point", "coordinates": [-101.5967246313, 33.8704157191]}, "type": "Feature", "properties": {"collection_times": [{"days": "Mon-Fri", "time": "3:00pm"}, {"days": "Sat", "time": "10:30am"}, {"days": "Sun", "time": "Closed"}], "id": "7925000000", "name": "USPS COLLECTION BOX - BLUE BOX", "address": {"city": "PETERSBURG", "state": "TX", "street": "1501 E 1ST ST", "postcode": "79250"}}},
{"geometry": {"type": "Point", "coordinates": [-101.5967246313, 33.8704157191]}, "type": "Feature", "properties": {"collection_times": [{"days": "Mon-Fri", "time": "3:00pm"}, {"days": "Sat", "time": "10:30am"}, {"days": "Sun", "time": "Closed"}], "id": "7925000002", "name": "USPS COLLECTION BOX - PO LOBBY", "address": {"city": "PETERSBURG", "state": "TX", "street": "1501 E 1ST ST", "postcode": "79250"}}},
{"geometry": {"type": "Point", "coordinates": [-99.7409270571, 34.2979365505]}, "type": "Feature", "properties": {"collection_times": [{"days": "Mon-Fri", "time": "4:15pm"}, {"days": "Sat-Sun", "time": "Closed"}], "id": "7925200000", "name": "USPS COLLECTION BOX - PO LOBBY", "address": {"city": "QUANAH", "state": "TX", "street": "219 W 3RD ST", "postcode": "79252"}}},
{"geometry": {"type": "Point", "coordinates": [-99.7409270571, 34.2979365505]}, "type": "Feature", "properties": {"collection_times": [{"days": "Mon-Fri", "time": "4:15pm"}, {"days": "Sat-Sun", "time": "Closed"}], "id": "7925200003", "name": "USPS COLLECTION BOX - PO LOBBY", "address": {"city": "QUANAH", "state": "TX", "street": "219 W 3RD ST", "postcode": "79252"}}},
{"geometry": {"type": "Point", "coordinates": [-99.7419809698, 34.2971227895]}, "type": "Feature", "properties": {"collection_times": [{"days": "Mon-Fri", "time": "4:15pm"}, {"days": "Sat", "time": "8:00am"}, {"days": "Sun", "time": "Closed"}], "id": "7925200007", "name": "USPS COLLECTION BOX - BLUE BOX", "address": {"city": "QUANAH", "state": "TX", "street": "300 GREEN ST", "postcode": "79252"}}},
{"geometry": {"type": "Point", "coordinates": [-101.0583223234, 34.3660672509]}, "type": "Feature", "properties": {"collection_times": [{"days": "Mon-Fri", "time": "3:30pm"}, {"days": "Sat", "time": "8:00am"}, {"days": "Sun", "time": "Closed"}], "id": "7925500000", "name": "USPS COLLECTION BOX - BLUE BOX", "address": {"city": "QUITAQUE", "state": "TX", "street": "115 MAIN ST", "postcode": "79255"}}},
{"geometry": {"type": "Point", "coordinates": [-101.0583223234, 34.3660672509]}, "type": "Feature", "properties": {"collection_times": [{"days": "Mon-Fri", "time": "3:30pm"}, {"days": "Sat", "time": "8:00am"}, {"days": "Sun", "time": "Closed"}], "id": "7925500001", "name": "USPS COLLECTION BOX - PO LOBBY", "address": {"city": "QUITAQUE", "state": "TX", "street": "115 MAIN ST", "postcode": "79255"}}},
{"geometry": {"type": "Point", "coordinates": [-100.7707405537, 33.8859320718]}, "type": "Feature", "properties": {"collection_times": [{"days": "Mon-Fri", "time": "4:00pm"}, {"days": "Sat", "time": "8:45am"}, {"days": "Sun", "time": "Closed"}], "id": "7925600000", "name": "USPS COLLECTION BOX - BLUE BOX", "address": {"city": "ROARING SPRINGS", "state": "TX", "street": "403 2ND ST", "postcode": "79256"}}},
{"geometry": {"type": "Point", "coordinates": [-100.7707405537, 33.8859320718]}, "type": "Feature", "properties": {"collection_times": [{"days": "Mon-Fri", "time": "4:00pm"}, {"days": "Sat", "time": "8:45am"}, {"days": "Sun", "time": "Closed"}], "id": "7925600003", "name": "USPS COLLECTION BOX - PO LOBBY", "address": {"city": "ROARING SPRINGS", "state": "TX", "street": "403 2ND ST", "postcode": "79256"}}},
{"geometry": {"type": "Point", "coordinates": [-101.3012461805, 34.4741199925]}, "type": "Feature", "properties": {"collection_times": [{"days": "Mon-Fri", "time": "3:45pm"}, {"days": "Sat", "time": "8:45am"}, {"days": "Sun", "time": "Closed"}], "id": "7925700000", "name": "USPS COLLECTION BOX - BLUE BOX", "address": {"city": "SILVERTON", "state": "TX", "street": "401 LONE STAR ST", "postcode": "79257"}}},
{"geometry": {"type": "Point", "coordinates": [-101.3012461805, 34.4741199925]}, "type": "Feature", "properties": {"collection_times": [{"days": "Mon-Fri", "time": "3:45pm"}, {"days": "Sat", "time": "8:45am"}, {"days": "Sun", "time": "Closed"}], "id": "7925700001", "name": "USPS COLLECTION BOX - PO LOBBY", "address": {"city": "SILVERTON", "state": "TX", "street": "401 LONE STAR ST", "postcode": "79257"}}},
{"geometry": {"type": "Point", "coordinates": [-101.3090662414, 34.2267417032]}, "type": "Feature", "properties": {"collection_times": [{"days": "Mon-Fri", "time": "11:45am"}, {"days": "Sat", "time": "10:15am"}, {"days": "Sun", "time": "Closed"}], "id": "7925800000", "name": "USPS COLLECTION BOX - BLUE BOX", "address": {"city": "SOUTH PLAINS", "state": "TX", "street": "323 MAIN ST", "postcode": "79258"}}},
{"geometry": {"type": "Point", "coordinates": [-101.3103390729, 34.2276820156]}, "type": "Feature", "properties": {"collection_times": [{"days": "Mon-Fri", "time": "11:45am"}, {"days": "Sat", "time": "10:15am"}, {"days": "Sun", "time": "Closed"}], "id": "7925800001", "name": "USPS COLLECTION BOX - PO LOBBY", "address": {"city": "SOUTH PLAINS", "state": "TX", "street": "100 N HIGHWAY 207", "postcode": "79258"}}},
{"geometry": {"type": "Point", "coordinates": [-100.4410786489, 34.3575900724]}, "type": "Feature", "properties": {"collection_times": [{"days": "Mon-Sat", "time": "9:45am"}, {"days": "Sun", "time": "Closed"}], "id": "7925900000", "name": "USPS COLLECTION BOX - BLUE BOX", "address": {"city": "TELL", "state": "TX", "street": "14900 FM 2042", "postcode": "79259"}}},
{"geometry": {"type": "Point", "coordinates": [-100.4410786489, 34.3575900724]}, "type": "Feature", "properties": {"collection_times": [{"days": "Mon-Sat", "time": "9:45am"}, {"days": "Sun", "time": "Closed"}], "id": "7925900001", "name": "USPS COLLECTION BOX - PO LOBBY", "address": {"city": "TELL", "state": "TX", "street": "14900 FM 2042", "postcode": "79259"}}},
{"geometry": {"type": "Point", "coordinates": [-100.8944465059, 34.3928482364]}, "type": "Feature", "properties": {"collection_times": [{"days": "Mon-Fri", "time": "4:15pm"}, {"days": "Sat", "time": "9:30am"}, {"days": "Sun", "time": "Closed"}], "id": "7926100000", "name": "USPS COLLECTION BOX - BLUE BOX", "address": {"city": "TURKEY", "state": "TX", "street": "505 MAIN ST", "postcode": "79261"}}},
{"geometry": {"type": "Point", "coordinates": [-100.8944465059, 34.3928482364]}, "type": "Feature", "properties": {"collection_times": [{"days": "Mon-Fri", "time": "4:15pm"}, {"days": "Sat", "time": "9:30am"}, {"days": "Sun", "time": "Closed"}], "id": "7926100001", "name": "USPS COLLECTION BOX - PO LOBBY", "address": {"city": "TURKEY", "state": "TX", "street": "505 MAIN ST", "postcode": "79261"}}}
]}
