{"type": "FeatureCollection", "features": [
{"geometry": {"type": "Point", "coordinates": [-101.8431749524, 33.8313106991]}, "type": "Feature", "properties": {"collection_times": [{"days": "Mon-Fri", "time": "4:00pm"}, {"days": "Sat", "time": "1:30pm"}, {"days": "Sun", "time": "Closed"}], "id": "7931100001", "name": "USPS COLLECTION BOX - BLUE BOX", "address": {"city": "ABERNATHY", "state": "TX", "street": "801 AVENUE D", "postcode": "79311"}}},
{"geometry": {"type": "Point", "coordinates": [-101.8431749524, 33.8313106991]}, "type": "Feature", "properties": {"collection_times": [{"days": "Mon-Fri", "time": "4:00pm"}, {"days": "Sat", "time": "1:30pm"}, {"days": "Sun", "time": "Closed"}], "id": "7931100002", "name": "USPS COLLECTION BOX - PO LOBBY", "address": {"city": "ABERNATHY", "state": "TX", "street": "801 AVENUE D", "postcode": "79311"}}},
{"geometry": {"type": "Point", "coordinates": [-101.8431749524, 33.8313106991]}, "type": "Feature", "properties": {"collection_times": [{"days": "Mon-Fri", "time": "4:00pm"}, {"days": "Sat", "time": "1:30pm"}, {"days": "Sun", "time": "Closed"}], "id": "7931100003", "name": "USPS COLLECTION BOX - PO LOBBY", "address": {"city": "ABERNATHY", "state": "TX", "street": "801 AVENUE D", "postcode": "79311"}}},
{"geometry": {"type": "Point", "coordinates": [-102.4150423961, 34.0106949758]}, "type": "Feature", "properties": {"collection_times": [{"days": "Mon-Fri", "time": "4:00pm"}, {"days": "Sat", "time": "9:00am"}, {"days": "Sun", "time": "Closed"}], "id": "7931200000", "name": "USPS COLLECTION BOX - BLUE BOX", "address": {"city": "AMHERST", "state": "TX", "street": "815 MAIN ST", "postcode": "79312"}}},
{"geometry": {"type": "Point", "coordinates": [-102.4150423961, 34.0106949758]}, "type": "Feature", "properties": {"collection_times": [{"days": "Mon-Fri", "time": "4:00pm"}, {"days": "Sat", "time": "9:00am"}, {"days": "Sun", "time": "Closed"}], "id": "7931200002", "name": "USPS COLLECTION BOX - PO LOBBY", "address": {"city": "AMHERST", "state": "TX", "street": "815 MAIN ST", "postcode": "79312"}}},
{"geometry": {"type": "Point", "coordinates": [-102.1645418111, 33.8098769257]}, "type": "Feature", "properties": {"collection_times": [{"days": "Mon-Fri", "time": "2:45pm"}, {"days": "Sat", "time": "9:00am"}, {"days": "Sun", "time": "Closed"}], "id": "7931300000", "name": "USPS COLLECTION BOX - BLUE BOX", "address": {"city": "ANTON", "state": "TX", "street": "306 LAWRENCE ST", "postcode": "79313"}}},
{"geometry": {"type": "Point", "coordinates": [-102.1645418111, 33.8098769257]}, "type": "Feature", "properties": {"collection_times": [{"days": "Mon-Fri", "time": "2:45pm"}, {"days": "Sat", "time": "9:00am"}, {"days": "Sun", "time": "Closed"}], "id": "7931300002", "name": "USPS COLLECTION BOX - PO LOBBY", "address": {"city": "ANTON", "state": "TX", "street": "306 LAWRENCE ST", "postcode": "79313"}}},
{"geometry": {"type": "Point", "coordinates": [-103.0183087807, 33.6191981559]}, "type": "Feature", "properties": {"collection_times": [{"days": "Mon-Sat", "time": "10:00am"}, {"days": "Sun", "time": "Closed"}], "id": "7931400000", "name": "USPS COLLECTION BOX - BLUE BOX", "address": {"city": "BLEDSOE", "state": "TX", "street": "512 4TH ST", "postcode": "79314"}}},
{"geometry": {"type": "Point", "coordinates": [-103.0183087807, 33.6191981559]}, "type": "Feature", "properties": {"collection_times": [{"days": "Mon-Sat", "time": "10:00am"}, {"days": "Sun", "time": "Closed"}], "id": "7931400001", "name": "USPS COLLECTION BOX - PO LOBBY", "address": {"city": "BLEDSOE", "state": "TX", "street": "512 4TH ST", "postcode": "79314"}}},
{"geometry": {"type": "Point", "coordinates": [-102.2775054684, 33.1803428548]}, "type": "Feature", "properties": {"collection_times": [{"days": "Mon-Fri", "time": "4:30pm"}, {"days": "Sat", "time": "2:30pm"}, {"days": "Sun", "time": "Closed"}], "id": "7931600000", "name": "USPS COLLECTION BOX - BLUE BOX", "address": {"city": "BROWNFIELD", "state": "TX", "street": "301 W HILL ST", "postcode": "79316"}}},
{"geometry": {"type": "Point", "coordinates": [-102.2775054684, 33.1803428548]}, "type": "Feature", "properties": {"collection_times": [{"days": "Mon-Fri", "time": "4:30pm"}, {"days": "Sat", "time": "2:30pm"}, {"days": "Sun", "time": "Closed"}], "id": "7931600001", "name": "USPS COLLECTION BOX - BLUE BOX", "address": {"city": "BROWNFIELD", "state": "TX", "street": "301 W HILL ST", "postcode": "79316"}}},
{"geometry": {"type": "Point", "coordinates": [-102.2775054684, 33.1803428548]}, "type": "Feature", "properties": {"collection_times": [{"days": "Mon-Fri", "time": "4:30pm"}, {"days": "Sat", "time": "2:30pm"}, {"days": "Sun", "time": "Closed"}], "id": "7931600003", "name": "USPS COLLECTION BOX - PO LOBBY", "address": {"city": "BROWNFIELD", "state": "TX", "street": "301 W HILL ST", "postcode": "79316"}}},
{"geometry": {"type": "Point", "coordinates": [-102.2775054684, 33.1803428548]}, "type": "Feature", "properties": {"collection_times": [{"days": "Mon-Fri", "time": "4:30pm"}, {"days": "Sat", "time": "2:30pm"}, {"days": "Sun", "time": "Closed"}], "id": "7931600004", "name": "USPS COLLECTION BOX - PO LOBBY", "address": {"city": "BROWNFIELD", "state": "TX", "street": "301 W HILL ST", "postcode": "79316"}}},
{"geometry": {"type": "Point", "coordinates": [-102.2568358607, 33.1811676888]}, "type": "Feature", "properties": {"collection_times": [{"days": "Mon-Sat", "time": "9:30am"}, {"days": "Sun", "time": "Closed"}], "id": "7931600010", "name": "USPS COLLECTION BOX - BLUE BOX", "address": {"city": "BROWNFIELD", "state": "TX", "street": "1401 TAHOKA RD", "postcode": "79316"}}},
{"geometry": {"type": "Point", "coordinates": [-102.2775054684, 33.1803428548]}, "type": "Feature", "properties": {"collection_times": [{"days": "Mon-Fri", "time": "4:30pm"}, {"days": "Sat", "time": "2:30pm"}, {"days": "Sun", "time": "Closed"}], "id": "7931600011", "name": "USPS COLLECTION BOX - PO LOBBY", "address": {"city": "BROWNFIELD", "state": "TX", "street": "301 W HILL ST", "postcode": "79316"}}},
{"geometry": {"type": "Point", "coordinates": [-101.2393338572, 33.6601789558]}, "type": "Feature", "properties": {"collection_times": [{"days": "Mon-Fri", "time": "4:00pm"}, {"days": "Sat", "time": "9:30am"}, {"days": "Sun", "time": "Closed"}], "id": "7932200002", "name": "USPS COLLECTION BOX - PO LOBBY", "address": {"city": "CROSBYTON", "state": "TX", "street": "110 N BERKSHIRE ST", "postcode": "79322"}}},
{"geometry": {"type": "Point", "coordinates": [-101.2393338572, 33.6601789558]}, "type": "Feature", "properties": {"collection_times": [{"days": "Mon-Fri", "time": "4:00pm"}, {"days": "Sat", "time": "9:30am"}, {"days": "Sun", "time": "Closed"}], "id": "7932200005", "name": "USPS COLLECTION BOX - BLUE BOX", "address": {"city": "CROSBYTON", "state": "TX", "street": "110 N BERKSHIRE ST", "postcode": "79322"}}},
{"geometry": {"type": "Point", "coordinates": [-102.8291195013, 32.9678516449]}, "type": "Feature", "properties": {"collection_times": [{"days": "Mon-Fri", "time": "4:15pm"}, {"days": "Sat", "time": "3:15pm"}, {"days": "Sun", "time": "Closed"}], "id": "7932300000", "name": "USPS COLLECTION BOX - PO LOBBY", "address": {"city": "DENVER CITY", "state": "TX", "street": "107 E 4TH ST", "postcode": "79323"}}},
{"geometry": {"type": "Point", "coordinates": [-102.8291195013, 32.9678516449]}, "type": "Feature", "properties": {"collection_times": [{"days": "Mon-Fri", "time": "4:15pm"}, {"days": "Sat", "time": "3:15pm"}, {"days": "Sun", "time": "Closed"}], "id": "7932300001", "name": "USPS COLLECTION BOX - PO LOBBY", "address": {"city": "DENVER CITY", "state": "TX", "street": "107 E 4TH ST", "postcode": "79323"}}},
{"geometry": {"type": "Point", "coordinates": [-102.8291195013, 32.9678516449]}, "type": "Feature", "properties": {"collection_times": [{"days": "Mon-Fri", "time": "4:15pm"}, {"days": "Sat", "time": "3:15pm"}, {"days": "Sun", "time": "Closed"}], "id": "7932300002", "name": "USPS COLLECTION BOX - BLUE BOX", "address": {"city": "DENVER CITY", "state": "TX", "street": "107 E 4TH ST", "postcode": "79323"}}},
{"geometry": {"type": "Point", "coordinates": [-102.7603315905, 33.8732837474]}, "type": "Feature", "properties": {"collection_times": [{"days": "Mon-Fri", "time": "11:30am"}, {"days": "Sat", "time": "10:00am"}, {"days": "Sun", "time": "Closed"}], "id": "7932400000", "name": "USPS COLLECTION BOX - BLUE BOX", "address": {"city": "ENOCHS", "state": "TX", "street": "3010 STATE HIGHWAY 214", "postcode": "79324"}}},
{"geometry": {"type": "Point", "coordinates": [-102.7603315905, 33.8732837474]}, "type": "Feature", "properties": {"collection_times": [{"days": "Mon-Fri", "time": "11:30am"}, {"days": "Sat", "time": "10:00am"}, {"days": "Sun", "time": "Closed"}], "id": "7932400001", "name": "USPS COLLECTION BOX - PO LOBBY", "address": {"city": "ENOCHS", "state": "TX", "street": "3010 STATE HIGHWAY 214", "postcode": "79324"}}},
{"geometry": {"type": "Point", "coordinates": [-103.0391321386, 34.3884405634]}, "type": "Feature", "properties": {"collection_times": [{"days": "Mon-Fri", "time": "3:30pm"}, {"days": "Sat", "time": "7:00am"}, {"days": "Sun", "time": "Closed"}], "id": "7932500000", "name": "USPS COLLECTION BOX - BLUE BOX", "address": {"city": "FARWELL", "state": "TX", "street": "120 4TH ST", "postcode": "79325"}}},
{"geometry": {"type": "Point", "coordinates": [-103.0391321386, 34.3884405634]}, "type": "Feature", "properties": {"collection_times": [{"days": "Mon-Fri", "time": "3:30pm"}, {"days": "Sat", "time": "7:00am"}, {"days": "Sun", "time": "Closed"}], "id": "7932500001", "name": "USPS COLLECTION BOX - PO LOBBY", "address": {"city": "FARWELL", "state": "TX", "street": "120 4TH ST", "postcode": "79325"}}},
{"geometry": {"type": "Point", "coordinates": [-101.6805630768, 33.66442629]}, "type": "Feature", "properties": {"collection_times": [{"days": "Mon-Fri", "time": "4:00pm"}, {"days": "Sat", "time": "8:30am"}, {"days": "Sun", "time": "Closed"}], "id": "7932900001", "name": "USPS COLLECTION BOX - PO LOBBY", "address": {"city": "IDALOU", "state": "TX", "street": "311 MAIN ST", "postcode": "79329"}}},
{"geometry": {"type": "Point", "coordinates": [-101.6916779506, 33.6633949819]}, "type": "Feature", "properties": {"collection_times": [{"days": "Mon-Sat", "time": "12:00pm"}, {"days": "Sun", "time": "Closed"}], "id": "7932900004", "name": "USPS COLLECTION BOX - BLUE BOX", "address": {"city": "IDALOU", "state": "TX", "street": "902 FRONTAGE RD", "postcode": "79329"}}},
{"geometry": {"type": "Point", "coordinates": [-101.6805630768, 33.66442629]}, "type": "Feature", "properties": {"collection_times": [{"days": "Mon-Fri", "time": "4:00pm"}, {"days": "Sat", "time": "8:30am"}, {"days": "Sun", "time": "Closed"}], "id": "7932900005", "name": "USPS COLLECTION BOX - BLUE BOX", "address": {"city": "IDALOU", "state": "TX", "street": "311 MAIN ST", "postcode": "79329"}}},
{"geometry": {"type": "Point", "coordinates": [-101.9567901211, 32.7322081454]}, "type": "Feature", "properties": {"collection_times": [{"days": "Mon-Sat", "time": "4:30pm"}, {"days": "Sun", "time": "Closed"}], "id": "7933100007", "name": "USPS COLLECTION BOX - BLUE BOX", "address": {"city": "LAMESA", "state": "TX", "street": "202 N AVENUE G", "postcode": "79331"}}},
{"geometry": {"type": "Point", "coordinates": [-101.9567901211, 32.7322081454]}, "type": "Feature", "properties": {"collection_times": [{"days": "Mon-Sat", "time": "4:30pm"}, {"days": "Sun", "time": "Closed"}], "id": "7933100008", "name": "USPS COLLECTION BOX - BLUE BOX", "address": {"city": "LAMESA", "state": "TX", "street": "202 N AVENUE G", "postcode": "79331"}}},
{"geometry": {"type": "Point", "coordinates": [-101.9567901211, 32.7322081454]}, "type": "Feature", "properties": {"collection_times": [{"days": "Mon-Sat", "time": "4:30pm"}, {"days": "Sun", "time": "Closed"}], "id": "7933100009", "name": "USPS COLLECTION BOX - BLUE BOX", "address": {"city": "LAMESA", "state": "TX", "street": "202 N AVENUE G", "postcode": "79331"}}},
{"geometry": {"type": "Point", "coordinates": [-101.9567901211, 32.7322081454]}, "type": "Feature", "properties": {"collection_times": [{"days": "Mon-Sat", "time": "4:30pm"}, {"days": "Sun", "time": "Closed"}], "id": "7933100010", "name": "USPS COLLECTION BOX - PO LOBBY", "address": {"city": "LAMESA", "state": "TX", "street": "202 N AVENUE G", "postcode": "79331"}}},
{"geometry": {"type": "Point", "coordinates": [-101.9567901211, 32.7322081454]}, "type": "Feature", "properties": {"collection_times": [{"days": "Mon-Sat", "time": "4:30pm"}, {"days": "Sun", "time": "Closed"}], "id": "7933100013", "name": "USPS COLLECTION BOX - PO LOBBY", "address": {"city": "LAMESA", "state": "TX", "street": "202 N AVENUE G", "postcode": "79331"}}},
{"geometry": {"type": "Point", "coordinates": [-102.3765669536, 33.5862191466]}, "type": "Feature", "properties": {"collection_times": [{"days": "Mon-Fri", "time": "4:30pm"}, {"days": "Sat", "time": "4:15pm"}, {"days": "Sun", "time": "Closed"}], "id": "7933600010", "name": "USPS COLLECTION BOX - PO LOBBY", "address": {"city": "LEVELLAND", "state": "TX", "street": "712 AVENUE G", "postcode": "79336"}}},
{"geometry": {"type": "Point", "coordinates": [-102.3765669536, 33.5862191466]}, "type": "Feature", "properties": {"collection_times": [{"days": "Mon-Fri", "time": "4:30pm"}, {"days": "Sat", "time": "4:15pm"}, {"days": "Sun", "time": "Closed"}], "id": "7933600012", "name": "USPS COLLECTION BOX - BLUE BOX", "address": {"city": "LEVELLAND", "state": "TX", "street": "712 AVENUE G", "postcode": "79336"}}},
{"geometry": {"type": "Point", "coordinates": [-102.3765669536, 33.5862191466]}, "type": "Feature", "properties": {"collection_times": [{"days": "Mon-Fri", "time": "4:30pm"}, {"days": "Sat", "time": "4:15pm"}, {"days": "Sun", "time": "Closed"}], "id": "7933600013", "name": "USPS COLLECTION BOX - PO LOBBY", "address": {"city": "LEVELLAND", "state": "TX", "street": "712 AVENUE G", "postcode": "79336"}}},
{"geometry": {"type": "Point", "coordinates": [-102.3364941008, 33.9035514326]}, "type": "Feature", "properties": {"collection_times": [{"days": "Mon-Sat", "time": "1:30pm"}, {"days": "Sun", "time": "Closed"}], "id": "7933900002", "name": "USPS COLLECTION BOX - BLUE BOX", "address": {"city": "LITTLEFIELD", "state": "TX", "street": "2415 PHELPS AVE", "postcode": "79339"}}},
{"geometry": {"type": "Point", "coordinates": [-102.334501687, 33.91878253]}, "type": "Feature", "properties": {"collection_times": [{"days": "Mon-Fri", "time": "4:30pm"}, {"days": "Sat", "time": "2:30pm"}, {"days": "Sun", "time": "Closed"}], "id": "7933900008", "name": "USPS COLLECTION BOX - BLUE BOX", "address": {"city": "LITTLEFIELD", "state": "TX", "street": "801 PHELPS AVE", "postcode": "79339"}}},
{"geometry": {"type": "Point", "coordinates": [-102.334501687, 33.91878253]}, "type": "Feature", "properties": {"collection_times": [{"days": "Mon-Fri", "time": "4:30pm"}, {"days": "Sat", "time": "2:30pm"}, {"days": "Sun", "time": "Closed"}], "id": "7933900014", "name": "USPS COLLECTION BOX - PO LOBBY", "address": {"city": "LITTLEFIELD", "state": "TX", "street": "801 PHELPS AVE", "postcode": "79339"}}},
{"geometry": {"type": "Point", "coordinates": [-102.4044813486, 32.9066119576]}, "type": "Feature", "properties": {"collection_times": [{"days": "Mon-Sat", "time": "11:30am"}, {"days": "Sun", "time": "Closed"}], "id": "7934200000", "name": "USPS COLLECTION BOX - BLUE BOX", "address": {"city": "LOOP", "state": "TX", "street": "895 STATE HIGHWAY 83 E", "postcode": "79342"}}},
{"geometry": {"type": "Point", "coordinates": [-102.4044813486, 32.9066119576]}, "type": "Feature", "properties": {"collection_times": [{"days": "Mon-Sat", "time": "11:30am"}, {"days": "Sun", "time": "Closed"}], "id": "7934200002", "name": "USPS COLLECTION BOX - PO LOBBY", "address": {"city": "LOOP", "state": "TX", "street": "895 STATE HIGHWAY 83 E", "postcode": "79342"}}},
{"geometry": {"type": "Point", "coordinates": [-101.54474, 33.67213]}, "type": "Feature", "properties": {"collection_times": [{"days": "Mon-Fri", "time": "4:00pm"}, {"days": "Sat", "time": "9:00am"}, {"days": "Sun", "time": "Closed"}], "id": "7934300000", "name": "USPS COLLECTION BOX - PO LOBBY", "address": {"city": "LORENZO", "state": "TX", "street": "225 US HIGHWAY 82", "postcode": "79343"}}},
{"geometry": {"type": "Point", "coordinates": [-101.5447393397, 33.6721321661]}, "type": "Feature", "properties": {"collection_times": [{"days": "Mon-Fri", "time": "4:00pm"}, {"days": "Sat", "time": "9:00am"}, {"days": "Sun", "time": "Closed"}], "id": "7934300001", "name": "USPS COLLECTION BOX - BLUE BOX", "address": {"city": "LORENZO", "state": "TX", "street": "225 US HIGHWAY 82", "postcode": "79343"}}},
{"geometry": {"type": "Point", "coordinates": [-102.2059993087, 33.3406809289]}, "type": "Feature", "properties": {"collection_times": [{"days": "Mon-Fri", "time": "4:00pm"}, {"days": "Sat", "time": "9:00am"}, {"days": "Sun", "time": "Closed"}], "id": "7934500000", "name": "USPS COLLECTION BOX - BLUE BOX", "address": {"city": "MEADOW", "state": "TX", "street": "602 N RENFRO ST", "postcode": "79345"}}},
{"geometry": {"type": "Point", "coordinates": [-102.2059993087, 33.3406809289]}, "type": "Feature", "properties": {"collection_times": [{"days": "Mon-Fri", "time": "4:00pm"}, {"days": "Sat", "time": "9:00am"}, {"days": "Sun", "time": "Closed"}], "id": "7934500002", "name": "USPS COLLECTION BOX - PO LOBBY", "address": {"city": "MEADOW", "state": "TX", "street": "602 N RENFRO ST", "postcode": "79345"}}},
{"geometry": {"type": "Point", "coordinates": [-102.761001944, 33.724366788]}, "type": "Feature", "properties": {"collection_times": [{"days": "Mon-Fri", "time": "4:00pm"}, {"days": "Sat", "time": "12:00pm"}, {"days": "Sun", "time": "Closed"}], "id": "7934600001", "name": "USPS COLLECTION BOX - BLUE BOX", "address": {"city": "MORTON", "state": "TX", "street": "106 W TAYLOR AVE", "postcode": "79346"}}},
{"geometry": {"type": "Point", "coordinates": [-102.761001944, 33.724366788]}, "type": "Feature", "properties": {"collection_times": [{"days": "Mon-Fri", "time": "4:00pm"}, {"days": "Sat", "time": "12:00pm"}, {"days": "Sun", "time": "Closed"}], "id": "7934600003", "name": "USPS COLLECTION BOX - PO LOBBY", "address": {"city": "MORTON", "state": "TX", "street": "106 W TAYLOR AVE", "postcode": "79346"}}},
{"geometry": {"type": "Point", "coordinates": [-102.7226172017, 34.2239833911]}, "type": "Feature", "properties": {"collection_times": [{"days": "Mon-Fri", "time": "4:45pm"}, {"days": "Sat", "time": "2:45pm"}, {"days": "Sun", "time": "Closed"}], "id": "7934700000", "name": "USPS COLLECTION BOX - BLUE BOX", "address": {"city": "MULESHOE", "state": "TX", "street": "221 E 3RD ST", "postcode": "79347"}}},
{"geometry": {"type": "Point", "coordinates": [-102.7253964277, 34.2246187487]}, "type": "Feature", "properties": {"collection_times": [{"days": "Mon-Fri", "time": "3:30pm"}, {"days": "Sat", "time": "2:30pm"}, {"days": "Sun", "time": "Closed"}], "id": "7934700001", "name": "USPS COLLECTION BOX - BLUE BOX", "address": {"city": "MULESHOE", "state": "TX", "street": "300 S 1ST ST", "postcode": "79347"}}},
{"geometry": {"type": "Point", "coordinates": [-102.7226172017, 34.2239833911]}, "type": "Feature", "properties": {"collection_times": [{"days": "Mon-Fri", "time": "4:45pm"}, {"days": "Sat", "time": "2:45pm"}, {"days": "Sun", "time": "Closed"}], "id": "7934700002", "name": "USPS COLLECTION BOX - BLUE BOX", "address": {"city": "MULESHOE", "state": "TX", "street": "221 E 3RD ST", "postcode": "79347"}}},
{"geometry": {"type": "Point", "coordinates": [-102.7226172017, 34.2239833911]}, "type": "Feature", "properties": {"collection_times": [{"days": "Mon-Fri", "time": "4:45pm"}, {"days": "Sat", "time": "2:45pm"}, {"days": "Sun", "time": "Closed"}], "id": "7934700004", "name": "USPS COLLECTION BOX - PO LOBBY", "address": {"city": "MULESHOE", "state": "TX", "street": "221 E 3RD ST", "postcode": "79347"}}},
{"geometry": {"type": "Point", "coordinates": [-102.7226172017, 34.2239833911]}, "type": "Feature", "properties": {"collection_times": [{"days": "Mon-Fri", "time": "4:45pm"}, {"days": "Sat", "time": "2:45pm"}, {"days": "Sun", "time": "Closed"}], "id": "7934700005", "name": "USPS COLLECTION BOX - PO LOBBY", "address": {"city": "MULESHOE", "state": "TX", "street": "221 E 3RD ST", "postcode": "79347"}}},
{"geometry": {"type": "Point", "coordinates": [-101.8372542442, 33.737387578]}, "type": "Feature", "properties": {"collection_times": [{"days": "Mon-Fri", "time": "4:00pm"}, {"days": "Sat", "time": "10:30am"}, {"days": "Sun", "time": "Closed"}], "id": "7935000000", "name": "USPS COLLECTION BOX - PO LOBBY", "address": {"city": "NEW DEAL", "state": "TX", "street": "309 N MONROE ST", "postcode": "79350"}}},
{"geometry": {"type": "Point", "coordinates": [-101.8372542442, 33.737387578]}, "type": "Feature", "properties": {"collection_times": [{"days": "Mon-Fri", "time": "4:00pm"}, {"days": "Sat", "time": "10:30am"}, {"days": "Sun", "time": "Closed"}], "id": "7935000001", "name": "USPS COLLECTION BOX - BLUE BOX", "address": {"city": "NEW DEAL", "state": "TX", "street": "309 N MONROE ST", "postcode": "79350"}}},
{"geometry": {"type": "Point", "coordinates": [-101.8242187835, 32.972060535]}, "type": "Feature", "properties": {"collection_times": [{"days": "Mon-Fri", "time": "4:00pm"}, {"days": "Sat", "time": "9:00am"}, {"days": "Sun", "time": "Closed"}], "id": "7935100000", "name": "USPS COLLECTION BOX - BLUE BOX", "address": {"city": "ODONNELL", "state": "TX", "street": "819 DOAK ST", "postcode": "79351"}}},
{"geometry": {"type": "Point", "coordinates": [-101.832719859, 32.9588999743]}, "type": "Feature", "properties": {"collection_times": [{"days": "Mon-Fri", "time": "4:00pm"}, {"days": "Sat", "time": "9:00am"}, {"days": "Sun", "time": "Closed"}], "id": "7935100001", "name": "USPS COLLECTION BOX - PO LOBBY", "address": {"city": "ODONNELL", "state": "TX", "street": "809 DOAK ST", "postcode": "79351"}}},
{"geometry": {"type": "Point", "coordinates": [-102.5803830579, 33.795041613]}, "type": "Feature", "properties": {"collection_times": [{"days": "Mon-Fri", "time": "9:15am"}, {"days": "Sat", "time": "8:45am"}, {"days": "Sun", "time": "Closed"}], "id": "7935300000", "name": "USPS COLLECTION BOX - PO LOBBY", "address": {"city": "PEP", "state": "TX", "street": "4282 N STATE ROAD 303", "postcode": "79353"}}},
{"geometry": {"type": "Point", "coordinates": [-102.5591894989, 33.7796840873]}, "type": "Feature", "properties": {"collection_times": [{"days": "Mon-Fri", "time": "9:15am"}, {"days": "Sat", "time": "8:45am"}, {"days": "Sun", "time": "Closed"}], "id": "7935300001", "name": "USPS COLLECTION BOX - BLUE BOX", "address": {"city": "PEP", "state": "TX", "street": "4282 N STATE ROAD 303", "postcode": "79353"}}},
{"geometry": {"type": "Point", "coordinates": [-102.8303646937, 33.1877074775]}, "type": "Feature", "properties": {"collection_times": [{"days": "Mon-Fri", "time": "3:45pm"}, {"days": "Sat", "time": "10:30am"}, {"days": "Sun", "time": "Closed"}], "id": "7935500000", "name": "USPS COLLECTION BOX - PO LOBBY", "address": {"city": "PLAINS", "state": "TX", "street": "504 11TH ST", "postcode": "79355"}}},
{"geometry": {"type": "Point", "coordinates": [-102.8303646937, 33.1877074775]}, "type": "Feature", "properties": {"collection_times": [{"days": "Mon-Fri", "time": "3:45pm"}, {"days": "Sat", "time": "10:30am"}, {"days": "Sun", "time": "Closed"}], "id": "7935500001", "name": "USPS COLLECTION BOX - BLUE BOX", "address": {"city": "PLAINS", "state": "TX", "street": "504 11TH ST", "postcode": "79355"}}},
{"geometry": {"type": "Point", "coordinates": [-101.3796399107, 33.1910852206]}, "type": "Feature", "properties": {"collection_times": [{"days": "Mon-Fri", "time": "4:30pm"}, {"days": "Sat", "time": "2:00pm"}, {"days": "Sun", "time": "Closed"}], "id": "7935600001", "name": "USPS COLLECTION BOX - PO LOBBY", "address": {"city": "POST", "state": "TX", "street": "202 W MAIN ST", "postcode": "79356"}}},
{"geometry": {"type": "Point", "coordinates": [-101.3796399107, 33.1910852206]}, "type": "Feature", "properties": {"collection_times": [{"days": "Mon-Fri", "time": "4:30pm"}, {"days": "Sat", "time": "2:00pm"}, {"days": "Sun", "time": "Closed"}], "id": "7935600004", "name": "USPS COLLECTION BOX - BLUE BOX", "address": {"city": "POST", "state": "TX", "street": "202 W MAIN ST", "postcode": "79356"}}},
{"geometry": {"type": "Point", "coordinates": [-101.3796399107, 33.1910852206]}, "type": "Feature", "properties": {"collection_times": [{"days": "Mon-Fri", "time": "4:30pm"}, {"days": "Sat-Sun", "time": "Closed"}], "id": "7935600006", "name": "USPS COLLECTION BOX - PO LOBBY", "address": {"city": "POST", "state": "TX", "street": "202 W MAIN ST", "postcode": "79356"}}},
{"geometry": {"type": "Point", "coordinates": [-101.3863628932, 33.6798862487]}, "type": "Feature", "properties": {"collection_times": [{"days": "Mon-Fri", "time": "4:00pm"}, {"days": "Sat", "time": "9:30am"}, {"days": "Sun", "time": "Closed"}], "id": "7935700000", "name": "USPS COLLECTION BOX - BLUE BOX", "address": {"city": "RALLS", "state": "TX", "street": "620 TILFORD AVE", "postcode": "79357"}}},
{"geometry": {"type": "Point", "coordinates": [-101.3863628932, 33.6798862487]}, "type": "Feature", "properties": {"collection_times": [{"days": "Mon-Fri", "time": "4:00pm"}, {"days": "Sat", "time": "10:00am"}, {"days": "Sun", "time": "Closed"}], "id": "7935700002", "name": "USPS COLLECTION BOX - PO LOBBY", "address": {"city": "RALLS", "state": "TX", "street": "620 TILFORD AVE", "postcode": "79357"}}},
{"geometry": {"type": "Point", "coordinates": [-102.1592890739, 33.4091860273]}, "type": "Feature", "properties": {"collection_times": [{"days": "Mon-Fri", "time": "4:00pm"}, {"days": "Sat", "time": "9:15am"}, {"days": "Sun", "time": "Closed"}], "id": "7935800000", "name": "USPS COLLECTION BOX - BLUE BOX", "address": {"city": "ROPESVILLE", "state": "TX", "street": "403 TIMMONS AVE", "postcode": "79358"}}},
{"geometry": {"type": "Point", "coordinates": [-102.1656666957, 33.445283774]}, "type": "Feature", "properties": {"collection_times": [{"days": "Mon-Fri", "time": "11:15am"}, {"days": "Sat", "time": "9:15am"}, {"days": "Sun", "time": "Closed"}], "id": "7935800001", "name": "USPS COLLECTION BOX - PO LOBBY", "address": {"city": "ROPESVILLE", "state": "TX", "street": "403 TIMMONS AVE", "postcode": "79358"}}},
{"geometry": {"type": "Point", "coordinates": [-102.358356984, 32.7811268045]}, "type": "Feature", "properties": {"collection_times": [{"days": "Mon-Fri", "time": "4:00pm"}, {"days": "Sat", "time": "10:00am"}, {"days": "Sun", "time": "Closed"}], "id": "7935900000", "name": "USPS COLLECTION BOX - BLUE BOX", "address": {"city": "SEAGRAVES", "state": "TX", "street": "105 MAIN ST", "postcode": "79359"}}},
{"geometry": {"type": "Point", "coordinates": [-102.358356984, 32.7811268045]}, "type": "Feature", "properties": {"collection_times": [{"days": "Mon-Fri", "time": "4:00pm"}, {"days": "Sat", "time": "10:00am"}, {"days": "Sun", "time": "Closed"}], "id": "7935900001", "name": "USPS COLLECTION BOX - PO LOBBY", "address": {"city": "SEAGRAVES", "state": "TX", "street": "105 MAIN ST", "postcode": "79359"}}},
{"geometry": {"type": "Point", "coordinates": [-102.358356984, 32.7811268045]}, "type": "Feature", "properties": {"collection_times": [{"days": "Mon-Fri", "time": "4:00pm"}, {"days": "Sat", "time": "10:00am"}, {"days": "Sun", "time": "Closed"}], "id": "7935900002", "name": "USPS COLLECTION BOX - PO LOBBY", "address": {"city": "SEAGRAVES", "state": "TX", "street": "105 MAIN ST", "postcode": "79359"}}},
{"geometry": {"type": "Point", "coordinates": [-102.642504674, 32.7174598264]}, "type": "Feature", "properties": {"collection_times": [{"days": "Mon-Fri", "time": "4:00pm"}, {"days": "Sat", "time": "2:45pm"}, {"days": "Sun", "time": "Closed"}], "id": "7936000002", "name": "USPS COLLECTION BOX - BLUE BOX", "address": {"city": "SEMINOLE", "state": "TX", "street": "201 SE 3RD ST", "postcode": "79360"}}},
{"geometry": {"type": "Point", "coordinates": [-102.642504674, 32.7174598264]}, "type": "Feature", "properties": {"collection_times": [{"days": "Mon-Fri", "time": "4:00pm"}, {"days": "Sat", "time": "2:45pm"}, {"days": "Sun", "time": "Closed"}], "id": "7936000003", "name": "USPS COLLECTION BOX - BLUE BOX", "address": {"city": "SEMINOLE", "state": "TX", "street": "201 SE 3RD ST", "postcode": "79360"}}},
{"geometry": {"type": "Point", "coordinates": [-102.642504674, 32.7174598264]}, "type": "Feature", "properties": {"collection_times": [{"days": "Mon-Fri", "time": "4:15pm"}, {"days": "Sat", "time": "2:45pm"}, {"days": "Sun", "time": "Closed"}], "id": "7936000004", "name": "USPS COLLECTION BOX - PO LOBBY", "address": {"city": "SEMINOLE", "state": "TX", "street": "201 SE 3RD ST", "postcode": "79360"}}},
{"geometry": {"type": "Point", "coordinates": [-102.642504674, 32.7174598264]}, "type": "Feature", "properties": {"collection_times": [{"days": "Mon-Fri", "time": "4:15pm"}, {"days": "Sat", "time": "2:45pm"}, {"days": "Sun", "time": "Closed"}], "id": "7936000005", "name": "USPS COLLECTION BOX - PO LOBBY", "address": {"city": "SEMINOLE", "state": "TX", "street": "201 SE 3RD ST", "postcode": "79360"}}},
{"geometry": {"type": "Point", "coordinates": [-102.642504674, 32.7174598264]}, "type": "Feature", "properties": {"collection_times": [{"days": "Mon-Fri", "time": "4:15pm"}, {"days": "Sat", "time": "2:45pm"}, {"days": "Sun", "time": "Closed"}], "id": "7936000006", "name": "USPS COLLECTION BOX - PO LOBBY", "address": {"city": "SEMINOLE", "state": "TX", "street": "201 SE 3RD ST", "postcode": "79360"}}},
{"geometry": {"type": "Point", "coordinates": [-101.9837317351, 33.6772298736]}, "type": "Feature", "properties": {"collection_times": [{"days": "Mon-Fri", "time": "4:30pm"}, {"days": "Sat", "time": "11:00am"}, {"days": "Sun", "time": "Closed"}], "id": "7936300000", "name": "USPS COLLECTION BOX - BLUE BOX", "address": {"city": "SHALLOWATER", "state": "TX", "street": "105 CLOVIS RD", "postcode": "79363"}}},
{"geometry": {"type": "Point", "coordinates": [-101.9837317351, 33.6772298736]}, "type": "Feature", "properties": {"collection_times": [{"days": "Mon-Fri", "time": "4:30pm"}, {"days": "Sat", "time": "11:00am"}, {"days": "Sun", "time": "Closed"}], "id": "7936300002", "name": "USPS COLLECTION BOX - PO LOBBY", "address": {"city": "SHALLOWATER", "state": "TX", "street": "105 CLOVIS RD", "postcode": "79363"}}},
{"geometry": {"type": "Point", "coordinates": [-101.9837317351, 33.6772298736]}, "type": "Feature", "properties": {"collection_times": [{"days": "Mon-Fri", "time": "4:30pm"}, {"days": "Sat", "time": "11:00am"}, {"days": "Sun", "time": "Closed"}], "id": "7936300003", "name": "USPS COLLECTION BOX - BLUE BOX", "address": {"city": "SHALLOWATER", "state": "TX", "street": "105 CLOVIS RD", "postcode": "79363"}}},
{"geometry": {"type": "Point", "coordinates": [-101.6574443784, 33.4458082283]}, "type": "Feature", "properties": {"collection_times": [{"days": "Mon-Sat", "time": "12:00pm"}, {"days": "Sun", "time": "Closed"}], "id": "7936400002", "name": "USPS COLLECTION BOX - BLUE BOX", "address": {"city": "SLATON", "state": "TX", "street": "1055 N 20TH ST", "postcode": "79364"}}},
{"geometry": {"type": "Point", "coordinates": [-101.6444337145, 33.4390694355]}, "type": "Feature", "properties": {"collection_times": [{"days": "Mon-Fri", "time": "4:00pm"}, {"days": "Sat", "time": "3:00pm"}, {"days": "Sun", "time": "Closed"}], "id": "7936400006", "name": "USPS COLLECTION BOX - BLUE BOX", "address": {"city": "SLATON", "state": "TX", "street": "150 W LYNN ST", "postcode": "79364"}}},
{"geometry": {"type": "Point", "coordinates": [-101.6444337145, 33.4390694355]}, "type": "Feature", "properties": {"collection_times": [{"days": "Mon-Fri", "time": "4:00pm"}, {"days": "Sat", "time": "3:00pm"}, {"days": "Sun", "time": "Closed"}], "id": "7936400007", "name": "USPS COLLECTION BOX - BLUE BOX", "address": {"city": "SLATON", "state": "TX", "street": "150 W LYNN ST", "postcode": "79364"}}},
{"geometry": {"type": "Point", "coordinates": [-101.676863245, 33.4590685808]}, "type": "Feature", "properties": {"collection_times": [{"days": "Mon-Sat", "time": "10:15am"}, {"days": "Sun", "time": "Closed"}], "id": "7936400008", "name": "USPS COLLECTION BOX - BLUE BOX", "address": {"city": "SLATON", "state": "TX", "street": "24 LEE KITCHENS DR", "postcode": "79364"}}},
{"geometry": {"type": "Point", "coordinates": [-101.6444337145, 33.4390694355]}, "type": "Feature", "properties": {"collection_times": [{"days": "Mon-Fri", "time": "4:00pm"}, {"days": "Sat", "time": "3:00pm"}, {"days": "Sun", "time": "Closed"}], "id": "7936400009", "name": "USPS COLLECTION BOX - PO LOBBY", "address": {"city": "SLATON", "state": "TX", "street": "150 W LYNN ST", "postcode": "79364"}}},
{"geometry": {"type": "Point", "coordinates": [-101.6444337145, 33.4390694355]}, "type": "Feature", "properties": {"collection_times": [{"days": "Mon-Fri", "time": "4:00pm"}, {"days": "Sat", "time": "3:00pm"}, {"days": "Sun", "time": "Closed"}], "id": "7936400011", "name": "USPS COLLECTION BOX - PO LOBBY", "address": {"city": "SLATON", "state": "TX", "street": "150 W LYNN ST", "postcode": "79364"}}},
{"geometry": {"type": "Point", "coordinates": [-101.676863245, 33.4590685808]}, "type": "Feature", "properties": {"collection_times": [{"days": "Mon-Sat", "time": "10:00am"}, {"days": "Sun", "time": "Closed"}], "id": "7936400013", "name": "USPS COLLECTION BOX - BLUE BOX", "address": {"city": "SLATON", "state": "TX", "street": "8312 E FM 3523", "postcode": "79364"}}},
{"geometry": {"type": "Point", "coordinates": [-102.1644169882, 33.5841246571]}, "type": "Feature", "properties": {"collection_times": [{"days": "Mon-Fri", "time": "4:00pm"}, {"days": "Sat", "time": "10:00am"}, {"days": "Sun", "time": "Closed"}], "id": "7936700000", "name": "USPS COLLECTION BOX - PO LOBBY", "address": {"city": "SMYER", "state": "TX", "street": "1002 1ST ST", "postcode": "79367"}}},
{"geometry": {"type": "Point", "coordinates": [-102.1644169882, 33.5841246571]}, "type": "Feature", "properties": {"collection_times": [{"days": "Mon-Fri", "time": "4:00pm"}, {"days": "Sat", "time": "10:00am"}, {"days": "Sun", "time": "Closed"}], "id": "7936700002", "name": "USPS COLLECTION BOX - BLUE BOX", "address": {"city": "SMYER", "state": "TX", "street": "1002 1ST ST", "postcode": "79367"}}},
{"geometry": {"type": "Point", "coordinates": [-102.1500812674, 33.9255705529]}, "type": "Feature", "properties": {"collection_times": [{"days": "Mon-Sat", "time": "11:00am"}, {"days": "Sun", "time": "Closed"}], "id": "7936900000", "name": "USPS COLLECTION BOX - BLUE BOX", "address": {"city": "SPADE", "state": "TX", "street": "2756 FM 168", "postcode": "79369"}}},
{"geometry": {"type": "Point", "coordinates": [-102.1500812674, 33.9255705529]}, "type": "Feature", "properties": {"collection_times": [{"days": "Mon-Sat", "time": "11:00am"}, {"days": "Sun", "time": "Closed"}], "id": "7936900001", "name": "USPS COLLECTION BOX - PO LOBBY", "address": {"city": "SPADE", "state": "TX", "street": "2756 FM 168", "postcode": "79369"}}},
{"geometry": {"type": "Point", "coordinates": [-100.856872215, 33.4770381977]}, "type": "Feature", "properties": {"collection_times": [{"days": "Mon-Fri", "time": "3:30pm"}, {"days": "Sat", "time": "10:00am"}, {"days": "Sun", "time": "Closed"}], "id": "7937000002", "name": "USPS COLLECTION BOX - BLUE BOX", "address": {"city": "SPUR", "state": "TX", "street": "210 W HARRIS ST", "postcode": "79370"}}},
{"geometry": {"type": "Point", "coordinates": [-100.856872215, 33.4770381977]}, "type": "Feature", "properties": {"collection_times": [{"days": "Mon-Fri", "time": "3:30pm"}, {"days": "Sat", "time": "10:00am"}, {"days": "Sun", "time": "Closed"}], "id": "7937000004", "name": "USPS COLLECTION BOX - PO LOBBY", "address": {"city": "SPUR", "state": "TX", "street": "210 W HARRIS ST", "postcode": "79370"}}},
{"geometry": {"type": "Point", "coordinates": [-102.5362391798, 34.0636736467]}, "type": "Feature", "properties": {"collection_times": [{"days": "Mon-Fri", "time": "2:45pm"}, {"days": "Sat", "time": "9:30am"}, {"days": "Sun", "time": "Closed"}], "id": "7937100000", "name": "USPS COLLECTION BOX - BLUE BOX", "address": {"city": "SUDAN", "state": "TX", "street": "105 HORNET DR", "postcode": "79371"}}},
{"geometry": {"type": "Point", "coordinates": [-102.5240079183, 34.0665502699]}, "type": "Feature", "properties": {"collection_times": [{"days": "Mon-Fri", "time": "2:45pm"}, {"days": "Sat", "time": "9:45am"}, {"days": "Sun", "time": "Closed"}], "id": "7937100003", "name": "USPS COLLECTION BOX - PO LOBBY", "address": {"city": "SUDAN", "state": "TX", "street": "105 HORNET DR", "postcode": "79371"}}},
{"geometry": {"type": "Point", "coordinates": [-102.4892949703, 33.4581226685]}, "type": "Feature", "properties": {"collection_times": [{"days": "Mon-Fri", "time": "4:00pm"}, {"days": "Sat", "time": "9:00am"}, {"days": "Sun", "time": "Closed"}], "id": "7937200000", "name": "USPS COLLECTION BOX - BLUE BOX", "address": {"city": "SUNDOWN", "state": "TX", "street": "807 S SLAUGHTER AVE", "postcode": "79372"}}},
{"geometry": {"type": "Point", "coordinates": [-102.4892949703, 33.4581226685]}, "type": "Feature", "properties": {"collection_times": [{"days": "Mon-Fri", "time": "4:00pm"}, {"days": "Sat", "time": "9:00am"}, {"days": "Sun", "time": "Closed"}], "id": "7937200002", "name": "USPS COLLECTION BOX - PO LOBBY", "address": {"city": "SUNDOWN", "state": "TX", "street": "807 S SLAUGHTER AVE", "postcode": "79372"}}},
{"geometry": {"type": "Point", "coordinates": [-101.8432996844, 33.1994513773]}, "type": "Feature", "properties": {"collection_times": [{"days": "Mon-Fri", "time": "4:00pm"}, {"days": "Sat", "time": "8:30am"}, {"days": "Sun", "time": "Closed"}], "id": "7937300000", "name": "USPS COLLECTION BOX - BLUE BOX", "address": {"city": "TAHOKA", "state": "TX", "street": "1525 CONWAY ST", "postcode": "79373"}}},
{"geometry": {"type": "Point", "coordinates": [-101.8432996844, 33.1994513773]}, "type": "Feature", "properties": {"collection_times": [{"days": "Mon-Fri", "time": "4:00pm"}, {"days": "Sat", "time": "8:30am"}, {"days": "Sun", "time": "Closed"}], "id": "7937300001", "name": "USPS COLLECTION BOX - PO LOBBY", "address": {"city": "TAHOKA", "state": "TX", "street": "1525 CONWAY ST", "postcode": "79373"}}},
{"geometry": {"type": "Point", "coordinates": [-102.1025815829, 32.8369039826]}, "type": "Feature", "properties": {"collection_times": [{"days": "Mon-Fri", "time": "12:15pm"}, {"days": "Sat", "time": "11:45am"}, {"days": "Sun", "time": "Closed"}], "id": "7937700000", "name": "USPS COLLECTION BOX - BLUE BOX", "address": {"city": "WELCH", "state": "TX", "street": "218 JUNIPER ST", "postcode": "79377"}}},
{"geometry": {"type": "Point", "coordinates": [-102.1025815829, 32.8369039826]}, "type": "Feature", "properties": {"collection_times": [{"days": "Mon-Fri", "time": "12:15pm"}, {"days": "Sat", "time": "11:45am"}, {"days": "Sun", "time": "Closed"}], "id": "7937700001", "name": "USPS COLLECTION BOX - PO LOBBY", "address": {"city": "WELCH", "state": "TX", "street": "218 JUNIPER ST", "postcode": "79377"}}},
{"geometry": {"type": "Point", "coordinates": [-102.4282354533, 33.0486080533]}, "type": "Feature", "properties": {"collection_times": [{"days": "Mon-Fri", "time": "4:00pm"}, {"days": "Sat", "time": "8:00am"}, {"days": "Sun", "time": "Closed"}], "id": "7937800000", "name": "USPS COLLECTION BOX - BLUE BOX", "address": {"city": "WELLMAN", "state": "TX", "street": "503 YOAKUM", "postcode": "79378"}}},
{"geometry": {"type": "Point", "coordinates": [-102.4282354533, 33.0486080533]}, "type": "Feature", "properties": {"collection_times": [{"days": "Mon-Fri", "time": "4:00pm"}, {"days": "Sat", "time": "8:00am"}, {"days": "Sun", "time": "Closed"}], "id": "7937800001", "name": "USPS COLLECTION BOX - PO LOBBY", "address": {"city": "WELLMAN", "state": "TX", "street": "503 YOAKUM", "postcode": "79378"}}},
{"geometry": {"type": "Point", "coordinates": [-102.4282354533, 33.0486080533]}, "type": "Feature", "properties": {"collection_times": [{"days": "Mon-Fri", "time": "4:00pm"}, {"days": "Sat", "time": "8:00am"}, {"days": "Sun", "time": "Closed"}], "id": "7937800002", "name": "USPS COLLECTION BOX - PO LOBBY", "address": {"city": "WELLMAN", "state": "TX", "street": "503 YOAKUM", "postcode": "79378"}}},
{"geometry": {"type": "Point", "coordinates": [-102.6150045945, 33.6001210601]}, "type": "Feature", "properties": {"collection_times": [{"days": "Mon-Fri", "time": "4:00pm"}, {"days": "Sat", "time": "8:30am"}, {"days": "Sun", "time": "Closed"}], "id": "7937900000", "name": "USPS COLLECTION BOX - PO LOBBY", "address": {"city": "WHITEFACE", "state": "TX", "street": "208 W 2ND ST", "postcode": "79379"}}},
{"geometry": {"type": "Point", "coordinates": [-102.6150045945, 33.6001210601]}, "type": "Feature", "properties": {"collection_times": [{"days": "Mon-Fri", "time": "4:00pm"}, {"days": "Sat", "time": "8:30am"}, {"days": "Sun", "time": "Closed"}], "id": "7937900001", "name": "USPS COLLECTION BOX - BLUE BOX", "address": {"city": "WHITEFACE", "state": "TX", "street": "208 W 2ND ST", "postcode": "79379"}}},
{"geometry": {"type": "Point", "coordinates": [-102.3278271556, 33.7357224179]}, "type": "Feature", "properties": {"collection_times": [{"days": "Mon-Sat", "time": "11:45am"}, {"days": "Sun", "time": "Closed"}], "id": "7938000002", "name": "USPS COLLECTION BOX - PO LOBBY", "address": {"city": "WHITHARRAL", "state": "TX", "street": "201 BADGER", "postcode": "79380"}}},
{"geometry": {"type": "Point", "coordinates": [-101.7251698605, 33.3193856911]}, "type": "Feature", "properties": {"collection_times": [{"days": "Mon-Fri", "time": "1:30pm"}, {"days": "Sat", "time": "9:00am"}, {"days": "Sun", "time": "Closed"}], "id": "7938100001", "name": "USPS COLLECTION BOX - PO LOBBY", "address": {"city": "WILSON", "state": "TX", "street": "1011 HOUSTON AVE", "postcode": "79381"}}},
{"geometry": {"type": "Point", "coordinates": [-102.0103488715, 33.502073898]}, "type": "Feature", "properties": {"collection_times": [{"days": "Mon-Fri", "time": "4:30pm"}, {"days": "Sat", "time": "11:00am"}, {"days": "Sun", "time": "Closed"}], "id": "7938200000", "name": "USPS COLLECTION BOX - BLUE BOX", "address": {"city": "WOLFFORTH", "state": "TX", "street": "302 E HIGHWAY 62", "postcode": "79382"}}},
{"geometry": {"type": "Point", "coordinates": [-102.0103488715, 33.502073898]}, "type": "Feature", "properties": {"collection_times": [{"days": "Mon-Fri", "time": "4:30pm"}, {"days": "Sat", "time": "11:00am"}, {"days": "Sun", "time": "Closed"}], "id": "7938200001", "name": "USPS COLLECTION BOX - PO LOBBY", "address": {"city": "WOLFFORTH", "state": "TX", "street": "302 E HIGHWAY 62", "postcode": "79382"}}},
{"geometry": {"type": "Point", "coordinates": [-102.0103488715, 33.502073898]}, "type": "Feature", "properties": {"collection_times": [{"days": "Mon-Fri", "time": "4:30pm"}, {"days": "Sat", "time": "11:00am"}, {"days": "Sun", "time": "Closed"}], "id": "7938200003", "name": "USPS COLLECTION BOX - PO LOBBY", "address": {"city": "WOLFFORTH", "state": "TX", "street": "302 E HIGHWAY 62", "postcode": "79382"}}}
]}
