{"type": "FeatureCollection", "features": [
{"geometry": {"type": "Point", "coordinates": [-101.8624549786, 33.5844391926]}, "type": "Feature", "properties": {"collection_times": [{"days": "Mon-Fri", "time": "11:30am"}, {"days": "Sat-Sun", "time": "Closed"}], "id": "7940100002", "name": "USPS COLLECTION BOX - BLUE BOX", "address": {"city": "LUBBOCK", "state": "TX", "street": "2123 BROADWAY", "postcode": "79401"}}},
{"geometry": {"type": "Point", "coordinates": [-101.8491276182, 33.5843765493]}, "type": "Feature", "properties": {"collection_times": [{"days": "Mon-Fri", "time": "2:00pm"}, {"days": "Sat-Sun", "time": "Closed"}], "id": "7940100021", "name": "USPS COLLECTION BOX - BLUE BOX", "address": {"city": "LUBBOCK", "state": "TX", "street": "1212 AVENUE L", "postcode": "79401"}}},
{"geometry": {"type": "Point", "coordinates": [-101.8533935386, 33.5817930136]}, "type": "Feature", "properties": {"collection_times": [{"days": "Mon-Fri", "time": "4:30pm"}, {"days": "Sat-Sun", "time": "Closed"}], "id": "7940100039", "name": "USPS COLLECTION BOX - BLUE BOX", "address": {"city": "LUBBOCK", "state": "TX", "street": "1624 15TH ST", "postcode": "79401"}}},
{"geometry": {"type": "Point", "coordinates": [-101.8491552302, 33.5919588974]}, "type": "Feature", "properties": {"collection_times": [{"days": "Mon-Fri", "time": "4:45pm"}, {"days": "Sat", "time": "4:00pm"}, {"days": "Sun", "time": "Closed"}], "id": "7940100042", "name": "USPS COLLECTION BOX - BLUE BOX", "address": {"city": "LUBBOCK", "state": "TX", "street": "411 AVENUE L", "postcode": "79401"}}},
{"geometry": {"type": "Point", "coordinates": [-101.8491552302, 33.5919588974]}, "type": "Feature", "properties": {"collection_times": [{"days": "Mon-Fri", "time": "4:45pm"}, {"days": "Sat", "time": "4:00pm"}, {"days": "Sun", "time": "Closed"}], "id": "7940100051", "name": "USPS COLLECTION BOX - PO LOBBY", "address": {"city": "LUBBOCK", "state": "TX", "street": "411 AVENUE L", "postcode": "79401"}}},
{"geometry": {"type": "Point", "coordinates": [-101.8491552302, 33.5919588974]}, "type": "Feature", "properties": {"collection_times": [{"days": "Mon-Fri", "time": "4:45pm"}, {"days": "Sat", "time": "4:00pm"}, {"days": "Sun", "time": "Closed"}], "id": "7940100052", "name": "USPS COLLECTION BOX - PO LOBBY", "address": {"city": "LUBBOCK", "state": "TX", "street": "411 AVENUE L", "postcode": "79401"}}},
{"geometry": {"type": "Point", "coordinates": [-101.8491552302, 33.5919588974]}, "type": "Feature", "properties": {"collection_times": [{"days": "Mon-Fri", "time": "4:45pm"}, {"days": "Sat", "time": "4:00pm"}, {"days": "Sun", "time": "Closed"}], "id": "7940100062", "name": "USPS COLLECTION BOX - PO LOBBY", "address": {"city": "LUBBOCK", "state": "TX", "street": "411 AVENUE L", "postcode": "79401"}}},
{"geometry": {"type": "Point", "coordinates": [-101.8431632676, 33.5809781709]}, "type": "Feature", "properties": {"collection_times": [{"days": "Mon-Fri", "time": "7:00pm"}, {"days": "Sat", "time": "6:00pm"}, {"days": "Sun", "time": "Closed"}], "id": "7940200000", "name": "USPS COLLECTION BOX - BLUE BOX", "address": {"city": "LUBBOCK", "state": "TX", "street": "1515 AVENUE G", "postcode": "79402"}}},
{"geometry": {"type": "Point", "coordinates": [-101.8431632676, 33.5809781709]}, "type": "Feature", "properties": {"collection_times": [{"days": "Mon-Fri", "time": "7:00pm"}, {"days": "Sat", "time": "6:00pm"}, {"days": "Sun", "time": "Closed"}], "id": "7940200001", "name": "USPS COLLECTION BOX - BLUE BOX", "address": {"city": "LUBBOCK", "state": "TX", "street": "1515 AVENUE G", "postcode": "79402"}}},
{"geometry": {"type": "Point", "coordinates": [-101.8092391675, 33.5974303429]}, "type": "Feature", "properties": {"collection_times": [{"days": "Mon-Fri", "time": "2:00pm"}, {"days": "Sat-Sun", "time": "Closed"}], "id": "7940300005", "name": "USPS COLLECTION BOX - BLUE BOX", "address": {"city": "LUBBOCK", "state": "TX", "street": "2630 PARKWAY DR", "postcode": "79403"}}},
{"geometry": {"type": "Point", "coordinates": [-101.8356136235, 33.5569534573]}, "type": "Feature", "properties": {"collection_times": [{"days": "Mon-Fri", "time": "2:00pm"}, {"days": "Sat-Sun", "time": "Closed"}], "id": "7940400011", "name": "USPS COLLECTION BOX - BLUE BOX", "address": {"city": "LUBBOCK", "state": "TX", "street": "4001 AVENUE A", "postcode": "79404"}}},
{"geometry": {"type": "Point", "coordinates": [-101.8356136235, 33.5569534573]}, "type": "Feature", "properties": {"collection_times": [{"days": "Mon-Fri", "time": "2:00pm"}, {"days": "Sat-Sun", "time": "Closed"}], "id": "7940400012", "name": "USPS COLLECTION BOX - BLUE BOX", "address": {"city": "LUBBOCK", "state": "TX", "street": "4001 AVENUE A", "postcode": "79404"}}},
{"geometry": {"type": "Point", "coordinates": [-101.923214662, 33.5604918796]}, "type": "Feature", "properties": {"collection_times": [{"days": "Mon-Fri", "time": "4:00pm"}, {"days": "Sat-Sun", "time": "Closed"}], "id": "7940700014", "name": "USPS COLLECTION BOX - BLUE BOX", "address": {"city": "LUBBOCK", "state": "TX", "street": "5219 CITY BANK PKWY", "postcode": "79407"}}},
{"geometry": {"type": "Point", "coordinates": [-101.9490428268, 33.5561703384]}, "type": "Feature", "properties": {"collection_times": [{"days": "Mon-Fri", "time": "3:30pm"}, {"days": "Sat-Sun", "time": "Closed"}], "id": "7940700015", "name": "USPS COLLECTION BOX - BLUE BOX", "address": {"city": "LUBBOCK", "state": "TX", "street": "6113 43RD ST", "postcode": "79407"}}},
{"geometry": {"type": "Point", "coordinates": [-101.8971393193, 33.5741560465]}, "type": "Feature", "properties": {"collection_times": [{"days": "Mon-Fri", "time": "3:00pm"}, {"days": "Sat-Sun", "time": "Closed"}], "id": "7941000001", "name": "USPS COLLECTION BOX - BLUE BOX", "address": {"city": "LUBBOCK", "state": "TX", "street": "3808 22ND ST", "postcode": "79410"}}},
{"geometry": {"type": "Point", "coordinates": [-101.8704044732, 33.5777951187]}, "type": "Feature", "properties": {"collection_times": [{"days": "Mon-Fri", "time": "2:30pm"}, {"days": "Sat-Sun", "time": "Closed"}], "id": "7941000008", "name": "USPS COLLECTION BOX - BLUE BOX", "address": {"city": "LUBBOCK", "state": "TX", "street": "1901 UNIVERSITY AVE", "postcode": "79410"}}},
{"geometry": {"type": "Point", "coordinates": [-101.8907973028, 33.5704807625]}, "type": "Feature", "properties": {"collection_times": [{"days": "Mon-Sat", "time": "1:00pm"}, {"days": "Sun", "time": "Closed"}], "id": "7941000010", "name": "USPS COLLECTION BOX - BLUE BOX", "address": {"city": "LUBBOCK", "state": "TX", "street": "2910 SLIDE RD", "postcode": "79410"}}},
{"geometry": {"type": "Point", "coordinates": [-101.881313059, 33.5632574262]}, "type": "Feature", "properties": {"collection_times": [{"days": "Mon-Fri", "time": "4:30pm"}, {"days": "Sat-Sun", "time": "Closed"}], "id": "7941000018", "name": "USPS COLLECTION BOX - BLUE BOX", "address": {"city": "LUBBOCK", "state": "TX", "street": "3101 34TH ST", "postcode": "79410"}}},
{"geometry": {"type": "Point", "coordinates": [-101.9022366894, 33.5728110222]}, "type": "Feature", "properties": {"collection_times": [{"days": "Mon-Fri", "time": "1:00pm"}, {"days": "Sat-Sun", "time": "Closed"}], "id": "7941000026", "name": "USPS COLLECTION BOX - BLUE BOX", "address": {"city": "LUBBOCK", "state": "TX", "street": "4102 24TH ST", "postcode": "79410"}}},
{"geometry": {"type": "Point", "coordinates": [-101.8517385371, 33.5434085771]}, "type": "Feature", "properties": {"collection_times": [{"days": "Mon-Fri", "time": "2:00pm"}, {"days": "Sat-Sun", "time": "Closed"}], "id": "7941200000", "name": "USPS COLLECTION BOX - BLUE BOX", "address": {"city": "LUBBOCK", "state": "TX", "street": "24 BRIERCROFT OFFICE PARK", "postcode": "79412"}}},
{"geometry": {"type": "Point", "coordinates": [-101.8487468339, 33.5483462478]}, "type": "Feature", "properties": {"collection_times": [{"days": "Mon-Fri", "time": "5:00pm"}, {"days": "Sat", "time": "4:00pm"}, {"days": "Sun", "time": "Closed"}], "id": "7941200009", "name": "USPS COLLECTION BOX - BLUE BOX", "address": {"city": "LUBBOCK", "state": "TX", "street": "5001 AVENUE L", "postcode": "79412"}}},
{"geometry": {"type": "Point", "coordinates": [-101.8527470036, 33.5450447442]}, "type": "Feature", "properties": {"collection_times": [{"days": "Mon-Fri", "time": "2:00pm"}, {"days": "Sat-Sun", "time": "Closed"}], "id": "7941200011", "name": "USPS COLLECTION BOX - BLUE BOX", "address": {"city": "LUBBOCK", "state": "TX", "street": "5302 AVENUE Q", "postcode": "79412"}}},
{"geometry": {"type": "Point", "coordinates": [-101.8487468339, 33.5483462478]}, "type": "Feature", "properties": {"collection_times": [{"days": "Mon-Fri", "time": "5:00pm"}, {"days": "Sat", "time": "4:00pm"}, {"days": "Sun", "time": "Closed"}], "id": "7941200022", "name": "USPS COLLECTION BOX - PO LOBBY", "address": {"city": "LUBBOCK", "state": "TX", "street": "5001 AVENUE L", "postcode": "79412"}}},
{"geometry": {"type": "Point", "coordinates": [-101.8487468339, 33.5483462478]}, "type": "Feature", "properties": {"collection_times": [{"days": "Mon-Fri", "time": "5:00pm"}, {"days": "Sat", "time": "4:00pm"}, {"days": "Sun", "time": "Closed"}], "id": "7941200023", "name": "USPS COLLECTION BOX - PO LOBBY", "address": {"city": "LUBBOCK", "state": "TX", "street": "5001 AVENUE L", "postcode": "79412"}}},
{"geometry": {"type": "Point", "coordinates": [-101.8487468339, 33.5483462478]}, "type": "Feature", "properties": {"collection_times": [{"days": "Mon-Fri", "time": "5:00pm"}, {"days": "Sat", "time": "4:00pm"}, {"days": "Sun", "time": "Closed"}], "id": "7941200024", "name": "USPS COLLECTION BOX - PO LOBBY", "address": {"city": "LUBBOCK", "state": "TX", "street": "5001 AVENUE L", "postcode": "79412"}}},
{"geometry": {"type": "Point", "coordinates": [-101.8487468339, 33.5483462478]}, "type": "Feature", "properties": {"collection_times": [{"days": "Mon-Fri", "time": "5:00pm"}, {"days": "Sat", "time": "4:00pm"}, {"days": "Sun", "time": "Closed"}], "id": "7941200028", "name": "USPS COLLECTION BOX - PO LOBBY", "address": {"city": "LUBBOCK", "state": "TX", "street": "5001 AVENUE L", "postcode": "79412"}}},
{"geometry": {"type": "Point", "coordinates": [-101.9022983314, 33.5488514817]}, "type": "Feature", "properties": {"collection_times": [{"days": "Mon-Fri", "time": "3:00pm"}, {"days": "Sat-Sun", "time": "Closed"}], "id": "7941300002", "name": "USPS COLLECTION BOX - BLUE BOX", "address": {"city": "LUBBOCK", "state": "TX", "street": "4212 50TH ST", "postcode": "79413"}}},
{"geometry": {"type": "Point", "coordinates": [-101.8949378326, 33.5487910404]}, "type": "Feature", "properties": {"collection_times": [{"days": "Mon-Fri", "time": "4:30pm"}, {"days": "Sat-Sun", "time": "Closed"}], "id": "7941300003", "name": "USPS COLLECTION BOX - BLUE BOX", "address": {"city": "LUBBOCK", "state": "TX", "street": "3701 50TH ST", "postcode": "79413"}}},
{"geometry": {"type": "Point", "coordinates": [-101.8876315712, 33.5360789704]}, "type": "Feature", "properties": {"collection_times": [{"days": "Mon-Fri", "time": "4:00pm"}, {"days": "Sat", "time": "3:00pm"}, {"days": "Sun", "time": "Closed"}], "id": "7941300011", "name": "USPS COLLECTION BOX - BLUE BOX", "address": {"city": "LUBBOCK", "state": "TX", "street": "6409 INDIANA AVE", "postcode": "79413"}}},
{"geometry": {"type": "Point", "coordinates": [-101.8833140778, 33.547418808]}, "type": "Feature", "properties": {"collection_times": [{"days": "Mon-Fri", "time": "4:45pm"}, {"days": "Sat", "time": "4:00pm"}, {"days": "Sun", "time": "Closed"}], "id": "7941300016", "name": "USPS COLLECTION BOX - BLUE BOX", "address": {"city": "LUBBOCK", "state": "TX", "street": "5014 GARY AVE", "postcode": "79413"}}},
{"geometry": {"type": "Point", "coordinates": [-101.870273435, 33.5351595244]}, "type": "Feature", "properties": {"collection_times": [{"days": "Mon-Fri", "time": "2:30pm"}, {"days": "Sat", "time": "3:00pm"}, {"days": "Sun", "time": "Closed"}], "id": "7941300028", "name": "USPS COLLECTION BOX - BLUE BOX", "address": {"city": "LUBBOCK", "state": "TX", "street": "6501 UNIVERSITY AVE", "postcode": "79413"}}},
{"geometry": {"type": "Point", "coordinates": [-101.8833140778, 33.547418808]}, "type": "Feature", "properties": {"collection_times": [{"days": "Mon-Fri", "time": "4:45pm"}, {"days": "Sat", "time": "4:00pm"}, {"days": "Sun", "time": "Closed"}], "id": "7941300030", "name": "USPS COLLECTION BOX - PO LOBBY", "address": {"city": "LUBBOCK", "state": "TX", "street": "5014 GARY AVE", "postcode": "79413"}}},
{"geometry": {"type": "Point", "coordinates": [-101.8833140778, 33.547418808]}, "type": "Feature", "properties": {"collection_times": [{"days": "Mon-Fri", "time": "4:45pm"}, {"days": "Sat", "time": "4:00pm"}, {"days": "Sun", "time": "Closed"}], "id": "7941300031", "name": "USPS COLLECTION BOX - PO LOBBY", "address": {"city": "LUBBOCK", "state": "TX", "street": "5014 GARY AVE", "postcode": "79413"}}},
{"geometry": {"type": "Point", "coordinates": [-101.8833140778, 33.547418808]}, "type": "Feature", "properties": {"collection_times": [{"days": "Mon-Fri", "time": "4:45pm"}, {"days": "Sat", "time": "4:00pm"}, {"days": "Sun", "time": "Closed"}], "id": "7941300032", "name": "USPS COLLECTION BOX - APC", "address": {"city": "LUBBOCK", "state": "TX", "street": "5014 GARY AVE", "postcode": "79413"}}},
{"geometry": {"type": "Point", "coordinates": [-101.9104215825, 33.5488217973]}, "type": "Feature", "properties": {"collection_times": [{"days": "Mon-Fri", "time": "4:00pm"}, {"days": "Sat", "time": "2:00pm"}, {"days": "Sun", "time": "Closed"}], "id": "7941400004", "name": "USPS COLLECTION BOX - BLUE BOX", "address": {"city": "LUBBOCK", "state": "TX", "street": "4611 50TH ST", "postcode": "79414"}}},
{"geometry": {"type": "Point", "coordinates": [-101.911994918, 33.5488206144]}, "type": "Feature", "properties": {"collection_times": [{"days": "Mon-Fri", "time": "3:00pm"}, {"days": "Sat-Sun", "time": "Closed"}], "id": "7941400018", "name": "USPS COLLECTION BOX - BLUE BOX", "address": {"city": "LUBBOCK", "state": "TX", "street": "4630 50TH ST", "postcode": "79414"}}},
{"geometry": {"type": "Point", "coordinates": [-101.9252102438, 33.5923700799]}, "type": "Feature", "properties": {"collection_times": [{"days": "Mon-Fri", "time": "3:00pm"}, {"days": "Sat-Sun", "time": "Closed"}], "id": "7941600004", "name": "USPS COLLECTION BOX - BLUE BOX", "address": {"city": "LUBBOCK", "state": "TX", "street": "5404 4TH ST", "postcode": "79416"}}},
{"geometry": {"type": "Point", "coordinates": [-101.8732622435, 33.5842136587]}, "type": "Feature", "properties": {"collection_times": [{"days": "Mon-Fri", "time": "9:30am"}, {"days": "Sat-Sun", "time": "Closed"}], "id": "7941600010", "name": "USPS COLLECTION BOX - BLUE BOX", "address": {"city": "LUBBOCK", "state": "TX", "street": "1202 AKRON AVE", "postcode": "79416"}}},
{"geometry": {"type": "Point", "coordinates": [-101.9397282079, 33.5742140115]}, "type": "Feature", "properties": {"collection_times": [{"days": "Mon-Fri", "time": "4:15pm"}, {"days": "Sat", "time": "4:00pm"}, {"days": "Sun", "time": "Closed"}], "id": "7941600014", "name": "USPS COLLECTION BOX - BLUE BOX", "address": {"city": "LUBBOCK", "state": "TX", "street": "2121 FRANKFORD AVE", "postcode": "79416"}}},
{"geometry": {"type": "Point", "coordinates": [-101.9397282079, 33.5742140115]}, "type": "Feature", "properties": {"collection_times": [{"days": "Mon-Fri", "time": "4:15pm"}, {"days": "Sat", "time": "4:00pm"}, {"days": "Sun", "time": "Closed"}], "id": "7941600017", "name": "USPS COLLECTION BOX - PO LOBBY", "address": {"city": "LUBBOCK", "state": "TX", "street": "2121 FRANKFORD AVE", "postcode": "79416"}}},
{"geometry": {"type": "Point", "coordinates": [-101.9397282079, 33.5742140115]}, "type": "Feature", "properties": {"collection_times": [{"days": "Mon-Fri", "time": "4:15pm"}, {"days": "Sat", "time": "4:00pm"}, {"days": "Sun", "time": "Closed"}], "id": "7941600020", "name": "USPS COLLECTION BOX - PO LOBBY", "address": {"city": "LUBBOCK", "state": "TX", "street": "2121 FRANKFORD AVE", "postcode": "79416"}}},
{"geometry": {"type": "Point", "coordinates": [-101.9346356076, 33.5922813775]}, "type": "Feature", "properties": {"collection_times": [{"days": "Mon-Fri", "time": "3:30pm"}, {"days": "Sat-Sun", "time": "Closed"}], "id": "7941600024", "name": "USPS COLLECTION BOX - BLUE BOX", "address": {"city": "LUBBOCK", "state": "TX", "street": "5701 4TH ST", "postcode": "79416"}}},
{"geometry": {"type": "Point", "coordinates": [-101.9777599364, 33.6039304002]}, "type": "Feature", "properties": {"collection_times": [{"days": "Mon-Fri", "time": "11:00am"}, {"days": "Sat", "time": "11:30am"}, {"days": "Sun", "time": "Closed"}], "id": "7941600025", "name": "USPS COLLECTION BOX - BLUE BOX", "address": {"city": "LUBBOCK", "state": "TX", "street": "9801 REESE BLVD N", "postcode": "79416"}}},
{"geometry": {"type": "Point", "coordinates": [-101.9049805083, 33.5197869609]}, "type": "Feature", "properties": {"collection_times": [{"days": "Mon-Fri", "time": "3:30pm"}, {"days": "Sat-Sun", "time": "Closed"}], "id": "7942300002", "name": "USPS COLLECTION BOX - BLUE BOX", "address": {"city": "LUBBOCK", "state": "TX", "street": "4402 82ND ST", "postcode": "79423"}}},
{"geometry": {"type": "Point", "coordinates": [-101.8828976763, 33.5290143324]}, "type": "Feature", "properties": {"collection_times": [{"days": "Mon-Fri", "time": "4:30pm"}, {"days": "Sat-Sun", "time": "Closed"}], "id": "7942300018", "name": "USPS COLLECTION BOX - BLUE BOX", "address": {"city": "LUBBOCK", "state": "TX", "street": "3201 S LOOP 289", "postcode": "79423"}}},
{"geometry": {"type": "Point", "coordinates": [-101.897245565, 33.5157310005]}, "type": "Feature", "properties": {"collection_times": [{"days": "Mon-Fri", "time": "3:30pm"}, {"days": "Sat", "time": "3:00pm"}, {"days": "Sun", "time": "Closed"}], "id": "7942300020", "name": "USPS COLLECTION BOX - BLUE BOX", "address": {"city": "LUBBOCK", "state": "TX", "street": "8207 NASHVILLE AVE", "postcode": "79423"}}},
{"geometry": {"type": "Point", "coordinates": [-101.897245565, 33.5157310005]}, "type": "Feature", "properties": {"collection_times": [{"days": "Mon-Fri", "time": "3:30pm"}, {"days": "Sat", "time": "3:00pm"}, {"days": "Sun", "time": "Closed"}], "id": "7942300021", "name": "USPS COLLECTION BOX - BLUE BOX", "address": {"city": "LUBBOCK", "state": "TX", "street": "8207 NASHVILLE AVE", "postcode": "79423"}}},
{"geometry": {"type": "Point", "coordinates": [-101.8877450761, 33.5209751974]}, "type": "Feature", "properties": {"collection_times": [{"days": "Mon-Fri", "time": "4:00pm"}, {"days": "Sat", "time": "3:00pm"}, {"days": "Sun", "time": "Closed"}], "id": "7942300024", "name": "USPS COLLECTION BOX - BLUE BOX", "address": {"city": "LUBBOCK", "state": "TX", "street": "8102 INDIANA AVE", "postcode": "79423"}}},
{"geometry": {"type": "Point", "coordinates": [-101.8892253238, 33.5191555524]}, "type": "Feature", "properties": {"collection_times": [{"days": "Mon-Fri", "time": "4:00pm"}, {"days": "Sat", "time": "3:00pm"}, {"days": "Sun", "time": "Closed"}], "id": "7942300028", "name": "USPS COLLECTION BOX - BLUE BOX", "address": {"city": "LUBBOCK", "state": "TX", "street": "8207 ITHACA AVE", "postcode": "79423"}}},
{"geometry": {"type": "Point", "coordinates": [-101.8828976763, 33.5290143324]}, "type": "Feature", "properties": {"collection_times": [{"days": "Mon-Fri", "time": "4:30pm"}, {"days": "Sat-Sun", "time": "Closed"}], "id": "7942300034", "name": "USPS COLLECTION BOX - BLUE BOX", "address": {"city": "LUBBOCK", "state": "TX", "street": "3201 S LOOP 289", "postcode": "79423"}}},
{"geometry": {"type": "Point", "coordinates": [-101.8877450761, 33.5209751974]}, "type": "Feature", "properties": {"collection_times": [{"days": "Mon-Fri", "time": "4:00pm"}, {"days": "Sat", "time": "3:00pm"}, {"days": "Sun", "time": "Closed"}], "id": "7942300037", "name": "USPS COLLECTION BOX - BLUE BOX", "address": {"city": "LUBBOCK", "state": "TX", "street": "8102 INDIANA AVE", "postcode": "79423"}}},
{"geometry": {"type": "Point", "coordinates": [-101.8708445074, 33.5197564956]}, "type": "Feature", "properties": {"collection_times": [{"days": "Mon-Fri", "time": "2:30pm"}, {"days": "Sat", "time": "3:00pm"}, {"days": "Sun", "time": "Closed"}], "id": "7942300047", "name": "USPS COLLECTION BOX - BLUE BOX", "address": {"city": "LUBBOCK", "state": "TX", "street": "2502 82ND ST", "postcode": "79423"}}},
{"geometry": {"type": "Point", "coordinates": [-101.8718603691, 33.5288748921]}, "type": "Feature", "properties": {"collection_times": [{"days": "Mon-Fri", "time": "4:30pm"}, {"days": "Sat", "time": "3:00pm"}, {"days": "Sun", "time": "Closed"}], "id": "7942300049", "name": "USPS COLLECTION BOX - BLUE BOX", "address": {"city": "LUBBOCK", "state": "TX", "street": "2579 S LOOP 289", "postcode": "79423"}}},
{"geometry": {"type": "Point", "coordinates": [-101.8892253238, 33.5191555524]}, "type": "Feature", "properties": {"collection_times": [{"days": "Mon-Fri", "time": "4:00pm"}, {"days": "Sat", "time": "3:00pm"}, {"days": "Sun", "time": "Closed"}], "id": "7942300050", "name": "USPS COLLECTION BOX - BLUE BOX", "address": {"city": "LUBBOCK", "state": "TX", "street": "8207 ITHACA AVE", "postcode": "79423"}}},
{"geometry": {"type": "Point", "coordinates": [-101.9397212858, 33.521900137]}, "type": "Feature", "properties": {"collection_times": [{"days": "Mon-Fri", "time": "3:00pm"}, {"days": "Sat", "time": "4:00pm"}, {"days": "Sun", "time": "Closed"}], "id": "7942400034", "name": "USPS COLLECTION BOX - BLUE BOX", "address": {"city": "LUBBOCK", "state": "TX", "street": "8010 FRANKFORD AVE", "postcode": "79424"}}},
{"geometry": {"type": "Point", "coordinates": [-101.9152621157, 33.5328784165]}, "type": "Feature", "properties": {"collection_times": [{"days": "Mon-Fri", "time": "5:00pm"}, {"days": "Sat", "time": "4:00pm"}, {"days": "Sun", "time": "Closed"}], "id": "7942400035", "name": "USPS COLLECTION BOX - PO LOBBY", "address": {"city": "LUBBOCK", "state": "TX", "street": "4901 S LOOP 289", "postcode": "79424"}}},
{"geometry": {"type": "Point", "coordinates": [-101.9224434829, 33.5339779804]}, "type": "Feature", "properties": {"collection_times": [{"days": "Mon-Fri", "time": "3:00pm"}, {"days": "Sat-Sun", "time": "Closed"}], "id": "7942400036", "name": "USPS COLLECTION BOX - BLUE BOX", "address": {"city": "LUBBOCK", "state": "TX", "street": "6526 SLIDE RD", "postcode": "79424"}}},
{"geometry": {"type": "Point", "coordinates": [-101.9152621161, 33.5328784169]}, "type": "Feature", "properties": {"collection_times": [{"days": "Mon-Fri", "time": "5:00pm"}, {"days": "Sat", "time": "4:00pm"}, {"days": "Sun", "time": "Closed"}], "id": "7942400037", "name": "USPS COLLECTION BOX - BLUE BOX", "address": {"city": "LUBBOCK", "state": "TX", "street": "4901 S LOOP 289", "postcode": "79424"}}},
{"geometry": {"type": "Point", "coordinates": [-101.9152621157, 33.5328784165]}, "type": "Feature", "properties": {"collection_times": [{"days": "Mon-Fri", "time": "5:00pm"}, {"days": "Sat", "time": "4:00pm"}, {"days": "Sun", "time": "Closed"}], "id": "7942400038", "name": "USPS COLLECTION BOX - APC", "address": {"city": "LUBBOCK", "state": "TX", "street": "4901 S LOOP 289", "postcode": "79424"}}},
{"geometry": {"type": "Point", "coordinates": [-101.9152621157, 33.5328784165]}, "type": "Feature", "properties": {"collection_times": [{"days": "Mon-Fri", "time": "5:00pm"}, {"days": "Sat", "time": "4:00pm"}, {"days": "Sun", "time": "Closed"}], "id": "7942400039", "name": "USPS COLLECTION BOX - PO LOBBY", "address": {"city": "LUBBOCK", "state": "TX", "street": "4901 S LOOP 289", "postcode": "79424"}}}
]}
