{"type": "FeatureCollection", "features": [
{"geometry": {"type": "Point", "coordinates": [-99.8968721013, 32.7569774288]}, "type": "Feature", "properties": {"collection_times": [{"days": "Mon-Fri", "time": "4:30pm"}, {"days": "Sat", "time": "9:00am"}, {"days": "Sun", "time": "Closed"}], "id": "7950100000", "name": "USPS COLLECTION BOX - BLUE BOX", "address": {"city": "ANSON", "state": "TX", "street": "1001 11TH ST", "postcode": "79501"}}},
{"geometry": {"type": "Point", "coordinates": [-99.896899928, 32.7570864271]}, "type": "Feature", "properties": {"collection_times": [{"days": "Mon-Fri", "time": "4:30pm"}, {"days": "Sat", "time": "9:00am"}, {"days": "Sun", "time": "Closed"}], "id": "7950100003", "name": "USPS COLLECTION BOX - PO LOBBY", "address": {"city": "ANSON", "state": "TX", "street": "1002 11TH ST", "postcode": "79501"}}},
{"geometry": {"type": "Point", "coordinates": [-99.896899928, 32.7570864271]}, "type": "Feature", "properties": {"collection_times": [{"days": "Mon-Fri", "time": "4:30pm"}, {"days": "Sat", "time": "9:00am"}, {"days": "Sun", "time": "Closed"}], "id": "7950100004", "name": "USPS COLLECTION BOX - PO LOBBY", "address": {"city": "ANSON", "state": "TX", "street": "1002 11TH ST", "postcode": "79501"}}},
{"geometry": {"type": "Point", "coordinates": [-99.8968721013, 32.7569774288]}, "type": "Feature", "properties": {"collection_times": [{"days": "Mon-Fri", "time": "4:30pm"}, {"days": "Sat", "time": "9:00am"}, {"days": "Sun", "time": "Closed"}], "id": "7950100008", "name": "USPS COLLECTION BOX - BLUE BOX", "address": {"city": "ANSON", "state": "TX", "street": "1001 11TH ST", "postcode": "79501"}}},
{"geometry": {"type": "Point", "coordinates": [-100.2288701274, 33.1379513932]}, "type": "Feature", "properties": {"collection_times": [{"days": "Mon-Fri", "time": "4:00pm"}, {"days": "Sat", "time": "9:00am"}, {"days": "Sun", "time": "Closed"}], "id": "7950200000", "name": "USPS COLLECTION BOX - BLUE BOX", "address": {"city": "ASPERMONT", "state": "TX", "street": "704 S WASHINGTON AVE", "postcode": "79502"}}},
{"geometry": {"type": "Point", "coordinates": [-100.2288701274, 33.1379513932]}, "type": "Feature", "properties": {"collection_times": [{"days": "Mon-Fri", "time": "4:00pm"}, {"days": "Sat-Sun", "time": "Closed"}], "id": "7950200001", "name": "USPS COLLECTION BOX - PO LOBBY", "address": {"city": "ASPERMONT", "state": "TX", "street": "704 S WASHINGTON AVE", "postcode": "79502"}}},
{"geometry": {"type": "Point", "coordinates": [-99.3958626213, 32.3934329338]}, "type": "Feature", "properties": {"collection_times": [{"days": "Mon-Fri", "time": "4:00pm"}, {"days": "Sat", "time": "11:45am"}, {"days": "Sun", "time": "Closed"}], "id": "7950400005", "name": "USPS COLLECTION BOX - BLUE BOX", "address": {"city": "BAIRD", "state": "TX", "street": "208 W 3RD ST", "postcode": "79504"}}},
{"geometry": {"type": "Point", "coordinates": [-99.3956448521, 32.3934041188]}, "type": "Feature", "properties": {"collection_times": [{"days": "Mon-Fri", "time": "4:00pm"}, {"days": "Sat", "time": "11:45am"}, {"days": "Sun", "time": "Closed"}], "id": "7950400008", "name": "USPS COLLECTION BOX - PO LOBBY", "address": {"city": "BAIRD", "state": "TX", "street": "208 W 3RD ST", "postcode": "79504"}}},
{"geometry": {"type": "Point", "coordinates": [-99.3956448521, 32.3934041188]}, "type": "Feature", "properties": {"collection_times": [{"days": "Mon-Fri", "time": "4:00pm"}, {"days": "Sat", "time": "11:45am"}, {"days": "Sun", "time": "Closed"}], "id": "7950400009", "name": "USPS COLLECTION BOX - PO LOBBY", "address": {"city": "BAIRD", "state": "TX", "street": "208 W 3RD ST", "postcode": "79504"}}},
{"geometry": {"type": "Point", "coordinates": [-99.7927161955, 33.5840777712]}, "type": "Feature", "properties": {"collection_times": [{"days": "Mon-Fri", "time": "3:15pm"}, {"days": "Sat", "time": "8:45am"}, {"days": "Sun", "time": "Closed"}], "id": "7950500000", "name": "USPS COLLECTION BOX - BLUE BOX", "address": {"city": "BENJAMIN", "state": "TX", "street": "105 S HINTON ST", "postcode": "79505"}}},
{"geometry": {"type": "Point", "coordinates": [-100.3178797233, 32.0859812805]}, "type": "Feature", "properties": {"collection_times": [{"days": "Mon-Fri", "time": "3:15pm"}, {"days": "Sat", "time": "8:45am"}, {"days": "Sun", "time": "Closed"}], "id": "7950600001", "name": "USPS COLLECTION BOX - BLUE BOX", "address": {"city": "BLACKWELL", "state": "TX", "street": "101 NUECES ST", "postcode": "79506"}}},
{"geometry": {"type": "Point", "coordinates": [-100.3178797233, 32.0859812805]}, "type": "Feature", "properties": {"collection_times": [{"days": "Mon-Fri", "time": "3:15pm"}, {"days": "Sat", "time": "8:45am"}, {"days": "Sun", "time": "Closed"}], "id": "7950600002", "name": "USPS COLLECTION BOX - PO LOBBY", "address": {"city": "BLACKWELL", "state": "TX", "street": "101 NUECES ST", "postcode": "79506"}}},
{"geometry": {"type": "Point", "coordinates": [-99.8302794392, 32.2743858323]}, "type": "Feature", "properties": {"collection_times": [{"days": "Mon-Fri", "time": "3:55pm"}, {"days": "Sat", "time": "8:55am"}, {"days": "Sun", "time": "Closed"}], "id": "7950800000", "name": "USPS COLLECTION BOX - BLUE BOX", "address": {"city": "BUFFALO GAP", "state": "TX", "street": "1218 LITEL ST", "postcode": "79508"}}},
{"geometry": {"type": "Point", "coordinates": [-99.8302794392, 32.2743858323]}, "type": "Feature", "properties": {"collection_times": [{"days": "Mon-Fri", "time": "3:55pm"}, {"days": "Sat", "time": "8:55am"}, {"days": "Sun", "time": "Closed"}], "id": "7950800001", "name": "USPS COLLECTION BOX - PO LOBBY", "address": {"city": "BUFFALO GAP", "state": "TX", "street": "1218 LITEL ST", "postcode": "79508"}}},
{"geometry": {"type": "Point", "coordinates": [-99.4970771687, 32.4108111402]}, "type": "Feature", "properties": {"collection_times": [{"days": "Mon-Fri", "time": "4:30pm"}, {"days": "Sat", "time": "9:30am"}, {"days": "Sun", "time": "Closed"}], "id": "7951000000", "name": "USPS COLLECTION BOX - BLUE BOX", "address": {"city": "CLYDE", "state": "TX", "street": "615 ELM ST", "postcode": "79510"}}},
{"geometry": {"type": "Point", "coordinates": [-99.4970771687, 32.4108111402]}, "type": "Feature", "properties": {"collection_times": [{"days": "Mon-Fri", "time": "4:30pm"}, {"days": "Sat", "time": "9:30am"}, {"days": "Sun", "time": "Closed"}], "id": "7951000001", "name": "USPS COLLECTION BOX - BLUE BOX", "address": {"city": "CLYDE", "state": "TX", "street": "615 ELM ST", "postcode": "79510"}}},
{"geometry": {"type": "Point", "coordinates": [-99.4970771687, 32.4108111402]}, "type": "Feature", "properties": {"collection_times": [{"days": "Mon-Fri", "time": "4:30pm"}, {"days": "Sat", "time": "9:30am"}, {"days": "Sun", "time": "Closed"}], "id": "7951000003", "name": "USPS COLLECTION BOX - PO LOBBY", "address": {"city": "CLYDE", "state": "TX", "street": "615 ELM ST", "postcode": "79510"}}},
{"geometry": {"type": "Point", "coordinates": [-101.3060339139, 32.2953811518]}, "type": "Feature", "properties": {"collection_times": [{"days": "Mon-Fri", "time": "3:00pm"}, {"days": "Sat", "time": "11:00am"}, {"days": "Sun", "time": "Closed"}], "id": "7951100000", "name": "USPS COLLECTION BOX - BLUE BOX", "address": {"city": "COAHOMA", "state": "TX", "street": "102 S 1ST ST", "postcode": "79511"}}},
{"geometry": {"type": "Point", "coordinates": [-101.3060339139, 32.2953811518]}, "type": "Feature", "properties": {"collection_times": [{"days": "Mon-Fri", "time": "3:00pm"}, {"days": "Sat", "time": "11:00am"}, {"days": "Sun", "time": "Closed"}], "id": "7951100001", "name": "USPS COLLECTION BOX - BLUE BOX", "address": {"city": "COAHOMA", "state": "TX", "street": "102 S 1ST ST", "postcode": "79511"}}},
{"geometry": {"type": "Point", "coordinates": [-101.3060339139, 32.2953811518]}, "type": "Feature", "properties": {"collection_times": [{"days": "Mon-Fri", "time": "3:00pm"}, {"days": "Sat", "time": "11:00am"}, {"days": "Sun", "time": "Closed"}], "id": "7951100002", "name": "USPS COLLECTION BOX - PO LOBBY", "address": {"city": "COAHOMA", "state": "TX", "street": "102 S 1ST ST", "postcode": "79511"}}},
{"geometry": {"type": "Point", "coordinates": [-100.8605191769, 32.4099335008]}, "type": "Feature", "properties": {"collection_times": [{"days": "Mon-Sat", "time": "2:00pm"}, {"days": "Sun", "time": "Closed"}], "id": "7951200001", "name": "USPS COLLECTION BOX - BLUE BOX", "address": {"city": "COLORADO CITY", "state": "TX", "street": "2225 HICKORY ST", "postcode": "79512"}}},
{"geometry": {"type": "Point", "coordinates": [-100.8672313432, 32.3897511667]}, "type": "Feature", "properties": {"collection_times": [{"days": "Mon-Fri", "time": "4:00pm"}, {"days": "Sat", "time": "2:00pm"}, {"days": "Sun", "time": "Closed"}], "id": "7951200005", "name": "USPS COLLECTION BOX - BLUE BOX", "address": {"city": "COLORADO CITY", "state": "TX", "street": "116 W 3RD ST", "postcode": "79512"}}},
{"geometry": {"type": "Point", "coordinates": [-100.8672313432, 32.3897511667]}, "type": "Feature", "properties": {"collection_times": [{"days": "Mon-Fri", "time": "4:00pm"}, {"days": "Sat-Sun", "time": "Closed"}], "id": "7951200007", "name": "USPS COLLECTION BOX - PO LOBBY", "address": {"city": "COLORADO CITY", "state": "TX", "street": "116 W 3RD ST", "postcode": "79512"}}},
{"geometry": {"type": "Point", "coordinates": [-100.8672313432, 32.3897511667]}, "type": "Feature", "properties": {"collection_times": [{"days": "Mon-Fri", "time": "4:00pm"}, {"days": "Sat-Sun", "time": "Closed"}], "id": "7951200008", "name": "USPS COLLECTION BOX - PO LOBBY", "address": {"city": "COLORADO CITY", "state": "TX", "street": "116 W 3RD ST", "postcode": "79512"}}},
{"geometry": {"type": "Point", "coordinates": [-100.6625148987, 33.3612612848]}, "type": "Feature", "properties": {"collection_times": [{"days": "Mon-Fri", "time": "1:30pm"}, {"days": "Sat", "time": "8:30am"}, {"days": "Sun", "time": "Closed"}], "id": "7951800000", "name": "USPS COLLECTION BOX - BLUE BOX", "address": {"city": "GIRARD", "state": "TX", "street": "1485 STATE HIGHWAY 70", "postcode": "79518"}}},
{"geometry": {"type": "Point", "coordinates": [-100.6625148987, 33.3612612848]}, "type": "Feature", "properties": {"collection_times": [{"days": "Mon-Fri", "time": "1:30pm"}, {"days": "Sat", "time": "8:30am"}, {"days": "Sun", "time": "Closed"}], "id": "7951800001", "name": "USPS COLLECTION BOX - PO LOBBY", "address": {"city": "GIRARD", "state": "TX", "street": "1485 STATE HIGHWAY 70", "postcode": "79518"}}},
{"geometry": {"type": "Point", "coordinates": [-100.124749327, 32.8827391274]}, "type": "Feature", "properties": {"collection_times": [{"days": "Mon-Fri", "time": "4:00pm"}, {"days": "Sat", "time": "8:00am"}, {"days": "Sun", "time": "Closed"}], "id": "7952000001", "name": "USPS COLLECTION BOX - BLUE BOX", "address": {"city": "HAMLIN", "state": "TX", "street": "225 SE AVENUE A", "postcode": "79520"}}},
{"geometry": {"type": "Point", "coordinates": [-100.124749327, 32.8827391274]}, "type": "Feature", "properties": {"collection_times": [{"days": "Mon-Fri", "time": "4:00pm"}, {"days": "Sat-Sun", "time": "Closed"}], "id": "7952000004", "name": "USPS COLLECTION BOX - PO LOBBY", "address": {"city": "HAMLIN", "state": "TX", "street": "225 SE AVENUE A", "postcode": "79520"}}},
{"geometry": {"type": "Point", "coordinates": [-99.7303458264, 33.1564969622]}, "type": "Feature", "properties": {"collection_times": [{"days": "Mon-Fri", "time": "4:30pm"}, {"days": "Sat", "time": "9:30am"}, {"days": "Sun", "time": "Closed"}], "id": "7952100000", "name": "USPS COLLECTION BOX - BLUE BOX", "address": {"city": "HASKELL", "state": "TX", "street": "201 S 1ST ST", "postcode": "79521"}}},
{"geometry": {"type": "Point", "coordinates": [-99.7303458264, 33.1564969622]}, "type": "Feature", "properties": {"collection_times": [{"days": "Mon-Fri", "time": "4:30pm"}, {"days": "Sat", "time": "9:30am"}, {"days": "Sun", "time": "Closed"}], "id": "7952100003", "name": "USPS COLLECTION BOX - PO LOBBY", "address": {"city": "HASKELL", "state": "TX", "street": "201 S 1ST ST", "postcode": "79521"}}},
{"geometry": {"type": "Point", "coordinates": [-99.7303458264, 33.1564969622]}, "type": "Feature", "properties": {"collection_times": [{"days": "Mon-Fri", "time": "4:30pm"}, {"days": "Sat", "time": "9:30am"}, {"days": "Sun", "time": "Closed"}], "id": "7952100005", "name": "USPS COLLECTION BOX - BLUE BOX", "address": {"city": "HASKELL", "state": "TX", "street": "201 S 1ST ST", "postcode": "79521"}}},
{"geometry": {"type": "Point", "coordinates": [-99.8225701036, 32.6145310243]}, "type": "Feature", "properties": {"collection_times": [{"days": "Mon-Fri", "time": "4:00pm"}, {"days": "Sat", "time": "9:00am"}, {"days": "Sun", "time": "Closed"}], "id": "7952500000", "name": "USPS COLLECTION BOX - BLUE BOX", "address": {"city": "HAWLEY", "state": "TX", "street": "525 E ACCESS RD", "postcode": "79525"}}},
{"geometry": {"type": "Point", "coordinates": [-99.8225701036, 32.6145310243]}, "type": "Feature", "properties": {"collection_times": [{"days": "Mon-Fri", "time": "4:00pm"}, {"days": "Sat-Sun", "time": "Closed"}], "id": "7952500002", "name": "USPS COLLECTION BOX - PO LOBBY", "address": {"city": "HAWLEY", "state": "TX", "street": "525 E ACCESS RD", "postcode": "79525"}}},
{"geometry": {"type": "Point", "coordinates": [-100.7596228866, 32.636280289]}, "type": "Feature", "properties": {"collection_times": [{"days": "Mon-Fri", "time": "3:15pm"}, {"days": "Sat", "time": "8:00am"}, {"days": "Sun", "time": "Closed"}], "id": "7952600000", "name": "USPS COLLECTION BOX - BLUE BOX", "address": {"city": "HERMLEIGH", "state": "TX", "street": "580 JAMES ST", "postcode": "79526"}}},
{"geometry": {"type": "Point", "coordinates": [-100.7596228866, 32.636280289]}, "type": "Feature", "properties": {"collection_times": [{"days": "Mon-Fri", "time": "3:15pm"}, {"days": "Sat", "time": "8:00am"}, {"days": "Sun", "time": "Closed"}], "id": "7952600002", "name": "USPS COLLECTION BOX - PO LOBBY", "address": {"city": "HERMLEIGH", "state": "TX", "street": "580 JAMES ST", "postcode": "79526"}}},
{"geometry": {"type": "Point", "coordinates": [-101.0039954147, 32.581938783]}, "type": "Feature", "properties": {"collection_times": [{"days": "Mon-Fri", "time": "3:45pm"}, {"days": "Sat", "time": "11:15am"}, {"days": "Sun", "time": "Closed"}], "id": "7952700000", "name": "USPS COLLECTION BOX - BLUE BOX", "address": {"city": "IRA", "state": "TX", "street": "6071 W FM 1606", "postcode": "79527"}}},
{"geometry": {"type": "Point", "coordinates": [-101.0039954147, 32.581938783]}, "type": "Feature", "properties": {"collection_times": [{"days": "Mon-Fri", "time": "3:45pm"}, {"days": "Sat", "time": "11:15am"}, {"days": "Sun", "time": "Closed"}], "id": "7952700002", "name": "USPS COLLECTION BOX - PO LOBBY", "address": {"city": "IRA", "state": "TX", "street": "6071 W FM 1606", "postcode": "79527"}}},
{"geometry": {"type": "Point", "coordinates": [-100.5738042176, 33.2455328346]}, "type": "Feature", "properties": {"collection_times": [{"days": "Mon-Fri", "time": "3:30pm"}, {"days": "Sat", "time": "9:00am"}, {"days": "Sun", "time": "Closed"}], "id": "7952800001", "name": "USPS COLLECTION BOX - BLUE BOX", "address": {"city": "JAYTON", "state": "TX", "street": "840 S MAIN ST", "postcode": "79528"}}},
{"geometry": {"type": "Point", "coordinates": [-100.5738042176, 33.2455328346]}, "type": "Feature", "properties": {"collection_times": [{"days": "Mon-Fri", "time": "3:30pm"}, {"days": "Sat", "time": "9:00am"}, {"days": "Sun", "time": "Closed"}], "id": "7952800003", "name": "USPS COLLECTION BOX - PO LOBBY", "address": {"city": "JAYTON", "state": "TX", "street": "840 S MAIN ST", "postcode": "79528"}}},
{"geometry": {"type": "Point", "coordinates": [-99.817867825, 33.418664003]}, "type": "Feature", "properties": {"collection_times": [{"days": "Mon-Fri", "time": "4:00pm"}, {"days": "Sat", "time": "9:15am"}, {"days": "Sun", "time": "Closed"}], "id": "7952900000", "name": "USPS COLLECTION BOX - BLUE BOX", "address": {"city": "KNOX CITY", "state": "TX", "street": "107 N AVENUE A", "postcode": "79529"}}},
{"geometry": {"type": "Point", "coordinates": [-99.817867825, 33.418664003]}, "type": "Feature", "properties": {"collection_times": [{"days": "Mon-Fri", "time": "4:00pm"}, {"days": "Sat-Sun", "time": "Closed"}], "id": "7952900001", "name": "USPS COLLECTION BOX - PO LOBBY", "address": {"city": "KNOX CITY", "state": "TX", "street": "107 N AVENUE A", "postcode": "79529"}}},
{"geometry": {"type": "Point", "coordinates": [-99.745307388, 32.1350214029]}, "type": "Feature", "properties": {"collection_times": [{"days": "Mon-Fri", "time": "3:00pm"}, {"days": "Sat", "time": "8:00am"}, {"days": "Sun", "time": "Closed"}], "id": "7953000000", "name": "USPS COLLECTION BOX - BLUE BOX", "address": {"city": "LAWN", "state": "TX", "street": "151 MAIN ST", "postcode": "79530"}}},
{"geometry": {"type": "Point", "coordinates": [-99.745307388, 32.1350214029]}, "type": "Feature", "properties": {"collection_times": [{"days": "Mon-Fri", "time": "3:00pm"}, {"days": "Sat", "time": "8:00am"}, {"days": "Sun", "time": "Closed"}], "id": "7953000002", "name": "USPS COLLECTION BOX - PO LOBBY", "address": {"city": "LAWN", "state": "TX", "street": "151 MAIN ST", "postcode": "79530"}}},
{"geometry": {"type": "Point", "coordinates": [-100.7121868385, 32.4109370676]}, "type": "Feature", "properties": {"collection_times": [{"days": "Mon-Fri", "time": "12:00pm"}, {"days": "Sat-Sun", "time": "Closed"}], "id": "7953200002", "name": "USPS COLLECTION BOX - PO LOBBY", "address": {"city": "LORAINE", "state": "TX", "street": "118 S MAIN ST", "postcode": "79532"}}},
{"geometry": {"type": "Point", "coordinates": [-99.6245797394, 32.8013826171]}, "type": "Feature", "properties": {"collection_times": [{"days": "Mon-Fri", "time": "3:00pm"}, {"days": "Sat", "time": "12:00pm"}, {"days": "Sun", "time": "Closed"}], "id": "7953300000", "name": "USPS COLLECTION BOX - BLUE BOX", "address": {"city": "LUEDERS", "state": "TX", "street": "125 E MAIN ST", "postcode": "79533"}}},
{"geometry": {"type": "Point", "coordinates": [-99.6245797394, 32.8013826171]}, "type": "Feature", "properties": {"collection_times": [{"days": "Mon-Fri", "time": "3:00pm"}, {"days": "Sat", "time": "12:00pm"}, {"days": "Sun", "time": "Closed"}], "id": "7953300001", "name": "USPS COLLECTION BOX - PO LOBBY", "address": {"city": "LUEDERS", "state": "TX", "street": "125 E MAIN ST", "postcode": "79533"}}},
{"geometry": {"type": "Point", "coordinates": [-100.2044002968, 32.782014364]}, "type": "Feature", "properties": {"collection_times": [{"days": "Mon-Fri", "time": "2:45pm"}, {"days": "Sat-Sun", "time": "Closed"}], "id": "7953400000", "name": "USPS COLLECTION BOX - PO LOBBY", "address": {"city": "MCCAULLEY", "state": "TX", "street": "1238 COUNTY ROAD 764", "postcode": "79534"}}},
{"geometry": {"type": "Point", "coordinates": [-100.2044002968, 32.782014364]}, "type": "Feature", "properties": {"collection_times": [{"days": "Mon-Fri", "time": "2:45pm"}, {"days": "Sat", "time": "8:00am"}, {"days": "Sun", "time": "Closed"}], "id": "7953400001", "name": "USPS COLLECTION BOX - BLUE BOX", "address": {"city": "MCCAULLEY", "state": "TX", "street": "1238 COUNTY ROAD 764", "postcode": "79534"}}},
{"geometry": {"type": "Point", "coordinates": [-100.4542666388, 32.2345675009]}, "type": "Feature", "properties": {"collection_times": [{"days": "Mon-Fri", "time": "11:00am"}, {"days": "Sat", "time": "11:15am"}, {"days": "Sun", "time": "Closed"}], "id": "7953500001", "name": "USPS COLLECTION BOX - PO LOBBY", "address": {"city": "MARYNEAL", "state": "TX", "street": "11126 FM 608", "postcode": "79535"}}},
{"geometry": {"type": "Point", "coordinates": [-100.0111871481, 32.4718177097]}, "type": "Feature", "properties": {"collection_times": [{"days": "Mon-Fri", "time": "4:00pm"}, {"days": "Sat", "time": "12:00pm"}, {"days": "Sun", "time": "Closed"}], "id": "7953600002", "name": "USPS COLLECTION BOX - BLUE BOX", "address": {"city": "MERKEL", "state": "TX", "street": "222 EDWARDS", "postcode": "79536"}}},
{"geometry": {"type": "Point", "coordinates": [-100.0111871481, 32.4718177097]}, "type": "Feature", "properties": {"collection_times": [{"days": "Mon-Fri", "time": "4:00pm"}, {"days": "Sat-Sun", "time": "Closed"}], "id": "7953600003", "name": "USPS COLLECTION BOX - PO LOBBY", "address": {"city": "MERKEL", "state": "TX", "street": "222 EDWARDS", "postcode": "79536"}}},
{"geometry": {"type": "Point", "coordinates": [-100.2299646991, 32.2762307712]}, "type": "Feature", "properties": {"collection_times": [{"days": "Mon-Sat", "time": "10:30am"}, {"days": "Sun", "time": "Closed"}], "id": "7953700000", "name": "USPS COLLECTION BOX - BLUE BOX", "address": {"city": "NOLAN", "state": "TX", "street": "1745 FM 126", "postcode": "79537"}}},
{"geometry": {"type": "Point", "coordinates": [-100.2299646991, 32.2762307712]}, "type": "Feature", "properties": {"collection_times": [{"days": "Mon-Sat", "time": "10:30am"}, {"days": "Sun", "time": "Closed"}], "id": "7953700001", "name": "USPS COLLECTION BOX - PO LOBBY", "address": {"city": "NOLAN", "state": "TX", "street": "1745 FM 126", "postcode": "79537"}}},
{"geometry": {"type": "Point", "coordinates": [-99.6681318201, 31.9663364363]}, "type": "Feature", "properties": {"collection_times": [{"days": "Mon-Fri", "time": "1:00pm"}, {"days": "Sat", "time": "9:30am"}, {"days": "Sun", "time": "Closed"}], "id": "7953800002", "name": "USPS COLLECTION BOX - PO LOBBY", "address": {"city": "NOVICE", "state": "TX", "street": "700 PARKER ST", "postcode": "79538"}}},
{"geometry": {"type": "Point", "coordinates": [-99.8423612594, 33.379482411]}, "type": "Feature", "properties": {"collection_times": [{"days": "Mon-Fri", "time": "10:45am"}, {"days": "Sat-Sun", "time": "Closed"}], "id": "7953900000", "name": "USPS COLLECTION BOX - PO LOBBY", "address": {"city": "O BRIEN", "state": "TX", "street": "601 9TH ST", "postcode": "79539"}}},
{"geometry": {"type": "Point", "coordinates": [-99.8423612594, 33.379482411]}, "type": "Feature", "properties": {"collection_times": [{"days": "Mon-Fri", "time": "3:45pm"}, {"days": "Sat", "time": "8:30am"}, {"days": "Sun", "time": "Closed"}], "id": "7953900001", "name": "USPS COLLECTION BOX - BLUE BOX", "address": {"city": "O BRIEN", "state": "TX", "street": "601 9TH ST", "postcode": "79539"}}},
{"geometry": {"type": "Point", "coordinates": [-100.1437637564, 33.2671375753]}, "type": "Feature", "properties": {"collection_times": [{"days": "Mon-Fri", "time": "1:30pm"}, {"days": "Sat", "time": "7:30am"}, {"days": "Sun", "time": "Closed"}], "id": "7954000000", "name": "USPS COLLECTION BOX - BLUE BOX", "address": {"city": "OLD GLORY", "state": "TX", "street": "9080 FM 1835", "postcode": "79540"}}},
{"geometry": {"type": "Point", "coordinates": [-100.1437637564, 33.2671375753]}, "type": "Feature", "properties": {"collection_times": [{"days": "Mon-Fri", "time": "1:30pm"}, {"days": "Sat", "time": "7:30am"}, {"days": "Sun", "time": "Closed"}], "id": "7954000001", "name": "USPS COLLECTION BOX - PO LOBBY", "address": {"city": "OLD GLORY", "state": "TX", "street": "9080 FM 1835", "postcode": "79540"}}},
{"geometry": {"type": "Point", "coordinates": [-99.7927052245, 32.1745856838]}, "type": "Feature", "properties": {"collection_times": [{"days": "Mon-Fri", "time": "12:00pm"}, {"days": "Sat", "time": "9:30am"}, {"days": "Sun", "time": "Closed"}], "id": "7954100001", "name": "USPS COLLECTION BOX - PO LOBBY", "address": {"city": "OVALO", "state": "TX", "street": "3010 FM 614", "postcode": "79541"}}},
{"geometry": {"type": "Point", "coordinates": [-100.3778545637, 32.746116394]}, "type": "Feature", "properties": {"collection_times": [{"days": "Mon-Fri", "time": "4:00pm"}, {"days": "Sat", "time": "8:00am"}, {"days": "Sun", "time": "Closed"}], "id": "7954300000", "name": "USPS COLLECTION BOX - PO LOBBY", "address": {"city": "ROBY", "state": "TX", "street": "117 E NORTH 1ST ST", "postcode": "79543"}}},
{"geometry": {"type": "Point", "coordinates": [-100.3778545637, 32.746116394]}, "type": "Feature", "properties": {"collection_times": [{"days": "Mon-Fri", "time": "4:00pm"}, {"days": "Sat", "time": "8:00am"}, {"days": "Sun", "time": "Closed"}], "id": "7954300001", "name": "USPS COLLECTION BOX - BLUE BOX", "address": {"city": "ROBY", "state": "TX", "street": "117 E NORTH 1ST ST", "postcode": "79543"}}},
{"geometry": {"type": "Point", "coordinates": [-99.8548098176, 33.3158851822]}, "type": "Feature", "properties": {"collection_times": [{"days": "Mon-Fri", "time": "3:45pm"}, {"days": "Sat", "time": "8:30am"}, {"days": "Sun", "time": "Closed"}], "id": "7954400000", "name": "USPS COLLECTION BOX - BLUE BOX", "address": {"city": "ROCHESTER", "state": "TX", "street": "213 CAROTHERS ST", "postcode": "79544"}}},
{"geometry": {"type": "Point", "coordinates": [-99.8548098176, 33.3158851822]}, "type": "Feature", "properties": {"collection_times": [{"days": "Mon-Fri", "time": "3:45pm"}, {"days": "Sat", "time": "8:30am"}, {"days": "Sun", "time": "Closed"}], "id": "7954400001", "name": "USPS COLLECTION BOX - PO LOBBY", "address": {"city": "ROCHESTER", "state": "TX", "street": "213 CAROTHERS ST", "postcode": "79544"}}},
{"geometry": {"type": "Point", "coordinates": [-100.5373186389, 32.4457953538]}, "type": "Feature", "properties": {"collection_times": [{"days": "Mon-Fri", "time": "3:30pm"}, {"days": "Sat", "time": "8:45am"}, {"days": "Sun", "time": "Closed"}], "id": "7954500001", "name": "USPS COLLECTION BOX - BLUE BOX", "address": {"city": "ROSCOE", "state": "TX", "street": "115 MAIN ST", "postcode": "79545"}}},
{"geometry": {"type": "Point", "coordinates": [-100.5373186389, 32.4457953538]}, "type": "Feature", "properties": {"collection_times": [{"days": "Mon-Fri", "time": "3:30pm"}, {"days": "Sat", "time": "8:45am"}, {"days": "Sun", "time": "Closed"}], "id": "7954500002", "name": "USPS COLLECTION BOX - PO LOBBY", "address": {"city": "ROSCOE", "state": "TX", "street": "115 MAIN ST", "postcode": "79545"}}},
{"geometry": {"type": "Point", "coordinates": [-100.4673858695, 32.8528939823]}, "type": "Feature", "properties": {"collection_times": [{"days": "Mon-Fri", "time": "3:45pm"}, {"days": "Sat", "time": "9:00am"}, {"days": "Sun", "time": "Closed"}], "id": "7954600000", "name": "USPS COLLECTION BOX - BLUE BOX", "address": {"city": "ROTAN", "state": "TX", "street": "201 N GARFIELD AVE", "postcode": "79546"}}},
{"geometry": {"type": "Point", "coordinates": [-100.4673858695, 32.8528939823]}, "type": "Feature", "properties": {"collection_times": [{"days": "Mon-Fri", "time": "3:45pm"}, {"days": "Sat", "time": "9:00am"}, {"days": "Sun", "time": "Closed"}], "id": "7954600001", "name": "USPS COLLECTION BOX - PO LOBBY", "address": {"city": "ROTAN", "state": "TX", "street": "201 N GARFIELD AVE", "postcode": "79546"}}},
{"geometry": {"type": "Point", "coordinates": [-99.9024689961, 33.1968044549]}, "type": "Feature", "properties": {"collection_times": [{"days": "Mon-Fri", "time": "3:00pm"}, {"days": "Sat", "time": "9:00am"}, {"days": "Sun", "time": "Closed"}], "id": "7954700000", "name": "USPS COLLECTION BOX - BLUE BOX", "address": {"city": "RULE", "state": "TX", "street": "503 6TH ST", "postcode": "79547"}}},
{"geometry": {"type": "Point", "coordinates": [-99.9024689961, 33.1968044549]}, "type": "Feature", "properties": {"collection_times": [{"days": "Mon-Fri", "time": "11:30am"}, {"days": "Sat-Sun", "time": "Closed"}], "id": "7954700002", "name": "USPS COLLECTION BOX - PO LOBBY", "address": {"city": "RULE", "state": "TX", "street": "503 6TH ST", "postcode": "79547"}}},
{"geometry": {"type": "Point", "coordinates": [-100.9191353119, 32.69202496]}, "type": "Feature", "properties": {"collection_times": [{"days": "Mon-Sat", "time": "11:30am"}, {"days": "Sun", "time": "Closed"}], "id": "7954900004", "name": "USPS COLLECTION BOX - BLUE BOX", "address": {"city": "SNYDER", "state": "TX", "street": "5110 COLLEGE AVE", "postcode": "79549"}}},
{"geometry": {"type": "Point", "coordinates": [-100.9165076151, 32.7113239935]}, "type": "Feature", "properties": {"collection_times": [{"days": "Mon-Sat", "time": "3:00pm"}, {"days": "Sun", "time": "Closed"}], "id": "7954900006", "name": "USPS COLLECTION BOX - BLUE BOX", "address": {"city": "SNYDER", "state": "TX", "street": "1808 VARSITY SQUARE CTR", "postcode": "79549"}}},
{"geometry": {"type": "Point", "coordinates": [-100.9159699439, 32.7182391523]}, "type": "Feature", "properties": {"collection_times": [{"days": "Mon-Fri", "time": "4:45pm"}, {"days": "Sat", "time": "4:30pm"}, {"days": "Sun", "time": "Closed"}], "id": "7954900019", "name": "USPS COLLECTION BOX - BLUE BOX", "address": {"city": "SNYDER", "state": "TX", "street": "1701 24TH ST", "postcode": "79549"}}},
{"geometry": {"type": "Point", "coordinates": [-100.9172553315, 32.7172557131]}, "type": "Feature", "properties": {"collection_times": [{"days": "Mon-Sat", "time": "3:00pm"}, {"days": "Sun", "time": "Closed"}], "id": "7954900021", "name": "USPS COLLECTION BOX - BLUE BOX", "address": {"city": "SNYDER", "state": "TX", "street": "1806 25TH ST", "postcode": "79549"}}},
{"geometry": {"type": "Point", "coordinates": [-100.9159699439, 32.7182391523]}, "type": "Feature", "properties": {"collection_times": [{"days": "Mon-Fri", "time": "4:45pm"}, {"days": "Sat", "time": "4:30pm"}, {"days": "Sun", "time": "Closed"}], "id": "7954900023", "name": "USPS COLLECTION BOX - PO LOBBY", "address": {"city": "SNYDER", "state": "TX", "street": "1701 24TH ST", "postcode": "79549"}}},
{"geometry": {"type": "Point", "coordinates": [-100.9159699439, 32.7182391523]}, "type": "Feature", "properties": {"collection_times": [{"days": "Mon-Fri", "time": "4:45pm"}, {"days": "Sat", "time": "4:30pm"}, {"days": "Sun", "time": "Closed"}], "id": "7954900024", "name": "USPS COLLECTION BOX - PO LOBBY", "address": {"city": "SNYDER", "state": "TX", "street": "1701 24TH ST", "postcode": "79549"}}},
{"geometry": {"type": "Point", "coordinates": [-99.8029928997, 32.9450648475]}, "type": "Feature", "properties": {"collection_times": [{"days": "Mon-Fri", "time": "4:30pm"}, {"days": "Sat", "time": "9:30am"}, {"days": "Sun", "time": "Closed"}], "id": "7955300001", "name": "USPS COLLECTION BOX - BLUE BOX", "address": {"city": "STAMFORD", "state": "TX", "street": "115 S SWENSON ST", "postcode": "79553"}}},
{"geometry": {"type": "Point", "coordinates": [-99.8029928997, 32.9450648475]}, "type": "Feature", "properties": {"collection_times": [{"days": "Mon-Fri", "time": "4:30pm"}, {"days": "Sat", "time": "9:30am"}, {"days": "Sun", "time": "Closed"}], "id": "7955300002", "name": "USPS COLLECTION BOX - BLUE BOX", "address": {"city": "STAMFORD", "state": "TX", "street": "115 S SWENSON ST", "postcode": "79553"}}},
{"geometry": {"type": "Point", "coordinates": [-99.8029928997, 32.9450648475]}, "type": "Feature", "properties": {"collection_times": [{"days": "Mon-Fri", "time": "4:30pm"}, {"days": "Sat", "time": "9:30am"}, {"days": "Sun", "time": "Closed"}], "id": "7955300003", "name": "USPS COLLECTION BOX - PO LOBBY", "address": {"city": "STAMFORD", "state": "TX", "street": "115 S SWENSON ST", "postcode": "79553"}}},
{"geometry": {"type": "Point", "coordinates": [-100.4089632691, 32.4709479756]}, "type": "Feature", "properties": {"collection_times": [{"days": "Mon-Sat", "time": "3:00pm"}, {"days": "Sun", "time": "Closed"}], "id": "7955600000", "name": "USPS COLLECTION BOX - BLUE BOX", "address": {"city": "SWEETWATER", "state": "TX", "street": "100 E 3RD ST", "postcode": "79556"}}},
{"geometry": {"type": "Point", "coordinates": [-100.3148617915, 32.4803963449]}, "type": "Feature", "properties": {"collection_times": [{"days": "Mon-Sat", "time": "9:00am"}, {"days": "Sun", "time": "Closed"}], "id": "7955600001", "name": "USPS COLLECTION BOX - BLUE BOX", "address": {"city": "SWEETWATER", "state": "TX", "street": "300 HOMER K TAYLOR DR", "postcode": "79556"}}},
{"geometry": {"type": "Point", "coordinates": [-100.401148888, 32.4597613577]}, "type": "Feature", "properties": {"collection_times": [{"days": "Mon-Sat", "time": "2:45pm"}, {"days": "Sun", "time": "Closed"}], "id": "7955600002", "name": "USPS COLLECTION BOX - BLUE BOX", "address": {"city": "SWEETWATER", "state": "TX", "street": "1008 LAMAR ST", "postcode": "79556"}}},
{"geometry": {"type": "Point", "coordinates": [-100.3941278698, 32.4506269182]}, "type": "Feature", "properties": {"collection_times": [{"days": "Mon-Sat", "time": "12:30pm"}, {"days": "Sun", "time": "Closed"}], "id": "7955600003", "name": "USPS COLLECTION BOX - BLUE BOX", "address": {"city": "SWEETWATER", "state": "TX", "street": "210 SE GEORGIA AVE", "postcode": "79556"}}},
{"geometry": {"type": "Point", "coordinates": [-100.4009404041, 32.4835782693]}, "type": "Feature", "properties": {"collection_times": [{"days": "Mon-Sat", "time": "2:45pm"}, {"days": "Sun", "time": "Closed"}], "id": "7955600005", "name": "USPS COLLECTION BOX - BLUE BOX", "address": {"city": "SWEETWATER", "state": "TX", "street": "1413 HAILEY ST", "postcode": "79556"}}},
{"geometry": {"type": "Point", "coordinates": [-100.3975597975, 32.475198255]}, "type": "Feature", "properties": {"collection_times": [{"days": "Mon-Fri", "time": "10:00am"}, {"days": "Sat", "time": "9:00am"}, {"days": "Sun", "time": "Closed"}], "id": "7955600008", "name": "USPS COLLECTION BOX - BLUE BOX", "address": {"city": "SWEETWATER", "state": "TX", "street": "1106 E BROADWAY ST", "postcode": "79556"}}},
{"geometry": {"type": "Point", "coordinates": [-100.4079487416, 32.4715564569]}, "type": "Feature", "properties": {"collection_times": [{"days": "Mon-Fri", "time": "5:15pm"}, {"days": "Sat", "time": "4:00pm"}, {"days": "Sun", "time": "Closed"}], "id": "7955600011", "name": "USPS COLLECTION BOX - BLUE BOX", "address": {"city": "SWEETWATER", "state": "TX", "street": "201 E 3RD ST", "postcode": "79556"}}},
{"geometry": {"type": "Point", "coordinates": [-100.4079487416, 32.4715564569]}, "type": "Feature", "properties": {"collection_times": [{"days": "Mon-Fri", "time": "5:15pm"}, {"days": "Sat", "time": "4:00pm"}, {"days": "Sun", "time": "Closed"}], "id": "7955600012", "name": "USPS COLLECTION BOX - BLUE BOX", "address": {"city": "SWEETWATER", "state": "TX", "street": "201 E 3RD ST", "postcode": "79556"}}},
{"geometry": {"type": "Point", "coordinates": [-100.4079487416, 32.4715564569]}, "type": "Feature", "properties": {"collection_times": [{"days": "Mon-Fri", "time": "5:15pm"}, {"days": "Sat", "time": "4:00pm"}, {"days": "Sun", "time": "Closed"}], "id": "7955600013", "name": "USPS COLLECTION BOX - PO LOBBY", "address": {"city": "SWEETWATER", "state": "TX", "street": "201 E 3RD ST", "postcode": "79556"}}},
{"geometry": {"type": "Point", "coordinates": [-100.4079487416, 32.4715564569]}, "type": "Feature", "properties": {"collection_times": [{"days": "Mon-Fri", "time": "5:15pm"}, {"days": "Sat", "time": "4:00pm"}, {"days": "Sun", "time": "Closed"}], "id": "7955600014", "name": "USPS COLLECTION BOX - PO LOBBY", "address": {"city": "SWEETWATER", "state": "TX", "street": "201 E 3RD ST", "postcode": "79556"}}},
{"geometry": {"type": "Point", "coordinates": [-100.407868583, 32.4715803189]}, "type": "Feature", "properties": {"collection_times": [{"days": "Mon-Fri", "time": "5:15pm"}, {"days": "Sat", "time": "4:00pm"}, {"days": "Sun", "time": "Closed"}], "id": "7955600017", "name": "USPS COLLECTION BOX - BLUE BOX", "address": {"city": "SWEETWATER", "state": "TX", "street": "201 E 3RD ST", "postcode": "79556"}}},
{"geometry": {"type": "Point", "coordinates": [-100.2484284257, 32.7246086354]}, "type": "Feature", "properties": {"collection_times": [{"days": "Mon-Fri", "time": "1:00pm"}, {"days": "Sat", "time": "7:30am"}, {"days": "Sun", "time": "Closed"}], "id": "7956000000", "name": "USPS COLLECTION BOX - PO LOBBY", "address": {"city": "SYLVESTER", "state": "TX", "street": "399 FM 57 S", "postcode": "79560"}}},
{"geometry": {"type": "Point", "coordinates": [-100.2484284257, 32.7246086354]}, "type": "Feature", "properties": {"collection_times": [{"days": "Mon-Fri", "time": "1:00pm"}, {"days": "Sat", "time": "7:30am"}, {"days": "Sun", "time": "Closed"}], "id": "7956000001", "name": "USPS COLLECTION BOX - BLUE BOX", "address": {"city": "SYLVESTER", "state": "TX", "street": "399 FM 57 S", "postcode": "79560"}}},
{"geometry": {"type": "Point", "coordinates": [-100.1214019828, 32.4890869359]}, "type": "Feature", "properties": {"collection_times": [{"days": "Mon-Fri", "time": "3:00pm"}, {"days": "Sat", "time": "7:30am"}, {"days": "Sun", "time": "Closed"}], "id": "7956100000", "name": "USPS COLLECTION BOX - BLUE BOX", "address": {"city": "TRENT", "state": "TX", "street": "141 N MAIN ST", "postcode": "79561"}}},
{"geometry": {"type": "Point", "coordinates": [-100.1214019828, 32.4890869359]}, "type": "Feature", "properties": {"collection_times": [{"days": "Mon-Fri", "time": "3:00pm"}, {"days": "Sat-Sun", "time": "Closed"}], "id": "7956100001", "name": "USPS COLLECTION BOX - PO LOBBY", "address": {"city": "TRENT", "state": "TX", "street": "141 N MAIN ST", "postcode": "79561"}}},
{"geometry": {"type": "Point", "coordinates": [-99.7994139785, 32.2096769094]}, "type": "Feature", "properties": {"collection_times": [{"days": "Mon-Fri", "time": "3:00pm"}, {"days": "Sat", "time": "8:15am"}, {"days": "Sun", "time": "Closed"}], "id": "7956200000", "name": "USPS COLLECTION BOX - BLUE BOX", "address": {"city": "TUSCOLA", "state": "TX", "street": "742 GRAHAM ST", "postcode": "79562"}}},
{"geometry": {"type": "Point", "coordinates": [-99.7994139785, 32.2096769094]}, "type": "Feature", "properties": {"collection_times": [{"days": "Mon-Fri", "time": "3:00pm"}, {"days": "Sat", "time": "8:15am"}, {"days": "Sun", "time": "Closed"}], "id": "7956200003", "name": "USPS COLLECTION BOX - PO LOBBY", "address": {"city": "TUSCOLA", "state": "TX", "street": "742 GRAHAM ST", "postcode": "79562"}}},
{"geometry": {"type": "Point", "coordinates": [-99.8698469419, 32.4587594169]}, "type": "Feature", "properties": {"collection_times": [{"days": "Mon-Fri", "time": "3:15pm"}, {"days": "Sat", "time": "9:00am"}, {"days": "Sun", "time": "Closed"}], "id": "7956300005", "name": "USPS COLLECTION BOX - BLUE BOX", "address": {"city": "TYE", "state": "TX", "street": "200 TAYLOR ST", "postcode": "79563"}}},
{"geometry": {"type": "Point", "coordinates": [-99.8698469419, 32.4587594169]}, "type": "Feature", "properties": {"collection_times": [{"days": "Mon-Fri", "time": "3:15pm"}, {"days": "Sat", "time": "9:00am"}, {"days": "Sun", "time": "Closed"}], "id": "7956300006", "name": "USPS COLLECTION BOX - PO LOBBY", "address": {"city": "TYE", "state": "TX", "street": "200 TAYLOR ST", "postcode": "79563"}}},
{"geometry": {"type": "Point", "coordinates": [-99.8698469419, 32.4587594169]}, "type": "Feature", "properties": {"collection_times": [{"days": "Mon-Fri", "time": "3:15pm"}, {"days": "Sat", "time": "9:00am"}, {"days": "Sun", "time": "Closed"}], "id": "7956300007", "name": "USPS COLLECTION BOX - PO LOBBY", "address": {"city": "TYE", "state": "TX", "street": "200 TAYLOR ST", "postcode": "79563"}}},
{"geometry": {"type": "Point", "coordinates": [-101.0367313991, 32.270939956]}, "type": "Feature", "properties": {"collection_times": [{"days": "Mon-Fri", "time": "3:15pm"}, {"days": "Sat", "time": "10:30am"}, {"days": "Sun", "time": "Closed"}], "id": "7956500000", "name": "USPS COLLECTION BOX - BLUE BOX", "address": {"city": "WESTBROOK", "state": "TX", "street": "306 N MAIN ST", "postcode": "79565"}}},
{"geometry": {"type": "Point", "coordinates": [-101.0367313991, 32.270939956]}, "type": "Feature", "properties": {"collection_times": [{"days": "Mon-Fri", "time": "3:15pm"}, {"days": "Sat-Sun", "time": "Closed"}], "id": "7956500001", "name": "USPS COLLECTION BOX - PO LOBBY", "address": {"city": "WESTBROOK", "state": "TX", "street": "306 N MAIN ST", "postcode": "79565"}}},
{"geometry": {"type": "Point", "coordinates": [-100.109645459, 32.0433743134]}, "type": "Feature", "properties": {"collection_times": [{"days": "Mon-Fri", "time": "3:45pm"}, {"days": "Sat", "time": "10:45am"}, {"days": "Sun", "time": "Closed"}], "id": "7956600000", "name": "USPS COLLECTION BOX - BLUE BOX", "address": {"city": "WINGATE", "state": "TX", "street": "106 LYNN ST", "postcode": "79566"}}},
{"geometry": {"type": "Point", "coordinates": [-100.109645459, 32.0433743134]}, "type": "Feature", "properties": {"collection_times": [{"days": "Mon-Fri", "time": "3:45pm"}, {"days": "Sat", "time": "10:45am"}, {"days": "Sun", "time": "Closed"}], "id": "7956600001", "name": "USPS COLLECTION BOX - PO LOBBY", "address": {"city": "WINGATE", "state": "TX", "street": "106 LYNN ST", "postcode": "79566"}}},
{"geometry": {"type": "Point", "coordinates": [-99.9629453215, 31.9563505946]}, "type": "Feature", "properties": {"collection_times": [{"days": "Mon-Fri", "time": "4:15pm"}, {"days": "Sat", "time": "1:00pm"}, {"days": "Sun", "time": "Closed"}], "id": "7956700000", "name": "USPS COLLECTION BOX - BLUE BOX", "address": {"city": "WINTERS", "state": "TX", "street": "221 S MAIN ST", "postcode": "79567"}}},
{"geometry": {"type": "Point", "coordinates": [-99.9629453215, 31.9563505946]}, "type": "Feature", "properties": {"collection_times": [{"days": "Mon-Fri", "time": "4:15pm"}, {"days": "Sat", "time": "1:00pm"}, {"days": "Sun", "time": "Closed"}], "id": "7956700002", "name": "USPS COLLECTION BOX - PO LOBBY", "address": {"city": "WINTERS", "state": "TX", "street": "221 S MAIN ST", "postcode": "79567"}}}
]}
