{"type": "FeatureCollection", "features": [
{"geometry": {"type": "Point", "coordinates": [-99.7319142006, 32.4514537632]}, "type": "Feature", "properties": {"collection_times": [{"days": "Mon-Fri", "time": "6:00pm"}, {"days": "Sat", "time": "5:00pm"}, {"days": "Sun", "time": "Closed"}], "id": "7960100000", "name": "USPS COLLECTION BOX - BLUE BOX", "address": {"city": "ABILENE", "state": "TX", "street": "926 N 3RD ST", "postcode": "79601"}}},
{"geometry": {"type": "Point", "coordinates": [-99.7317852931, 32.4523793686]}, "type": "Feature", "properties": {"collection_times": [{"days": "Mon-Fri", "time": "6:00pm"}, {"days": "Sat", "time": "5:00pm"}, {"days": "Sun", "time": "Closed"}], "id": "7960100008", "name": "USPS COLLECTION BOX - BLUE BOX", "address": {"city": "ABILENE", "state": "TX", "street": "925 N 4TH ST", "postcode": "79601"}}},
{"geometry": {"type": "Point", "coordinates": [-99.7331590016, 32.4494548383]}, "type": "Feature", "properties": {"collection_times": [{"days": "Mon-Fri", "time": "4:15pm"}, {"days": "Sat-Sun", "time": "Closed"}], "id": "7960100011", "name": "USPS COLLECTION BOX - BLUE BOX", "address": {"city": "ABILENE", "state": "TX", "street": "104 PINE ST", "postcode": "79601"}}},
{"geometry": {"type": "Point", "coordinates": [-99.7048966198, 32.4598477732]}, "type": "Feature", "properties": {"collection_times": [{"days": "Mon-Fri", "time": "3:15pm"}, {"days": "Sat", "time": "12:30pm"}, {"days": "Sun", "time": "Closed"}], "id": "7960100028", "name": "USPS COLLECTION BOX - BLUE BOX", "address": {"city": "ABILENE", "state": "TX", "street": "1100 EN 10TH ST", "postcode": "79601"}}},
{"geometry": {"type": "Point", "coordinates": [-99.7048966198, 32.4598477732]}, "type": "Feature", "properties": {"collection_times": [{"days": "Mon-Fri", "time": "3:15pm"}, {"days": "Sat", "time": "12:30pm"}, {"days": "Sun", "time": "Closed"}], "id": "7960100029", "name": "USPS COLLECTION BOX - BLUE BOX", "address": {"city": "ABILENE", "state": "TX", "street": "1100 EN 10TH ST", "postcode": "79601"}}},
{"geometry": {"type": "Point", "coordinates": [-99.7339592626, 32.4531001412]}, "type": "Feature", "properties": {"collection_times": [{"days": "Mon-Fri", "time": "4:30pm"}, {"days": "Sat-Sun", "time": "Closed"}], "id": "7960100033", "name": "USPS COLLECTION BOX - BLUE BOX", "address": {"city": "ABILENE", "state": "TX", "street": "402 CYPRESS ST", "postcode": "79601"}}},
{"geometry": {"type": "Point", "coordinates": [-99.7339841047, 32.4528446221]}, "type": "Feature", "properties": {"collection_times": [{"days": "Mon-Fri", "time": "4:30pm"}, {"days": "Sat-Sun", "time": "Closed"}], "id": "7960100035", "name": "USPS COLLECTION BOX - BLUE BOX", "address": {"city": "ABILENE", "state": "TX", "street": "401 CYPRESS ST", "postcode": "79601"}}},
{"geometry": {"type": "Point", "coordinates": [-99.731920126, 32.4514455154]}, "type": "Feature", "properties": {"collection_times": [{"days": "Mon-Fri", "time": "6:00pm"}, {"days": "Sat", "time": "5:00pm"}, {"days": "Sun", "time": "Closed"}], "id": "7960100044", "name": "USPS COLLECTION BOX - BLUE BOX", "address": {"city": "ABILENE", "state": "TX", "street": "926 N 3RD ST", "postcode": "79601"}}},
{"geometry": {"type": "Point", "coordinates": [-99.7048966198, 32.4598477732]}, "type": "Feature", "properties": {"collection_times": [{"days": "Mon-Fri", "time": "3:15pm"}, {"days": "Sat", "time": "12:30pm"}, {"days": "Sun", "time": "Closed"}], "id": "7960100049", "name": "USPS COLLECTION BOX - BLUE BOX", "address": {"city": "ABILENE", "state": "TX", "street": "1100 EN 10TH ST", "postcode": "79601"}}},
{"geometry": {"type": "Point", "coordinates": [-99.7327964139, 32.4520816135]}, "type": "Feature", "properties": {"collection_times": [{"days": "Mon-Fri", "time": "5:00pm"}, {"days": "Sat", "time": "4:00pm"}, {"days": "Sun", "time": "Closed"}], "id": "7960100054", "name": "USPS COLLECTION BOX - PO LOBBY", "address": {"city": "ABILENE", "state": "TX", "street": "341 PINE ST", "postcode": "79601"}}},
{"geometry": {"type": "Point", "coordinates": [-99.7327964139, 32.4520816135]}, "type": "Feature", "properties": {"collection_times": [{"days": "Mon-Fri", "time": "5:00pm"}, {"days": "Sat", "time": "4:00pm"}, {"days": "Sun", "time": "Closed"}], "id": "7960100056", "name": "USPS COLLECTION BOX - PO LOBBY", "address": {"city": "ABILENE", "state": "TX", "street": "341 PINE ST", "postcode": "79601"}}},
{"geometry": {"type": "Point", "coordinates": [-99.7354871381, 32.4527638471]}, "type": "Feature", "properties": {"collection_times": [{"days": "Mon-Fri", "time": "3:45pm"}, {"days": "Sat-Sun", "time": "Closed"}], "id": "7960100058", "name": "USPS COLLECTION BOX - BLUE BOX", "address": {"city": "ABILENE", "state": "TX", "street": "1218 N 4TH ST", "postcode": "79601"}}},
{"geometry": {"type": "Point", "coordinates": [-99.7327964139, 32.4520816135]}, "type": "Feature", "properties": {"collection_times": [{"days": "Mon-Fri", "time": "5:00pm"}, {"days": "Sat", "time": "4:00pm"}, {"days": "Sun", "time": "Closed"}], "id": "7960100059", "name": "USPS COLLECTION BOX - APC", "address": {"city": "ABILENE", "state": "TX", "street": "341 PINE ST", "postcode": "79601"}}},
{"geometry": {"type": "Point", "coordinates": [-99.7151719437, 32.4879081401]}, "type": "Feature", "properties": {"collection_times": [{"days": "Mon-Fri", "time": "7:00pm"}, {"days": "Sat", "time": "6:00pm"}, {"days": "Sun", "time": "Closed"}], "id": "7960100061", "name": "USPS COLLECTION BOX - BLUE BOX", "address": {"city": "ABILENE", "state": "TX", "street": "1020 E OVERLAND TRL", "postcode": "79601"}}},
{"geometry": {"type": "Point", "coordinates": [-99.7317927892, 32.4524245354]}, "type": "Feature", "properties": {"collection_times": [{"days": "Mon-Fri", "time": "6:00pm"}, {"days": "Sat", "time": "5:00pm"}, {"days": "Sun", "time": "Closed"}], "id": "7960100063", "name": "USPS COLLECTION BOX - BLUE BOX", "address": {"city": "ABILENE", "state": "TX", "street": "925 N 4TH ST", "postcode": "79601"}}},
{"geometry": {"type": "Point", "coordinates": [-99.7311631577, 32.4721905889]}, "type": "Feature", "properties": {"collection_times": [{"days": "Mon-Sat", "time": "9:30am"}, {"days": "Sun", "time": "Closed"}], "id": "7960100065", "name": "USPS COLLECTION BOX - BLUE BOX", "address": {"city": "ABILENE", "state": "TX", "street": "1904 PINE ST", "postcode": "79601"}}},
{"geometry": {"type": "Point", "coordinates": [-99.7054521917, 32.4350511579]}, "type": "Feature", "properties": {"collection_times": [{"days": "Mon-Fri", "time": "2:30pm"}, {"days": "Sat-Sun", "time": "Closed"}], "id": "7960200003", "name": "USPS COLLECTION BOX - BLUE BOX", "address": {"city": "ABILENE", "state": "TX", "street": "1150 ESTATES DR", "postcode": "79602"}}},
{"geometry": {"type": "Point", "coordinates": [-99.7007134961, 32.4014787954]}, "type": "Feature", "properties": {"collection_times": [{"days": "Mon-Fri", "time": "3:30pm"}, {"days": "Sat-Sun", "time": "Closed"}], "id": "7960200015", "name": "USPS COLLECTION BOX - BLUE BOX", "address": {"city": "ABILENE", "state": "TX", "street": "350 E INDUSTRIAL BLVD", "postcode": "79602"}}},
{"geometry": {"type": "Point", "coordinates": [-99.7328638426, 32.4448478195]}, "type": "Feature", "properties": {"collection_times": [{"days": "Mon-Fri", "time": "4:15pm"}, {"days": "Sat-Sun", "time": "Closed"}], "id": "7960200018", "name": "USPS COLLECTION BOX - BLUE BOX", "address": {"city": "ABILENE", "state": "TX", "street": "400 OAK ST", "postcode": "79602"}}},
{"geometry": {"type": "Point", "coordinates": [-99.7340393079, 32.4464904177]}, "type": "Feature", "properties": {"collection_times": [{"days": "Mon-Fri", "time": "4:00pm"}, {"days": "Sat-Sun", "time": "Closed"}], "id": "7960200019", "name": "USPS COLLECTION BOX - BLUE BOX", "address": {"city": "ABILENE", "state": "TX", "street": "300 CHESTNUT ST", "postcode": "79602"}}},
{"geometry": {"type": "Point", "coordinates": [-99.7417395837, 32.4013255762]}, "type": "Feature", "properties": {"collection_times": [{"days": "Mon-Fri", "time": "3:45pm"}, {"days": "Sat-Sun", "time": "Closed"}], "id": "7960200020", "name": "USPS COLLECTION BOX - BLUE BOX", "address": {"city": "ABILENE", "state": "TX", "street": "1500 INDUSTRIAL BLVD", "postcode": "79602"}}},
{"geometry": {"type": "Point", "coordinates": [-99.7417395837, 32.4013255762]}, "type": "Feature", "properties": {"collection_times": [{"days": "Mon-Fri", "time": "3:45pm"}, {"days": "Sat-Sun", "time": "Closed"}], "id": "7960200021", "name": "USPS COLLECTION BOX - BLUE BOX", "address": {"city": "ABILENE", "state": "TX", "street": "1500 INDUSTRIAL BLVD", "postcode": "79602"}}},
{"geometry": {"type": "Point", "coordinates": [-99.7633394801, 32.4741990652]}, "type": "Feature", "properties": {"collection_times": [{"days": "Mon-Fri", "time": "3:00pm"}, {"days": "Sat", "time": "3:15pm"}, {"days": "Sun", "time": "Closed"}], "id": "7960300000", "name": "USPS COLLECTION BOX - BLUE BOX", "address": {"city": "ABILENE", "state": "TX", "street": "3366 AMBLER AVE", "postcode": "79603"}}},
{"geometry": {"type": "Point", "coordinates": [-99.7579027505, 32.4637171751]}, "type": "Feature", "properties": {"collection_times": [{"days": "Mon-Sat", "time": "3:15pm"}, {"days": "Sun", "time": "Closed"}], "id": "7960300005", "name": "USPS COLLECTION BOX - BLUE BOX", "address": {"city": "ABILENE", "state": "TX", "street": "1250 N MOCKINGBIRD LN", "postcode": "79603"}}},
{"geometry": {"type": "Point", "coordinates": [-99.7657323574, 32.4521064557]}, "type": "Feature", "properties": {"collection_times": [{"days": "Mon-Fri", "time": "2:45pm"}, {"days": "Sat", "time": "1:45pm"}, {"days": "Sun", "time": "Closed"}], "id": "7960300010", "name": "USPS COLLECTION BOX - BLUE BOX", "address": {"city": "ABILENE", "state": "TX", "street": "3440 N 1ST ST", "postcode": "79603"}}},
{"geometry": {"type": "Point", "coordinates": [-99.7657323574, 32.4521064557]}, "type": "Feature", "properties": {"collection_times": [{"days": "Mon-Fri", "time": "2:45pm"}, {"days": "Sat", "time": "1:45pm"}, {"days": "Sun", "time": "Closed"}], "id": "7960300015", "name": "USPS COLLECTION BOX - BLUE BOX", "address": {"city": "ABILENE", "state": "TX", "street": "3440 N 1ST ST", "postcode": "79603"}}},
{"geometry": {"type": "Point", "coordinates": [-99.7657323574, 32.4521064557]}, "type": "Feature", "properties": {"collection_times": [{"days": "Mon-Fri", "time": "2:45pm"}, {"days": "Sat", "time": "1:45pm"}, {"days": "Sun", "time": "Closed"}], "id": "7960300016", "name": "USPS COLLECTION BOX - BLUE BOX", "address": {"city": "ABILENE", "state": "TX", "street": "3440 N 1ST ST", "postcode": "79603"}}},
{"geometry": {"type": "Point", "coordinates": [-99.7679598692, 32.4546013161]}, "type": "Feature", "properties": {"collection_times": [{"days": "Mon-Fri", "time": "2:45pm"}, {"days": "Sat-Sun", "time": "Closed"}], "id": "7960300019", "name": "USPS COLLECTION BOX - BLUE BOX", "address": {"city": "ABILENE", "state": "TX", "street": "3661 N 6TH ST", "postcode": "79603"}}},
{"geometry": {"type": "Point", "coordinates": [-99.7595808195, 32.4197113526]}, "type": "Feature", "properties": {"collection_times": [{"days": "Mon-Fri", "time": "2:30pm"}, {"days": "Sat", "time": "2:00pm"}, {"days": "Sun", "time": "Closed"}], "id": "7960500007", "name": "USPS COLLECTION BOX - BLUE BOX", "address": {"city": "ABILENE", "state": "TX", "street": "2450 BARROW ST", "postcode": "79605"}}},
{"geometry": {"type": "Point", "coordinates": [-99.7595808195, 32.4197113526]}, "type": "Feature", "properties": {"collection_times": [{"days": "Mon-Fri", "time": "2:30pm"}, {"days": "Sat", "time": "2:00pm"}, {"days": "Sun", "time": "Closed"}], "id": "7960500008", "name": "USPS COLLECTION BOX - BLUE BOX", "address": {"city": "ABILENE", "state": "TX", "street": "2450 BARROW ST", "postcode": "79605"}}},
{"geometry": {"type": "Point", "coordinates": [-99.7594555772, 32.43330214]}, "type": "Feature", "properties": {"collection_times": [{"days": "Mon-Fri", "time": "2:30pm"}, {"days": "Sat", "time": "1:30pm"}, {"days": "Sun", "time": "Closed"}], "id": "7960500016", "name": "USPS COLLECTION BOX - BLUE BOX", "address": {"city": "ABILENE", "state": "TX", "street": "1345 BARROW ST", "postcode": "79605"}}},
{"geometry": {"type": "Point", "coordinates": [-99.7594555772, 32.43330214]}, "type": "Feature", "properties": {"collection_times": [{"days": "Mon-Fri", "time": "2:30pm"}, {"days": "Sat", "time": "1:30pm"}, {"days": "Sun", "time": "Closed"}], "id": "7960500017", "name": "USPS COLLECTION BOX - BLUE BOX", "address": {"city": "ABILENE", "state": "TX", "street": "1345 BARROW ST", "postcode": "79605"}}},
{"geometry": {"type": "Point", "coordinates": [-99.747872043, 32.4493619909]}, "type": "Feature", "properties": {"collection_times": [{"days": "Mon-Fri", "time": "2:00pm"}, {"days": "Sat-Sun", "time": "Closed"}], "id": "7960500019", "name": "USPS COLLECTION BOX - BLUE BOX", "address": {"city": "ABILENE", "state": "TX", "street": "101 SAYLES BLVD", "postcode": "79605"}}},
{"geometry": {"type": "Point", "coordinates": [-99.7711160037, 32.4436944345]}, "type": "Feature", "properties": {"collection_times": [{"days": "Mon-Sat", "time": "2:00pm"}, {"days": "Sun", "time": "Closed"}], "id": "7960500020", "name": "USPS COLLECTION BOX - BLUE BOX", "address": {"city": "ABILENE", "state": "TX", "street": "702 S LEGGETT DR", "postcode": "79605"}}},
{"geometry": {"type": "Point", "coordinates": [-99.7848993775, 32.4500348051]}, "type": "Feature", "properties": {"collection_times": [{"days": "Mon-Fri", "time": "4:15pm"}, {"days": "Sat-Sun", "time": "Closed"}], "id": "7960500023", "name": "USPS COLLECTION BOX - BLUE BOX", "address": {"city": "ABILENE", "state": "TX", "street": "209 S DANVILLE DR", "postcode": "79605"}}},
{"geometry": {"type": "Point", "coordinates": [-99.7642200192, 32.4323294558]}, "type": "Feature", "properties": {"collection_times": [{"days": "Mon-Fri", "time": "3:00pm"}, {"days": "Sat-Sun", "time": "Closed"}], "id": "7960500028", "name": "USPS COLLECTION BOX - BLUE BOX", "address": {"city": "ABILENE", "state": "TX", "street": "3302 S 14TH ST", "postcode": "79605"}}},
{"geometry": {"type": "Point", "coordinates": [-99.764072666, 32.4344519761]}, "type": "Feature", "properties": {"collection_times": [{"days": "Mon-Fri", "time": "3:00pm"}, {"days": "Sat-Sun", "time": "Closed"}], "id": "7960500033", "name": "USPS COLLECTION BOX - BLUE BOX", "address": {"city": "ABILENE", "state": "TX", "street": "1290 S WILLIS ST", "postcode": "79605"}}},
{"geometry": {"type": "Point", "coordinates": [-99.7828337656, 32.4300412823]}, "type": "Feature", "properties": {"collection_times": [{"days": "Mon-Fri", "time": "2:15pm"}, {"days": "Sat", "time": "2:30pm"}, {"days": "Sun", "time": "Closed"}], "id": "7960500036", "name": "USPS COLLECTION BOX - BLUE BOX", "address": {"city": "ABILENE", "state": "TX", "street": "4701 S 14TH ST", "postcode": "79605"}}},
{"geometry": {"type": "Point", "coordinates": [-99.7828337656, 32.4300412823]}, "type": "Feature", "properties": {"collection_times": [{"days": "Mon-Fri", "time": "2:15pm"}, {"days": "Sat", "time": "2:30pm"}, {"days": "Sun", "time": "Closed"}], "id": "7960500038", "name": "USPS COLLECTION BOX - BLUE BOX", "address": {"city": "ABILENE", "state": "TX", "street": "4701 S 14TH ST", "postcode": "79605"}}},
{"geometry": {"type": "Point", "coordinates": [-99.7494283669, 32.4190447512]}, "type": "Feature", "properties": {"collection_times": [{"days": "Mon-Sat", "time": "5:00pm"}, {"days": "Sun", "time": "Closed"}], "id": "7960500044", "name": "USPS COLLECTION BOX - BLUE BOX", "address": {"city": "ABILENE", "state": "TX", "street": "2501 BUFFALO GAP RD", "postcode": "79605"}}},
{"geometry": {"type": "Point", "coordinates": [-99.7494283669, 32.4190447512]}, "type": "Feature", "properties": {"collection_times": [{"days": "Mon-Sat", "time": "5:00pm"}, {"days": "Sun", "time": "Closed"}], "id": "7960500055", "name": "USPS COLLECTION BOX - PO LOBBY", "address": {"city": "ABILENE", "state": "TX", "street": "2501 BUFFALO GAP RD", "postcode": "79605"}}},
{"geometry": {"type": "Point", "coordinates": [-99.7494283669, 32.4190447512]}, "type": "Feature", "properties": {"collection_times": [{"days": "Mon-Sat", "time": "5:00pm"}, {"days": "Sun", "time": "Closed"}], "id": "7960500056", "name": "USPS COLLECTION BOX - PO LOBBY", "address": {"city": "ABILENE", "state": "TX", "street": "2501 BUFFALO GAP RD", "postcode": "79605"}}},
{"geometry": {"type": "Point", "coordinates": [-99.7498324277, 32.4184965608]}, "type": "Feature", "properties": {"collection_times": [{"days": "Mon-Sat", "time": "5:00pm"}, {"days": "Sun", "time": "Closed"}], "id": "7960500058", "name": "USPS COLLECTION BOX - BLUE BOX", "address": {"city": "ABILENE", "state": "TX", "street": "2501 BUFFALO GAP RD", "postcode": "79605"}}},
{"geometry": {"type": "Point", "coordinates": [-99.7641628853, 32.4341802381]}, "type": "Feature", "properties": {"collection_times": [{"days": "Mon-Fri", "time": "3:00pm"}, {"days": "Sat-Sun", "time": "Closed"}], "id": "7960500059", "name": "USPS COLLECTION BOX - BLUE BOX", "address": {"city": "ABILENE", "state": "TX", "street": "1290 S WILLIS ST", "postcode": "79605"}}},
{"geometry": {"type": "Point", "coordinates": [-99.7494283669, 32.4190447512]}, "type": "Feature", "properties": {"collection_times": [{"days": "Mon-Sat", "time": "5:00pm"}, {"days": "Sun", "time": "Closed"}], "id": "7960500060", "name": "USPS COLLECTION BOX - APC", "address": {"city": "ABILENE", "state": "TX", "street": "2501 BUFFALO GAP RD", "postcode": "79605"}}},
{"geometry": {"type": "Point", "coordinates": [-99.7594367149, 32.3989302796]}, "type": "Feature", "properties": {"collection_times": [{"days": "Mon-Fri", "time": "3:45pm"}, {"days": "Sat", "time": "1:15pm"}, {"days": "Sun", "time": "Closed"}], "id": "7960600002", "name": "USPS COLLECTION BOX - BLUE BOX", "address": {"city": "ABILENE", "state": "TX", "street": "4309 BUFFALO GAP RD", "postcode": "79606"}}},
{"geometry": {"type": "Point", "coordinates": [-99.7594367149, 32.3989302796]}, "type": "Feature", "properties": {"collection_times": [{"days": "Mon-Fri", "time": "3:45pm"}, {"days": "Sat", "time": "1:15pm"}, {"days": "Sun", "time": "Closed"}], "id": "7960600003", "name": "USPS COLLECTION BOX - BLUE BOX", "address": {"city": "ABILENE", "state": "TX", "street": "4309 BUFFALO GAP RD", "postcode": "79606"}}},
{"geometry": {"type": "Point", "coordinates": [-99.7755627464, 32.3721183193]}, "type": "Feature", "properties": {"collection_times": [{"days": "Mon-Fri", "time": "1:30pm"}, {"days": "Sat", "time": "1:00pm"}, {"days": "Sun", "time": "Closed"}], "id": "7960600005", "name": "USPS COLLECTION BOX - BLUE BOX", "address": {"city": "ABILENE", "state": "TX", "street": "6381 BUFFALO GAP RD", "postcode": "79606"}}},
{"geometry": {"type": "Point", "coordinates": [-99.7755627464, 32.3721183193]}, "type": "Feature", "properties": {"collection_times": [{"days": "Mon-Fri", "time": "1:30pm"}, {"days": "Sat", "time": "1:00pm"}, {"days": "Sun", "time": "Closed"}], "id": "7960600006", "name": "USPS COLLECTION BOX - BLUE BOX", "address": {"city": "ABILENE", "state": "TX", "street": "6381 BUFFALO GAP RD", "postcode": "79606"}}},
{"geometry": {"type": "Point", "coordinates": [-99.7428496026, 32.3727949922]}, "type": "Feature", "properties": {"collection_times": [{"days": "Mon-Fri", "time": "11:00am"}, {"days": "Sat", "time": "10:00am"}, {"days": "Sun", "time": "Closed"}], "id": "7960600013", "name": "USPS COLLECTION BOX - BLUE BOX", "address": {"city": "ABILENE", "state": "TX", "street": "1665 ANTILLEY RD", "postcode": "79606"}}},
{"geometry": {"type": "Point", "coordinates": [-99.7625516669, 32.3946742263]}, "type": "Feature", "properties": {"collection_times": [{"days": "Mon-Fri", "time": "3:30pm"}, {"days": "Sat", "time": "1:00pm"}, {"days": "Sun", "time": "Closed"}], "id": "7960600016", "name": "USPS COLLECTION BOX - BLUE BOX", "address": {"city": "ABILENE", "state": "TX", "street": "4580 BUFFALO GAP RD", "postcode": "79606"}}},
{"geometry": {"type": "Point", "coordinates": [-99.7602019086, 32.3980620444]}, "type": "Feature", "properties": {"collection_times": [{"days": "Mon-Fri", "time": "3:30pm"}, {"days": "Sat-Sun", "time": "Closed"}], "id": "7960600019", "name": "USPS COLLECTION BOX - BLUE BOX", "address": {"city": "ABILENE", "state": "TX", "street": "4402 BUFFALO GAP RD", "postcode": "79606"}}},
{"geometry": {"type": "Point", "coordinates": [-99.7701495262, 32.4076567726]}, "type": "Feature", "properties": {"collection_times": [{"days": "Mon-Fri", "time": "3:15pm"}, {"days": "Sat-Sun", "time": "Closed"}], "id": "7960600024", "name": "USPS COLLECTION BOX - BLUE BOX", "address": {"city": "ABILENE", "state": "TX", "street": "1 VILLAGE DR", "postcode": "79606"}}},
{"geometry": {"type": "Point", "coordinates": [-99.7701495262, 32.4076567726]}, "type": "Feature", "properties": {"collection_times": [{"days": "Mon-Fri", "time": "3:15pm"}, {"days": "Sat-Sun", "time": "Closed"}], "id": "7960600026", "name": "USPS COLLECTION BOX - BLUE BOX", "address": {"city": "ABILENE", "state": "TX", "street": "1 VILLAGE DR", "postcode": "79606"}}},
{"geometry": {"type": "Point", "coordinates": [-99.7795173783, 32.4095388603]}, "type": "Feature", "properties": {"collection_times": [{"days": "Mon-Fri", "time": "3:00pm"}, {"days": "Sat", "time": "2:30pm"}, {"days": "Sun", "time": "Closed"}], "id": "7960600027", "name": "USPS COLLECTION BOX - BLUE BOX", "address": {"city": "ABILENE", "state": "TX", "street": "4350 SOUTHWEST DR", "postcode": "79606"}}},
{"geometry": {"type": "Point", "coordinates": [-99.829298568, 32.353197725]}, "type": "Feature", "properties": {"collection_times": [{"days": "Mon-Fri", "time": "11:00am"}, {"days": "Sat", "time": "10:00am"}, {"days": "Sun", "time": "Closed"}], "id": "7960600029", "name": "USPS COLLECTION BOX - BLUE BOX", "address": {"city": "ABILENE", "state": "TX", "street": "6250 HWY 83-84", "postcode": "79606"}}},
{"geometry": {"type": "Point", "coordinates": [-99.7701495262, 32.4076567726]}, "type": "Feature", "properties": {"collection_times": [{"days": "Mon-Fri", "time": "3:15pm"}, {"days": "Sat-Sun", "time": "Closed"}], "id": "7960600030", "name": "USPS COLLECTION BOX - BLUE BOX", "address": {"city": "ABILENE", "state": "TX", "street": "1 VILLAGE DR", "postcode": "79606"}}},
{"geometry": {"type": "Point", "coordinates": [-99.7602019086, 32.3980620444]}, "type": "Feature", "properties": {"collection_times": [{"days": "Mon-Fri", "time": "3:30pm"}, {"days": "Sat-Sun", "time": "Closed"}], "id": "7960600031", "name": "USPS COLLECTION BOX - BLUE BOX", "address": {"city": "ABILENE", "state": "TX", "street": "4402 BUFFALO GAP RD", "postcode": "79606"}}},
{"geometry": {"type": "Point", "coordinates": [-99.8391304003, 32.4228616558]}, "type": "Feature", "properties": {"collection_times": [{"days": "Mon-Fri", "time": "4:30pm"}, {"days": "Sat-Sun", "time": "Closed"}], "id": "7960700009", "name": "USPS COLLECTION BOX - PO LOBBY", "address": {"city": "ABILENE", "state": "TX", "street": "2201 AVENUE B", "postcode": "79607"}}}
]}
