{"type": "FeatureCollection", "features": [
{"geometry": {"type": "Point", "coordinates": [-102.1180786015, 31.9987292618]}, "type": "Feature", "properties": {"collection_times": [{"days": "Mon-Fri", "time": "1:15pm"}, {"days": "Sat-Sun", "time": "Closed"}], "id": "7970100001", "name": "USPS COLLECTION BOX - BLUE BOX", "address": {"city": "MIDLAND", "state": "TX", "street": "1000 N MIDKIFF RD", "postcode": "79701"}}},
{"geometry": {"type": "Point", "coordinates": [-102.1127795672, 32.0004667183]}, "type": "Feature", "properties": {"collection_times": [{"days": "Mon-Fri", "time": "1:15pm"}, {"days": "Sat-Sun", "time": "Closed"}], "id": "7970100002", "name": "USPS COLLECTION BOX - BLUE BOX", "address": {"city": "MIDLAND", "state": "TX", "street": "1028 ANDREWS HWY", "postcode": "79701"}}},
{"geometry": {"type": "Point", "coordinates": [-102.1018172453, 31.9949448659]}, "type": "Feature", "properties": {"collection_times": [{"days": "Mon-Fri", "time": "1:15pm"}, {"days": "Sat-Sun", "time": "Closed"}], "id": "7970100004", "name": "USPS COLLECTION BOX - BLUE BOX", "address": {"city": "MIDLAND", "state": "TX", "street": "2409 W ILLINOIS AVE", "postcode": "79701"}}},
{"geometry": {"type": "Point", "coordinates": [-102.0794084536, 32.0052791954]}, "type": "Feature", "properties": {"collection_times": [{"days": "Mon-Fri", "time": "1:45pm"}, {"days": "Sat-Sun", "time": "Closed"}], "id": "7970100012", "name": "USPS COLLECTION BOX - BLUE BOX", "address": {"city": "MIDLAND", "state": "TX", "street": "800 N MARIENFELD ST", "postcode": "79701"}}},
{"geometry": {"type": "Point", "coordinates": [-102.0816868326, 31.9954771974]}, "type": "Feature", "properties": {"collection_times": [{"days": "Mon-Fri", "time": "1:45pm"}, {"days": "Sat-Sun", "time": "Closed"}], "id": "7970100014", "name": "USPS COLLECTION BOX - BLUE BOX", "address": {"city": "MIDLAND", "state": "TX", "street": "208 S A ST", "postcode": "79701"}}},
{"geometry": {"type": "Point", "coordinates": [-102.0680116198, 31.989332735]}, "type": "Feature", "properties": {"collection_times": [{"days": "Mon-Fri", "time": "1:00pm"}, {"days": "Sat-Sun", "time": "Closed"}], "id": "7970100019", "name": "USPS COLLECTION BOX - BLUE BOX", "address": {"city": "MIDLAND", "state": "TX", "street": "601 E FLORIDA AVE", "postcode": "79701"}}},
{"geometry": {"type": "Point", "coordinates": [-102.0731314016, 31.9976549086]}, "type": "Feature", "properties": {"collection_times": [{"days": "Mon-Fri", "time": "4:00pm"}, {"days": "Sat-Sun", "time": "Closed"}], "id": "7970100022", "name": "USPS COLLECTION BOX - BLUE BOX", "address": {"city": "MIDLAND", "state": "TX", "street": "106 N BAIRD ST", "postcode": "79701"}}},
{"geometry": {"type": "Point", "coordinates": [-102.0831898013, 31.9965416251]}, "type": "Feature", "properties": {"collection_times": [{"days": "Mon-Fri", "time": "4:30pm"}, {"days": "Sat", "time": "2:15pm"}, {"days": "Sun", "time": "Closed"}], "id": "7970100024", "name": "USPS COLLECTION BOX - EXPRESS", "address": {"city": "MIDLAND", "state": "TX", "street": "100 E WALL ST", "postcode": "79701"}}},
{"geometry": {"type": "Point", "coordinates": [-102.0839936026, 31.9969334199]}, "type": "Feature", "properties": {"collection_times": [{"days": "Mon-Fri", "time": "2:00pm"}, {"days": "Sat-Sun", "time": "Closed"}], "id": "7970100034", "name": "USPS COLLECTION BOX - BLUE BOX", "address": {"city": "MIDLAND", "state": "TX", "street": "901 W WALL ST", "postcode": "79701"}}},
{"geometry": {"type": "Point", "coordinates": [-102.0743713578, 31.9974691287]}, "type": "Feature", "properties": {"collection_times": [{"days": "Mon-Fri", "time": "4:30pm"}, {"days": "Sat", "time": "3:15pm"}, {"days": "Sun", "time": "Closed"}], "id": "7970100074", "name": "USPS COLLECTION BOX - PO LOBBY", "address": {"city": "MIDLAND", "state": "TX", "street": "100 E WALL ST", "postcode": "79701"}}},
{"geometry": {"type": "Point", "coordinates": [-102.0743713578, 31.9974691287]}, "type": "Feature", "properties": {"collection_times": [{"days": "Mon-Fri", "time": "4:30pm"}, {"days": "Sat", "time": "3:15pm"}, {"days": "Sun", "time": "Closed"}], "id": "7970100075", "name": "USPS COLLECTION BOX - PO LOBBY", "address": {"city": "MIDLAND", "state": "TX", "street": "100 E WALL ST", "postcode": "79701"}}},
{"geometry": {"type": "Point", "coordinates": [-102.0743713578, 31.9974691287]}, "type": "Feature", "properties": {"collection_times": [{"days": "Mon-Fri", "time": "4:30pm"}, {"days": "Sat", "time": "3:15pm"}, {"days": "Sun", "time": "Closed"}], "id": "7970100076", "name": "USPS COLLECTION BOX - PO LOBBY", "address": {"city": "MIDLAND", "state": "TX", "street": "100 E WALL ST", "postcode": "79701"}}},
{"geometry": {"type": "Point", "coordinates": [-102.1028428707, 31.9988249713]}, "type": "Feature", "properties": {"collection_times": [{"days": "Mon-Fri", "time": "4:00pm"}, {"days": "Sat-Sun", "time": "Closed"}], "id": "7970100077", "name": "USPS COLLECTION BOX - BLUE BOX", "address": {"city": "MIDLAND", "state": "TX", "street": "2315 W LOUISIANA AVE", "postcode": "79701"}}},
{"geometry": {"type": "Point", "coordinates": [-102.1028428707, 31.9988249713]}, "type": "Feature", "properties": {"collection_times": [{"days": "Mon-Fri", "time": "5:00pm"}, {"days": "Sat", "time": "3:00pm"}, {"days": "Sun", "time": "Closed"}], "id": "7970100080", "name": "USPS COLLECTION BOX - PO LOBBY", "address": {"city": "MIDLAND", "state": "TX", "street": "2315 W LOUISIANA AVE", "postcode": "79701"}}},
{"geometry": {"type": "Point", "coordinates": [-102.1028428707, 31.9988249713]}, "type": "Feature", "properties": {"collection_times": [{"days": "Mon-Fri", "time": "5:00pm"}, {"days": "Sat", "time": "3:00pm"}, {"days": "Sun", "time": "Closed"}], "id": "7970100081", "name": "USPS COLLECTION BOX - PO LOBBY", "address": {"city": "MIDLAND", "state": "TX", "street": "2315 W LOUISIANA AVE", "postcode": "79701"}}},
{"geometry": {"type": "Point", "coordinates": [-102.0831898013, 31.9965416251]}, "type": "Feature", "properties": {"collection_times": [{"days": "Mon-Fri", "time": "5:00pm"}, {"days": "Sat-Sun", "time": "Closed"}], "id": "7970100082", "name": "USPS COLLECTION BOX - EXPRESS", "address": {"city": "MIDLAND", "state": "TX", "street": "2315 W LOUISIANA AVE", "postcode": "79701"}}},
{"geometry": {"type": "Point", "coordinates": [-102.0786537258, 32.0114814493]}, "type": "Feature", "properties": {"collection_times": [{"days": "Mon-Fri", "time": "3:15pm"}, {"days": "Sat-Sun", "time": "Closed"}], "id": "7970100083", "name": "USPS COLLECTION BOX - BLUE BOX", "address": {"city": "MIDLAND", "state": "TX", "street": "1404 N BIG SPRING ST", "postcode": "79701"}}},
{"geometry": {"type": "Point", "coordinates": [-102.0929438701, 31.9948218382]}, "type": "Feature", "properties": {"collection_times": [{"days": "Mon-Fri", "time": "1:30pm"}, {"days": "Sat-Sun", "time": "Closed"}], "id": "7970100084", "name": "USPS COLLECTION BOX - BLUE BOX", "address": {"city": "MIDLAND", "state": "TX", "street": "1700 W WALL ST", "postcode": "79701"}}},
{"geometry": {"type": "Point", "coordinates": [-102.1268715758, 32.0041302046]}, "type": "Feature", "properties": {"collection_times": [{"days": "Mon-Fri", "time": "3:15pm"}, {"days": "Sat-Sun", "time": "Closed"}], "id": "7970300000", "name": "USPS COLLECTION BOX - BLUE BOX", "address": {"city": "MIDLAND", "state": "TX", "street": "3525 ANDREWS HWY", "postcode": "79703"}}},
{"geometry": {"type": "Point", "coordinates": [-102.1175718928, 31.9912682294]}, "type": "Feature", "properties": {"collection_times": [{"days": "Mon-Fri", "time": "2:30pm"}, {"days": "Sat-Sun", "time": "Closed"}], "id": "7970300001", "name": "USPS COLLECTION BOX - BLUE BOX", "address": {"city": "MIDLAND", "state": "TX", "street": "3316 W ILLINOIS AVE", "postcode": "79703"}}},
{"geometry": {"type": "Point", "coordinates": [-102.13385414, 32.0025737683]}, "type": "Feature", "properties": {"collection_times": [{"days": "Mon-Fri", "time": "3:30pm"}, {"days": "Sat-Sun", "time": "Closed"}], "id": "7970300002", "name": "USPS COLLECTION BOX - BLUE BOX", "address": {"city": "MIDLAND", "state": "TX", "street": "4214 ANDREWS HWY", "postcode": "79703"}}},
{"geometry": {"type": "Point", "coordinates": [-102.1351585139, 31.9877974879]}, "type": "Feature", "properties": {"collection_times": [{"days": "Mon-Fri", "time": "3:30pm"}, {"days": "Sat-Sun", "time": "Closed"}], "id": "7970300004", "name": "USPS COLLECTION BOX - BLUE BOX", "address": {"city": "MIDLAND", "state": "TX", "street": "4500 W ILLINOIS AVE", "postcode": "79703"}}},
{"geometry": {"type": "Point", "coordinates": [-102.132337425, 31.9882065961]}, "type": "Feature", "properties": {"collection_times": [{"days": "Mon-Sat", "time": "3:30pm"}, {"days": "Sun", "time": "Closed"}], "id": "7970300005", "name": "USPS COLLECTION BOX - BLUE BOX", "address": {"city": "MIDLAND", "state": "TX", "street": "344 N MIDLAND DR", "postcode": "79703"}}},
{"geometry": {"type": "Point", "coordinates": [-102.1138532632, 31.9782739608]}, "type": "Feature", "properties": {"collection_times": [{"days": "Mon-Fri", "time": "2:15pm"}, {"days": "Sat-Sun", "time": "Closed"}], "id": "7970300006", "name": "USPS COLLECTION BOX - BLUE BOX", "address": {"city": "MIDLAND", "state": "TX", "street": "3400 THOMASON DR", "postcode": "79703"}}},
{"geometry": {"type": "Point", "coordinates": [-102.0922648517, 32.0351394456]}, "type": "Feature", "properties": {"collection_times": [{"days": "Mon-Fri", "time": "5:00pm"}, {"days": "Sat", "time": "4:15pm"}, {"days": "Sun", "time": "Closed"}], "id": "7970500000", "name": "USPS COLLECTION BOX - PO LOBBY", "address": {"city": "MIDLAND", "state": "TX", "street": "612 VETERANS AIRPARK LN", "postcode": "79705"}}},
{"geometry": {"type": "Point", "coordinates": [-102.0914320486, 32.0263015592]}, "type": "Feature", "properties": {"collection_times": [{"days": "Mon-Fri", "time": "3:30pm"}, {"days": "Sat-Sun", "time": "Closed"}], "id": "7970500001", "name": "USPS COLLECTION BOX - BLUE BOX", "address": {"city": "MIDLAND", "state": "TX", "street": "3100 N A ST", "postcode": "79705"}}},
{"geometry": {"type": "Point", "coordinates": [-102.0923157189, 32.029103989]}, "type": "Feature", "properties": {"collection_times": [{"days": "Mon-Fri", "time": "3:45pm"}, {"days": "Sat-Sun", "time": "Closed"}], "id": "7970500002", "name": "USPS COLLECTION BOX - BLUE BOX", "address": {"city": "MIDLAND", "state": "TX", "street": "3300 N A ST", "postcode": "79705"}}},
{"geometry": {"type": "Point", "coordinates": [-102.0923157189, 32.029103989]}, "type": "Feature", "properties": {"collection_times": [{"days": "Mon-Fri", "time": "3:45pm"}, {"days": "Sat-Sun", "time": "Closed"}], "id": "7970500004", "name": "USPS COLLECTION BOX - BLUE BOX", "address": {"city": "MIDLAND", "state": "TX", "street": "3300 N A ST", "postcode": "79705"}}},
{"geometry": {"type": "Point", "coordinates": [-102.0922648517, 32.0351394456]}, "type": "Feature", "properties": {"collection_times": [{"days": "Mon-Fri", "time": "5:00pm"}, {"days": "Sat", "time": "4:15pm"}, {"days": "Sun", "time": "Closed"}], "id": "7970500006", "name": "USPS COLLECTION BOX - PO LOBBY", "address": {"city": "MIDLAND", "state": "TX", "street": "612 VETERANS AIRPARK LN", "postcode": "79705"}}},
{"geometry": {"type": "Point", "coordinates": [-102.0922648517, 32.0351394456]}, "type": "Feature", "properties": {"collection_times": [{"days": "Mon-Sat", "time": "4:30pm"}, {"days": "Sun", "time": "Closed"}], "id": "7970500007", "name": "USPS COLLECTION BOX - BLUE BOX", "address": {"city": "MIDLAND", "state": "TX", "street": "612 VETERANS AIRPARK LN", "postcode": "79705"}}},
{"geometry": {"type": "Point", "coordinates": [-102.0802989246, 32.0189903695]}, "type": "Feature", "properties": {"collection_times": [{"days": "Mon-Fri", "time": "3:30pm"}, {"days": "Sat-Sun", "time": "Closed"}], "id": "7970500014", "name": "USPS COLLECTION BOX - BLUE BOX", "address": {"city": "MIDLAND", "state": "TX", "street": "2217 N BIG SPRING ST", "postcode": "79705"}}},
{"geometry": {"type": "Point", "coordinates": [-102.0815224013, 32.0230377754]}, "type": "Feature", "properties": {"collection_times": [{"days": "Mon-Fri", "time": "3:45pm"}, {"days": "Sat-Sun", "time": "Closed"}], "id": "7970500015", "name": "USPS COLLECTION BOX - BLUE BOX", "address": {"city": "MIDLAND", "state": "TX", "street": "2500 N BIG SPRING ST", "postcode": "79705"}}},
{"geometry": {"type": "Point", "coordinates": [-102.0859206427, 32.0412671731]}, "type": "Feature", "properties": {"collection_times": [{"days": "Mon-Fri", "time": "4:00pm"}, {"days": "Sat-Sun", "time": "Closed"}], "id": "7970500017", "name": "USPS COLLECTION BOX - BLUE BOX", "address": {"city": "MIDLAND", "state": "TX", "street": "4400 N BIG SPRING ST", "postcode": "79705"}}},
{"geometry": {"type": "Point", "coordinates": [-102.1080020748, 32.022820612]}, "type": "Feature", "properties": {"collection_times": [{"days": "Mon-Fri", "time": "3:00pm"}, {"days": "Sat", "time": "4:00pm"}, {"days": "Sun", "time": "Closed"}], "id": "7970500034", "name": "USPS COLLECTION BOX - BLUE BOX", "address": {"city": "MIDLAND", "state": "TX", "street": "3200 N GARFIELD ST", "postcode": "79705"}}},
{"geometry": {"type": "Point", "coordinates": [-102.1092370002, 32.0266630073]}, "type": "Feature", "properties": {"collection_times": [{"days": "Mon-Fri", "time": "3:00pm"}, {"days": "Sat-Sun", "time": "Closed"}], "id": "7970500035", "name": "USPS COLLECTION BOX - BLUE BOX", "address": {"city": "MIDLAND", "state": "TX", "street": "3600 N GARFIELD ST", "postcode": "79705"}}},
{"geometry": {"type": "Point", "coordinates": [-102.1125596957, 32.0367234277]}, "type": "Feature", "properties": {"collection_times": [{"days": "Mon-Fri", "time": "3:00pm"}, {"days": "Sat", "time": "4:00pm"}, {"days": "Sun", "time": "Closed"}], "id": "7970500037", "name": "USPS COLLECTION BOX - BLUE BOX", "address": {"city": "MIDLAND", "state": "TX", "street": "4519 N GARFIELD ST", "postcode": "79705"}}},
{"geometry": {"type": "Point", "coordinates": [-102.1131361122, 32.0388426818]}, "type": "Feature", "properties": {"collection_times": [{"days": "Mon-Fri", "time": "3:00pm"}, {"days": "Sat-Sun", "time": "Closed"}], "id": "7970500039", "name": "USPS COLLECTION BOX - BLUE BOX", "address": {"city": "MIDLAND", "state": "TX", "street": "4610 N GARFIELD ST", "postcode": "79705"}}},
{"geometry": {"type": "Point", "coordinates": [-102.1281072752, 32.029461094]}, "type": "Feature", "properties": {"collection_times": [{"days": "Mon-Fri", "time": "2:45pm"}, {"days": "Sat-Sun", "time": "Closed"}], "id": "7970500069", "name": "USPS COLLECTION BOX - BLUE BOX", "address": {"city": "MIDLAND", "state": "TX", "street": "4511 N MIDKIFF RD", "postcode": "79705"}}},
{"geometry": {"type": "Point", "coordinates": [-102.129564733, 32.0344037798]}, "type": "Feature", "properties": {"collection_times": [{"days": "Mon-Fri", "time": "2:45pm"}, {"days": "Sat-Sun", "time": "Closed"}], "id": "7970500072", "name": "USPS COLLECTION BOX - BLUE BOX", "address": {"city": "MIDLAND", "state": "TX", "street": "4706 N MIDKIFF RD", "postcode": "79705"}}},
{"geometry": {"type": "Point", "coordinates": [-102.08878, 32.01828]}, "type": "Feature", "properties": {"collection_times": [{"days": "Mon-Fri", "time": "3:30pm"}, {"days": "Sat-Sun", "time": "Closed"}], "id": "7970500107", "name": "USPS COLLECTION BOX - BLUE BOX", "address": {"city": "MIDLAND", "state": "TX", "street": "2110 N A ST", "postcode": "79705"}}},
{"geometry": {"type": "Point", "coordinates": [-102.0923157189, 32.029103989]}, "type": "Feature", "properties": {"collection_times": [{"days": "Mon-Fri", "time": "3:45pm"}, {"days": "Sat-Sun", "time": "Closed"}], "id": "7970500133", "name": "USPS COLLECTION BOX - BLUE BOX", "address": {"city": "MIDLAND", "state": "TX", "street": "3300 N A ST", "postcode": "79705"}}},
{"geometry": {"type": "Point", "coordinates": [-102.0908348855, 32.0276439593]}, "type": "Feature", "properties": {"collection_times": [{"days": "Mon-Fri", "time": "3:30pm"}, {"days": "Sat-Sun", "time": "Closed"}], "id": "7970500134", "name": "USPS COLLECTION BOX - BLUE BOX", "address": {"city": "MIDLAND", "state": "TX", "street": "731 W WADLEY AVE", "postcode": "79705"}}},
{"geometry": {"type": "Point", "coordinates": [-102.0859206427, 32.0412671731]}, "type": "Feature", "properties": {"collection_times": [{"days": "Mon-Fri", "time": "4:00pm"}, {"days": "Sat-Sun", "time": "Closed"}], "id": "7970500135", "name": "USPS COLLECTION BOX - BLUE BOX", "address": {"city": "MIDLAND", "state": "TX", "street": "4400 N BIG SPRING ST", "postcode": "79705"}}},
{"geometry": {"type": "Point", "coordinates": [-102.0872254465, 32.029939158]}, "type": "Feature", "properties": {"collection_times": [{"days": "Mon-Fri", "time": "4:15pm"}, {"days": "Sat-Sun", "time": "Closed"}], "id": "7970500137", "name": "USPS COLLECTION BOX - BLUE BOX", "address": {"city": "MIDLAND", "state": "TX", "street": "6 DESTA DR", "postcode": "79705"}}},
{"geometry": {"type": "Point", "coordinates": [-102.1265860295, 32.0336037122]}, "type": "Feature", "properties": {"collection_times": [{"days": "Mon-Fri", "time": "2:45pm"}, {"days": "Sat-Sun", "time": "Closed"}], "id": "7970500138", "name": "USPS COLLECTION BOX - BLUE BOX", "address": {"city": "MIDLAND", "state": "TX", "street": "3001 W LOOP 250 N", "postcode": "79705"}}},
{"geometry": {"type": "Point", "coordinates": [-102.074448614, 32.0005928493]}, "type": "Feature", "properties": {"collection_times": [{"days": "Mon-Sat", "time": "8:00pm"}, {"days": "Sun", "time": "Closed"}], "id": "7970600004", "name": "USPS COLLECTION BOX - EXPRESS", "address": {"city": "MIDLAND", "state": "TX", "street": "10000 LOOP 40", "postcode": "79706"}}},
{"geometry": {"type": "Point", "coordinates": [-102.0442976571, 31.9570629052]}, "type": "Feature", "properties": {"collection_times": [{"days": "Mon-Sat", "time": "8:00pm"}, {"days": "Sun", "time": "Closed"}], "id": "7970600005", "name": "USPS COLLECTION BOX - EXPRESS", "address": {"city": "MIDLAND", "state": "TX", "street": "10000 LOOP 40", "postcode": "79706"}}},
{"geometry": {"type": "Point", "coordinates": [-101.9002055489, 32.026712046]}, "type": "Feature", "properties": {"collection_times": [{"days": "Mon-Fri", "time": "11:00am"}, {"days": "Sat-Sun", "time": "Closed"}], "id": "7970600006", "name": "USPS COLLECTION BOX - BLUE BOX", "address": {"city": "MIDLAND", "state": "TX", "street": "10706 FM 307", "postcode": "79706"}}},
{"geometry": {"type": "Point", "coordinates": [-102.041769111, 31.9836957036]}, "type": "Feature", "properties": {"collection_times": [{"days": "Mon-Fri", "time": "1:00pm"}, {"days": "Sat-Sun", "time": "Closed"}], "id": "7970600009", "name": "USPS COLLECTION BOX - BLUE BOX", "address": {"city": "MIDLAND", "state": "TX", "street": "3115 GARDEN CITY HWY", "postcode": "79706"}}},
{"geometry": {"type": "Point", "coordinates": [-102.1599340659, 31.7373009176]}, "type": "Feature", "properties": {"collection_times": [{"days": "Mon-Fri", "time": "11:00am"}, {"days": "Sat-Sun", "time": "Closed"}], "id": "7970600011", "name": "USPS COLLECTION BOX - BLUE BOX", "address": {"city": "MIDLAND", "state": "TX", "street": "10400 S FM 1788", "postcode": "79706"}}},
{"geometry": {"type": "Point", "coordinates": [-102.1243017464, 31.9628724824]}, "type": "Feature", "properties": {"collection_times": [{"days": "Mon-Fri", "time": "3:15pm"}, {"days": "Sat-Sun", "time": "Closed"}], "id": "7970700000", "name": "USPS COLLECTION BOX - BLUE BOX", "address": {"city": "MIDLAND", "state": "TX", "street": "2101 N MIDLAND DR", "postcode": "79707"}}},
{"geometry": {"type": "Point", "coordinates": [-102.1416912431, 32.0165681728]}, "type": "Feature", "properties": {"collection_times": [{"days": "Mon-Fri", "time": "3:15pm"}, {"days": "Sat-Sun", "time": "Closed"}], "id": "7970700001", "name": "USPS COLLECTION BOX - BLUE BOX", "address": {"city": "MIDLAND", "state": "TX", "street": "3317 N MIDLAND DR", "postcode": "79707"}}},
{"geometry": {"type": "Point", "coordinates": [-102.1461202415, 32.0303981461]}, "type": "Feature", "properties": {"collection_times": [{"days": "Mon-Fri", "time": "3:00pm"}, {"days": "Sat-Sun", "time": "Closed"}], "id": "7970700002", "name": "USPS COLLECTION BOX - BLUE BOX", "address": {"city": "MIDLAND", "state": "TX", "street": "4517 N MIDLAND DR", "postcode": "79707"}}},
{"geometry": {"type": "Point", "coordinates": [-102.1250047145, 32.0198314698]}, "type": "Feature", "properties": {"collection_times": [{"days": "Mon-Fri", "time": "5:00pm"}, {"days": "Sat", "time": "3:45pm"}, {"days": "Sun", "time": "Closed"}], "id": "7970700004", "name": "USPS COLLECTION BOX - PO LOBBY", "address": {"city": "MIDLAND", "state": "TX", "street": "3304 W WADLEY AVE", "postcode": "79707"}}},
{"geometry": {"type": "Point", "coordinates": [-102.1250047145, 32.0198314698]}, "type": "Feature", "properties": {"collection_times": [{"days": "Mon-Sat", "time": "4:00pm"}, {"days": "Sun", "time": "Closed"}], "id": "7970700005", "name": "USPS COLLECTION BOX - BLUE BOX", "address": {"city": "MIDLAND", "state": "TX", "street": "3304 W WADLEY AVE", "postcode": "79707"}}},
{"geometry": {"type": "Point", "coordinates": [-102.1250047145, 32.0198314698]}, "type": "Feature", "properties": {"collection_times": [{"days": "Mon-Fri", "time": "5:00pm"}, {"days": "Sat", "time": "3:45pm"}, {"days": "Sun", "time": "Closed"}], "id": "7970700007", "name": "USPS COLLECTION BOX - PO LOBBY", "address": {"city": "MIDLAND", "state": "TX", "street": "3304 W WADLEY AVE", "postcode": "79707"}}},
{"geometry": {"type": "Point", "coordinates": [-102.1250047145, 32.0198314698]}, "type": "Feature", "properties": {"collection_times": [{"days": "Mon-Fri", "time": "5:00pm"}, {"days": "Sat", "time": "3:45pm"}, {"days": "Sun", "time": "Closed"}], "id": "7970700008", "name": "USPS COLLECTION BOX - PO LOBBY", "address": {"city": "MIDLAND", "state": "TX", "street": "3304 W WADLEY AVE", "postcode": "79707"}}},
{"geometry": {"type": "Point", "coordinates": [-102.1250047145, 32.0198314698]}, "type": "Feature", "properties": {"collection_times": [{"days": "Mon-Fri", "time": "5:00pm"}, {"days": "Sat", "time": "3:45pm"}, {"days": "Sun", "time": "Closed"}], "id": "7970700009", "name": "USPS COLLECTION BOX - PO LOBBY", "address": {"city": "MIDLAND", "state": "TX", "street": "3304 W WADLEY AVE", "postcode": "79707"}}},
{"geometry": {"type": "Point", "coordinates": [-102.1250047145, 32.0198314698]}, "type": "Feature", "properties": {"collection_times": [{"days": "Mon-Fri", "time": "5:00pm"}, {"days": "Sat", "time": "3:45pm"}, {"days": "Sun", "time": "Closed"}], "id": "7970700010", "name": "USPS COLLECTION BOX - APC", "address": {"city": "MIDLAND", "state": "TX", "street": "3304 W WADLEY AVE", "postcode": "79707"}}},
{"geometry": {"type": "Point", "coordinates": [-101.716464566, 32.526769161]}, "type": "Feature", "properties": {"collection_times": [{"days": "Mon-Sat", "time": "10:30am"}, {"days": "Sun", "time": "Closed"}], "id": "7971300000", "name": "USPS COLLECTION BOX - PO LOBBY", "address": {"city": "ACKERLY", "state": "TX", "street": "303 W 5TH ST", "postcode": "79713"}}},
{"geometry": {"type": "Point", "coordinates": [-102.551971084, 32.33593083]}, "type": "Feature", "properties": {"collection_times": [{"days": "Mon-Sat", "time": "3:00pm"}, {"days": "Sun", "time": "Closed"}], "id": "7971400002", "name": "USPS COLLECTION BOX - BLUE BOX", "address": {"city": "ANDREWS", "state": "TX", "street": "1501 N MAIN ST", "postcode": "79714"}}},
{"geometry": {"type": "Point", "coordinates": [-102.549776409, 32.31802727]}, "type": "Feature", "properties": {"collection_times": [{"days": "Mon-Sat", "time": "3:00pm"}, {"days": "Sun", "time": "Closed"}], "id": "7971400004", "name": "USPS COLLECTION BOX - BLUE BOX", "address": {"city": "ANDREWS", "state": "TX", "street": "310 W BROADWAY ST", "postcode": "79714"}}},
{"geometry": {"type": "Point", "coordinates": [-102.5495247062, 32.3273463996]}, "type": "Feature", "properties": {"collection_times": [{"days": "Mon-Sat", "time": "4:30pm"}, {"days": "Sun", "time": "Closed"}], "id": "7971400007", "name": "USPS COLLECTION BOX - BLUE BOX", "address": {"city": "ANDREWS", "state": "TX", "street": "110 NW AVENUE H", "postcode": "79714"}}},
{"geometry": {"type": "Point", "coordinates": [-102.5495247062, 32.3273463996]}, "type": "Feature", "properties": {"collection_times": [{"days": "Mon-Sat", "time": "4:30pm"}, {"days": "Sun", "time": "Closed"}], "id": "7971400008", "name": "USPS COLLECTION BOX - BLUE BOX", "address": {"city": "ANDREWS", "state": "TX", "street": "110 NW AVENUE H", "postcode": "79714"}}},
{"geometry": {"type": "Point", "coordinates": [-102.5495247062, 32.3273463996]}, "type": "Feature", "properties": {"collection_times": [{"days": "Mon-Sat", "time": "4:45pm"}, {"days": "Sun", "time": "Closed"}], "id": "7971400009", "name": "USPS COLLECTION BOX - PO LOBBY", "address": {"city": "ANDREWS", "state": "TX", "street": "110 NW AVENUE H", "postcode": "79714"}}},
{"geometry": {"type": "Point", "coordinates": [-102.5495247062, 32.3273463996]}, "type": "Feature", "properties": {"collection_times": [{"days": "Mon-Sat", "time": "4:45pm"}, {"days": "Sun", "time": "Closed"}], "id": "7971400012", "name": "USPS COLLECTION BOX - PO LOBBY", "address": {"city": "ANDREWS", "state": "TX", "street": "110 NW AVENUE H", "postcode": "79714"}}},
{"geometry": {"type": "Point", "coordinates": [-102.54614115, 32.317191593]}, "type": "Feature", "properties": {"collection_times": [{"days": "Mon-Sat", "time": "3:00pm"}, {"days": "Sun", "time": "Closed"}], "id": "7971400013", "name": "USPS COLLECTION BOX - BLUE BOX", "address": {"city": "ANDREWS", "state": "TX", "street": "200 S MAIN ST", "postcode": "79714"}}},
{"geometry": {"type": "Point", "coordinates": [-103.743975, 30.987050993]}, "type": "Feature", "properties": {"collection_times": [{"days": "Mon-Fri", "time": "2:45pm"}, {"days": "Sat", "time": "11:15am"}, {"days": "Sun", "time": "Closed"}], "id": "7971800000", "name": "USPS COLLECTION BOX - BLUE BOX", "address": {"city": "BALMORHEA", "state": "TX", "street": "115 N FORT WORTH ST", "postcode": "79718"}}},
{"geometry": {"type": "Point", "coordinates": [-103.743975, 30.987050993]}, "type": "Feature", "properties": {"collection_times": [{"days": "Mon-Fri", "time": "2:45pm"}, {"days": "Sat", "time": "11:15am"}, {"days": "Sun", "time": "Closed"}], "id": "7971800002", "name": "USPS COLLECTION BOX - PO LOBBY", "address": {"city": "BALMORHEA", "state": "TX", "street": "115 N FORT WORTH ST", "postcode": "79718"}}},
{"geometry": {"type": "Point", "coordinates": [-103.743975, 30.987050993]}, "type": "Feature", "properties": {"collection_times": [{"days": "Mon-Fri", "time": "2:45pm"}, {"days": "Sat", "time": "11:15am"}, {"days": "Sun", "time": "Closed"}], "id": "7971800003", "name": "USPS COLLECTION BOX - PO LOBBY", "address": {"city": "BALMORHEA", "state": "TX", "street": "115 N FORT WORTH ST", "postcode": "79718"}}},
{"geometry": {"type": "Point", "coordinates": [-103.3933928168, 31.459295311]}, "type": "Feature", "properties": {"collection_times": [{"days": "Mon-Sat", "time": "5:00pm"}, {"days": "Sun", "time": "Closed"}], "id": "7971900000", "name": "USPS COLLECTION BOX - BLUE BOX", "address": {"city": "BARSTOW", "state": "TX", "street": "211 MACKEY AVE", "postcode": "79719"}}},
{"geometry": {"type": "Point", "coordinates": [-103.3933928168, 31.459295311]}, "type": "Feature", "properties": {"collection_times": [{"days": "Mon-Fri", "time": "11:30am"}, {"days": "Sat", "time": "9:15am"}, {"days": "Sun", "time": "Closed"}], "id": "7971900001", "name": "USPS COLLECTION BOX - PO LOBBY", "address": {"city": "BARSTOW", "state": "TX", "street": "211 MACKEY AVE", "postcode": "79719"}}},
{"geometry": {"type": "Point", "coordinates": [-101.478890836, 32.258505848]}, "type": "Feature", "properties": {"collection_times": [{"days": "Mon-Sat", "time": "5:30pm"}, {"days": "Sun", "time": "Closed"}], "id": "7972000000", "name": "USPS COLLECTION BOX - BLUE BOX", "address": {"city": "BIG SPRING", "state": "TX", "street": "506 S RUNNELS ST", "postcode": "79720"}}},
{"geometry": {"type": "Point", "coordinates": [-101.478890836, 32.258505848]}, "type": "Feature", "properties": {"collection_times": [{"days": "Mon-Sat", "time": "5:30pm"}, {"days": "Sun", "time": "Closed"}], "id": "7972000004", "name": "USPS COLLECTION BOX - EXPRESS", "address": {"city": "BIG SPRING", "state": "TX", "street": "506 S RUNNELS ST", "postcode": "79720"}}},
{"geometry": {"type": "Point", "coordinates": [-101.47548364, 32.250065778]}, "type": "Feature", "properties": {"collection_times": [{"days": "Mon-Sat", "time": "5:30pm"}, {"days": "Sun", "time": "Closed"}], "id": "7972000005", "name": "USPS COLLECTION BOX - PO LOBBY", "address": {"city": "BIG SPRING", "state": "TX", "street": "501 S MAIN ST", "postcode": "79720"}}},
{"geometry": {"type": "Point", "coordinates": [-101.47548364, 32.250065778]}, "type": "Feature", "properties": {"collection_times": [{"days": "Mon-Sat", "time": "5:30pm"}, {"days": "Sun", "time": "Closed"}], "id": "7972000006", "name": "USPS COLLECTION BOX - PO LOBBY", "address": {"city": "BIG SPRING", "state": "TX", "street": "501 S MAIN ST", "postcode": "79720"}}},
{"geometry": {"type": "Point", "coordinates": [-101.47548364, 32.250065778]}, "type": "Feature", "properties": {"collection_times": [{"days": "Mon-Sat", "time": "5:30pm"}, {"days": "Sun", "time": "Closed"}], "id": "7972000007", "name": "USPS COLLECTION BOX - PO LOBBY", "address": {"city": "BIG SPRING", "state": "TX", "street": "501 S MAIN ST", "postcode": "79720"}}},
{"geometry": {"type": "Point", "coordinates": [-101.468734111, 32.229763578]}, "type": "Feature", "properties": {"collection_times": [{"days": "Mon-Sat", "time": "2:00pm"}, {"days": "Sun", "time": "Closed"}], "id": "7972000015", "name": "USPS COLLECTION BOX - BLUE BOX", "address": {"city": "BIG SPRING", "state": "TX", "street": "201 W MARCY DR", "postcode": "79720"}}},
{"geometry": {"type": "Point", "coordinates": [-101.451763838, 32.251665102]}, "type": "Feature", "properties": {"collection_times": [{"days": "Mon-Sat", "time": "2:00pm"}, {"days": "Sun", "time": "Closed"}], "id": "7972000019", "name": "USPS COLLECTION BOX - BLUE BOX", "address": {"city": "BIG SPRING", "state": "TX", "street": "1001 BIRDWELL LN", "postcode": "79720"}}},
{"geometry": {"type": "Point", "coordinates": [-101.451763838, 32.251665102]}, "type": "Feature", "properties": {"collection_times": [{"days": "Mon-Sat", "time": "2:00pm"}, {"days": "Sun", "time": "Closed"}], "id": "7972000020", "name": "USPS COLLECTION BOX - BLUE BOX", "address": {"city": "BIG SPRING", "state": "TX", "street": "1001 BIRDWELL LN", "postcode": "79720"}}},
{"geometry": {"type": "Point", "coordinates": [-101.472061287, 32.235079844]}, "type": "Feature", "properties": {"collection_times": [{"days": "Mon-Sat", "time": "2:00pm"}, {"days": "Sun", "time": "Closed"}], "id": "7972000022", "name": "USPS COLLECTION BOX - BLUE BOX", "address": {"city": "BIG SPRING", "state": "TX", "street": "2000 S GREGG ST", "postcode": "79720"}}},
{"geometry": {"type": "Point", "coordinates": [-101.466457481, 32.24052167]}, "type": "Feature", "properties": {"collection_times": [{"days": "Mon-Sat", "time": "2:00pm"}, {"days": "Sun", "time": "Closed"}], "id": "7972000026", "name": "USPS COLLECTION BOX - BLUE BOX", "address": {"city": "BIG SPRING", "state": "TX", "street": "704 W IH 20", "postcode": "79720"}}},
{"geometry": {"type": "Point", "coordinates": [-103.066945342, 31.194925717]}, "type": "Feature", "properties": {"collection_times": [{"days": "Mon-Fri", "time": "2:30pm"}, {"days": "Sat", "time": "10:30am"}, {"days": "Sun", "time": "Closed"}], "id": "7973000000", "name": "USPS COLLECTION BOX - BLUE BOX", "address": {"city": "COYANOSA", "state": "TX", "street": "2550 N HIGHWAY 1776", "postcode": "79730"}}},
{"geometry": {"type": "Point", "coordinates": [-103.066945342, 31.194925717]}, "type": "Feature", "properties": {"collection_times": [{"days": "Mon-Fri", "time": "2:30pm"}, {"days": "Sat", "time": "10:30am"}, {"days": "Sun", "time": "Closed"}], "id": "7973000002", "name": "USPS COLLECTION BOX - PO LOBBY", "address": {"city": "COYANOSA", "state": "TX", "street": "2550 N HIGHWAY 1776", "postcode": "79730"}}},
{"geometry": {"type": "Point", "coordinates": [-102.3518551211, 31.3980199174]}, "type": "Feature", "properties": {"collection_times": [{"days": "Mon-Sat", "time": "4:45pm"}, {"days": "Sun", "time": "Closed"}], "id": "7973100000", "name": "USPS COLLECTION BOX - BLUE BOX", "address": {"city": "CRANE", "state": "TX", "street": "509 S ALFORD ST", "postcode": "79731"}}},
{"geometry": {"type": "Point", "coordinates": [-102.3518551211, 31.3980199174]}, "type": "Feature", "properties": {"collection_times": [{"days": "Mon-Sat", "time": "4:45pm"}, {"days": "Sun", "time": "Closed"}], "id": "7973100001", "name": "USPS COLLECTION BOX - BLUE BOX", "address": {"city": "CRANE", "state": "TX", "street": "509 S ALFORD ST", "postcode": "79731"}}},
{"geometry": {"type": "Point", "coordinates": [-102.351698148, 31.397977757]}, "type": "Feature", "properties": {"collection_times": [{"days": "Mon-Fri", "time": "4:15pm"}, {"days": "Sat", "time": "12:00pm"}, {"days": "Sun", "time": "Closed"}], "id": "7973100003", "name": "USPS COLLECTION BOX - PO LOBBY", "address": {"city": "CRANE", "state": "TX", "street": "509 S ALFORD ST", "postcode": "79731"}}},
{"geometry": {"type": "Point", "coordinates": [-102.351698148, 31.397977757]}, "type": "Feature", "properties": {"collection_times": [{"days": "Mon-Fri", "time": "4:15pm"}, {"days": "Sat", "time": "12:00pm"}, {"days": "Sun", "time": "Closed"}], "id": "7973100004", "name": "USPS COLLECTION BOX - PO LOBBY", "address": {"city": "CRANE", "state": "TX", "street": "509 S ALFORD ST", "postcode": "79731"}}},
{"geometry": {"type": "Point", "coordinates": [-101.366312849, 32.10903706]}, "type": "Feature", "properties": {"collection_times": [{"days": "Mon-Fri", "time": "2:45pm"}, {"days": "Sat", "time": "11:30am"}, {"days": "Sun", "time": "Closed"}], "id": "7973300000", "name": "USPS COLLECTION BOX - BLUE BOX", "address": {"city": "FORSAN", "state": "TX", "street": "109 W 4TH", "postcode": "79733"}}},
{"geometry": {"type": "Point", "coordinates": [-101.366312849, 32.10903706]}, "type": "Feature", "properties": {"collection_times": [{"days": "Mon-Fri", "time": "1:30pm"}, {"days": "Sat", "time": "11:30am"}, {"days": "Sun", "time": "Closed"}], "id": "7973300001", "name": "USPS COLLECTION BOX - PO LOBBY", "address": {"city": "FORSAN", "state": "TX", "street": "109 W 4TH", "postcode": "79733"}}},
{"geometry": {"type": "Point", "coordinates": [-103.8873816627, 30.5895597408]}, "type": "Feature", "properties": {"collection_times": [{"days": "Mon-Sat", "time": "1:45pm"}, {"days": "Sun", "time": "Closed"}], "id": "7973400000", "name": "USPS COLLECTION BOX - BLUE BOX", "address": {"city": "FORT DAVIS", "state": "TX", "street": "500 SGT GONZALES", "postcode": "79734"}}},
{"geometry": {"type": "Point", "coordinates": [-104.097849221, 30.623532265]}, "type": "Feature", "properties": {"collection_times": [{"days": "Mon-Sat", "time": "11:45am"}, {"days": "Sun", "time": "Closed"}], "id": "7973400001", "name": "USPS COLLECTION BOX - BLUE BOX", "address": {"city": "FORT DAVIS", "state": "TX", "street": "HC 74 BOX 2", "postcode": "79734"}}},
{"geometry": {"type": "Point", "coordinates": [-104.0978492215, 30.6235322651]}, "type": "Feature", "properties": {"collection_times": [{"days": "Mon-Sat", "time": "12:00pm"}, {"days": "Sun", "time": "Closed"}], "id": "7973400002", "name": "USPS COLLECTION BOX - BLUE BOX", "address": {"city": "FORT DAVIS", "state": "TX", "street": "HC 75 BOX 3", "postcode": "79734"}}},
{"geometry": {"type": "Point", "coordinates": [-103.8873816627, 30.5895597408]}, "type": "Feature", "properties": {"collection_times": [{"days": "Mon-Sat", "time": "2:00pm"}, {"days": "Sun", "time": "Closed"}], "id": "7973400003", "name": "USPS COLLECTION BOX - PO LOBBY", "address": {"city": "FORT DAVIS", "state": "TX", "street": "500 SGT GONZALES", "postcode": "79734"}}},
{"geometry": {"type": "Point", "coordinates": [-103.887381663, 30.589559741]}, "type": "Feature", "properties": {"collection_times": [{"days": "Mon-Sat", "time": "2:00pm"}, {"days": "Sun", "time": "Closed"}], "id": "7973400004", "name": "USPS COLLECTION BOX - PO LOBBY", "address": {"city": "FORT DAVIS", "state": "TX", "street": "500 SGT GONZALES", "postcode": "79734"}}},
{"geometry": {"type": "Point", "coordinates": [-102.44644296, 30.251812781]}, "type": "Feature", "properties": {"collection_times": [{"days": "Mon-Sat", "time": "10:00am"}, {"days": "Sun", "time": "Closed"}], "id": "7973500000", "name": "USPS COLLECTION BOX - BLUE BOX", "address": {"city": "FORT STOCKTON", "state": "TX", "street": "735 S US HIGHWAY 285", "postcode": "79735"}}},
{"geometry": {"type": "Point", "coordinates": [-102.8824919, 30.9018864]}, "type": "Feature", "properties": {"collection_times": [{"days": "Mon-Sat", "time": "10:30am"}, {"days": "Sun", "time": "Closed"}], "id": "7973500001", "name": "USPS COLLECTION BOX - BLUE BOX", "address": {"city": "FORT STOCKTON", "state": "TX", "street": "401 W 18TH ST", "postcode": "79735"}}},
{"geometry": {"type": "Point", "coordinates": [-102.879661535, 30.906390511]}, "type": "Feature", "properties": {"collection_times": [{"days": "Mon-Sat", "time": "10:00am"}, {"days": "Sun", "time": "Closed"}], "id": "7973500002", "name": "USPS COLLECTION BOX - BLUE BOX", "address": {"city": "FORT STOCKTON", "state": "TX", "street": "387 W IH 10", "postcode": "79735"}}},
{"geometry": {"type": "Point", "coordinates": [-102.870855382, 30.901991621]}, "type": "Feature", "properties": {"collection_times": [{"days": "Mon-Sat", "time": "3:30pm"}, {"days": "Sun", "time": "Closed"}], "id": "7973500004", "name": "USPS COLLECTION BOX - BLUE BOX", "address": {"city": "FORT STOCKTON", "state": "TX", "street": "1000 E RAILROAD AVE", "postcode": "79735"}}},
{"geometry": {"type": "Point", "coordinates": [-102.89229198, 30.89396035]}, "type": "Feature", "properties": {"collection_times": [{"days": "Mon-Sat", "time": "3:30pm"}, {"days": "Sun", "time": "Closed"}], "id": "7973500005", "name": "USPS COLLECTION BOX - BLUE BOX", "address": {"city": "FORT STOCKTON", "state": "TX", "street": "1300 W DICKINSON BLVD", "postcode": "79735"}}},
{"geometry": {"type": "Point", "coordinates": [-102.907952873, 30.894123707]}, "type": "Feature", "properties": {"collection_times": [{"days": "Mon-Sat", "time": "3:30pm"}, {"days": "Sun", "time": "Closed"}], "id": "7973500006", "name": "USPS COLLECTION BOX - BLUE BOX", "address": {"city": "FORT STOCKTON", "state": "TX", "street": "2610 W DICKINSON BLVD", "postcode": "79735"}}},
{"geometry": {"type": "Point", "coordinates": [-102.895367466, 30.893953612]}, "type": "Feature", "properties": {"collection_times": [{"days": "Mon-Sat", "time": "3:30pm"}, {"days": "Sun", "time": "Closed"}], "id": "7973500007", "name": "USPS COLLECTION BOX - BLUE BOX", "address": {"city": "FORT STOCKTON", "state": "TX", "street": "1723 N US HIGHWAY 285", "postcode": "79735"}}},
{"geometry": {"type": "Point", "coordinates": [-102.891097259, 30.890098341]}, "type": "Feature", "properties": {"collection_times": [{"days": "Mon-Sat", "time": "3:30pm"}, {"days": "Sun", "time": "Closed"}], "id": "7973500008", "name": "USPS COLLECTION BOX - BLUE BOX", "address": {"city": "FORT STOCKTON", "state": "TX", "street": "603 S MISSOURI ST", "postcode": "79735"}}},
{"geometry": {"type": "Point", "coordinates": [-102.87927242, 30.884434003]}, "type": "Feature", "properties": {"collection_times": [{"days": "Mon-Sat", "time": "3:30pm"}, {"days": "Sun", "time": "Closed"}], "id": "7973500009", "name": "USPS COLLECTION BOX - BLUE BOX", "address": {"city": "FORT STOCKTON", "state": "TX", "street": "101 W DIVISION ST", "postcode": "79735"}}},
{"geometry": {"type": "Point", "coordinates": [-102.878998213, 30.888145018]}, "type": "Feature", "properties": {"collection_times": [{"days": "Mon-Sat", "time": "4:15pm"}, {"days": "Sun", "time": "Closed"}], "id": "7973500010", "name": "USPS COLLECTION BOX - BLUE BOX", "address": {"city": "FORT STOCKTON", "state": "TX", "street": "106 E 4TH ST", "postcode": "79735"}}},
{"geometry": {"type": "Point", "coordinates": [-102.878998213, 30.888145018]}, "type": "Feature", "properties": {"collection_times": [{"days": "Mon-Sat", "time": "4:15pm"}, {"days": "Sun", "time": "Closed"}], "id": "7973500011", "name": "USPS COLLECTION BOX - BLUE BOX", "address": {"city": "FORT STOCKTON", "state": "TX", "street": "106 E 4TH ST", "postcode": "79735"}}},
{"geometry": {"type": "Point", "coordinates": [-102.878998213, 30.888145018]}, "type": "Feature", "properties": {"collection_times": [{"days": "Mon-Sat", "time": "4:15pm"}, {"days": "Sun", "time": "Closed"}], "id": "7973500012", "name": "USPS COLLECTION BOX - PO LOBBY", "address": {"city": "FORT STOCKTON", "state": "TX", "street": "106 E 4TH ST", "postcode": "79735"}}},
{"geometry": {"type": "Point", "coordinates": [-102.878998213, 30.888145018]}, "type": "Feature", "properties": {"collection_times": [{"days": "Mon-Sat", "time": "4:15pm"}, {"days": "Sun", "time": "Closed"}], "id": "7973500013", "name": "USPS COLLECTION BOX - PO LOBBY", "address": {"city": "FORT STOCKTON", "state": "TX", "street": "106 E 4TH ST", "postcode": "79735"}}},
{"geometry": {"type": "Point", "coordinates": [-102.878998213, 30.888145018]}, "type": "Feature", "properties": {"collection_times": [{"days": "Mon-Sat", "time": "4:15pm"}, {"days": "Sun", "time": "Closed"}], "id": "7973500014", "name": "USPS COLLECTION BOX - PO LOBBY", "address": {"city": "FORT STOCKTON", "state": "TX", "street": "106 E 4TH ST", "postcode": "79735"}}},
{"geometry": {"type": "Point", "coordinates": [-101.444915214, 32.767919225]}, "type": "Feature", "properties": {"collection_times": [{"days": "Mon-Sat", "time": "12:15pm"}, {"days": "Sun", "time": "Closed"}], "id": "7973800001", "name": "USPS COLLECTION BOX - PO LOBBY", "address": {"city": "GAIL", "state": "TX", "street": "108 S OAK ST", "postcode": "79738"}}},
{"geometry": {"type": "Point", "coordinates": [-101.479954929, 31.864173483]}, "type": "Feature", "properties": {"collection_times": [{"days": "Mon-Fri", "time": "4:15pm"}, {"days": "Sat", "time": "10:15am"}, {"days": "Sun", "time": "Closed"}], "id": "7973900000", "name": "USPS COLLECTION BOX - BLUE BOX", "address": {"city": "GARDEN CITY", "state": "TX", "street": "241 E CURRIE", "postcode": "79739"}}},
{"geometry": {"type": "Point", "coordinates": [-101.479954929, 31.864173483]}, "type": "Feature", "properties": {"collection_times": [{"days": "Mon-Fri", "time": "3:45pm"}, {"days": "Sat", "time": "10:15am"}, {"days": "Sun", "time": "Closed"}], "id": "7973900001", "name": "USPS COLLECTION BOX - PO LOBBY", "address": {"city": "GARDEN CITY", "state": "TX", "street": "241 E CURRIE", "postcode": "79739"}}},
{"geometry": {"type": "Point", "coordinates": [-102.6155535544, 31.9807384032]}, "type": "Feature", "properties": {"collection_times": [{"days": "Mon-Sat", "time": "5:15pm"}, {"days": "Sun", "time": "Closed"}], "id": "7974100000", "name": "USPS COLLECTION BOX - BLUE BOX", "address": {"city": "GOLDSMITH", "state": "TX", "street": "310 E GULF", "postcode": "79741"}}},
{"geometry": {"type": "Point", "coordinates": [-102.615553554, 31.980738403]}, "type": "Feature", "properties": {"collection_times": [{"days": "Mon-Fri", "time": "2:45pm"}, {"days": "Sat", "time": "8:45am"}, {"days": "Sun", "time": "Closed"}], "id": "7974100001", "name": "USPS COLLECTION BOX - PO LOBBY", "address": {"city": "GOLDSMITH", "state": "TX", "street": "310 E GULF", "postcode": "79741"}}},
{"geometry": {"type": "Point", "coordinates": [-102.615553554, 31.980738403]}, "type": "Feature", "properties": {"collection_times": [{"days": "Mon-Fri", "time": "2:45pm"}, {"days": "Sat", "time": "8:45am"}, {"days": "Sun", "time": "Closed"}], "id": "7974100002", "name": "USPS COLLECTION BOX - PO LOBBY", "address": {"city": "GOLDSMITH", "state": "TX", "street": "310 E GULF", "postcode": "79741"}}},
{"geometry": {"type": "Point", "coordinates": [-102.6155535544, 31.9807384032]}, "type": "Feature", "properties": {"collection_times": [{"days": "Mon-Sat", "time": "5:15pm"}, {"days": "Sun", "time": "Closed"}], "id": "7974100004", "name": "USPS COLLECTION BOX - BLUE BOX", "address": {"city": "GOLDSMITH", "state": "TX", "street": "310 E GULF", "postcode": "79741"}}},
{"geometry": {"type": "Point", "coordinates": [-102.8537765267, 31.3407933951]}, "type": "Feature", "properties": {"collection_times": [{"days": "Mon-Sat", "time": "5:00pm"}, {"days": "Sun", "time": "Closed"}], "id": "7974200000", "name": "USPS COLLECTION BOX - BLUE BOX", "address": {"city": "GRANDFALLS", "state": "TX", "street": "214 N AVENUE D", "postcode": "79742"}}},
{"geometry": {"type": "Point", "coordinates": [-102.853769903, 31.340792718]}, "type": "Feature", "properties": {"collection_times": [{"days": "Mon-Fri", "time": "11:30am"}, {"days": "Sat", "time": "10:30am"}, {"days": "Sun", "time": "Closed"}], "id": "7974200001", "name": "USPS COLLECTION BOX - PO LOBBY", "address": {"city": "GRANDFALLS", "state": "TX", "street": "214 N AVENUE D", "postcode": "79742"}}},
{"geometry": {"type": "Point", "coordinates": [-102.711346758, 31.2246866598]}, "type": "Feature", "properties": {"collection_times": [{"days": "Mon-Sat", "time": "5:00pm"}, {"days": "Sun", "time": "Closed"}], "id": "7974300000", "name": "USPS COLLECTION BOX - BLUE BOX", "address": {"city": "IMPERIAL", "state": "TX", "street": "304 E FM ROAD 11", "postcode": "79743"}}},
{"geometry": {"type": "Point", "coordinates": [-102.754918733, 31.291622486]}, "type": "Feature", "properties": {"collection_times": [{"days": "Mon-Fri", "time": "12:30pm"}, {"days": "Sat", "time": "11:45am"}, {"days": "Sun", "time": "Closed"}], "id": "7974300001", "name": "USPS COLLECTION BOX - PO LOBBY", "address": {"city": "IMPERIAL", "state": "TX", "street": "304 E FM ROAD 11", "postcode": "79743"}}},
{"geometry": {"type": "Point", "coordinates": [-102.754918733, 31.291622486]}, "type": "Feature", "properties": {"collection_times": [{"days": "Mon-Fri", "time": "12:30pm"}, {"days": "Sat", "time": "11:45am"}, {"days": "Sun", "time": "Closed"}], "id": "7974300002", "name": "USPS COLLECTION BOX - PO LOBBY", "address": {"city": "IMPERIAL", "state": "TX", "street": "304 E FM ROAD 11", "postcode": "79743"}}},
{"geometry": {"type": "Point", "coordinates": [-101.8980534934, 30.9097999163]}, "type": "Feature", "properties": {"collection_times": [{"days": "Mon-Sat", "time": "3:00pm"}, {"days": "Sun", "time": "Closed"}], "id": "7974400000", "name": "USPS COLLECTION BOX - BLUE BOX", "address": {"city": "IRAAN", "state": "TX", "street": "204 S DRAKE", "postcode": "79744"}}},
{"geometry": {"type": "Point", "coordinates": [-101.898053493, 30.909799916]}, "type": "Feature", "properties": {"collection_times": [{"days": "Mon-Fri", "time": "3:00pm"}, {"days": "Sat", "time": "10:00am"}, {"days": "Sun", "time": "Closed"}], "id": "7974400001", "name": "USPS COLLECTION BOX - PO LOBBY", "address": {"city": "IRAAN", "state": "TX", "street": "204 S DRAKE", "postcode": "79744"}}},
{"geometry": {"type": "Point", "coordinates": [-103.09489029, 31.85897891]}, "type": "Feature", "properties": {"collection_times": [{"days": "Mon-Sat", "time": "4:00pm"}, {"days": "Sun", "time": "Closed"}], "id": "7974500000", "name": "USPS COLLECTION BOX - BLUE BOX", "address": {"city": "KERMIT", "state": "TX", "street": "200 N OAK ST", "postcode": "79745"}}},
{"geometry": {"type": "Point", "coordinates": [-103.095221298, 31.860022051]}, "type": "Feature", "properties": {"collection_times": [{"days": "Mon-Sat", "time": "4:30pm"}, {"days": "Sun", "time": "Closed"}], "id": "7974500001", "name": "USPS COLLECTION BOX - PO LOBBY", "address": {"city": "KERMIT", "state": "TX", "street": "309 N OAK ST", "postcode": "79745"}}},
{"geometry": {"type": "Point", "coordinates": [-103.093817674, 31.856513388]}, "type": "Feature", "properties": {"collection_times": [{"days": "Mon-Sat", "time": "3:15pm"}, {"days": "Sun", "time": "Closed"}], "id": "7974500004", "name": "USPS COLLECTION BOX - BLUE BOX", "address": {"city": "KERMIT", "state": "TX", "street": "101 E WINKLER ST", "postcode": "79745"}}},
{"geometry": {"type": "Point", "coordinates": [-103.088785524, 31.842167565]}, "type": "Feature", "properties": {"collection_times": [{"days": "Mon-Sat", "time": "3:15pm"}, {"days": "Sun", "time": "Closed"}], "id": "7974500007", "name": "USPS COLLECTION BOX - BLUE BOX", "address": {"city": "KERMIT", "state": "TX", "street": "1300 BELLAIRE ST", "postcode": "79745"}}},
{"geometry": {"type": "Point", "coordinates": [-103.093361811, 31.857860537]}, "type": "Feature", "properties": {"collection_times": [{"days": "Mon-Sat", "time": "3:15pm"}, {"days": "Sun", "time": "Closed"}], "id": "7974500012", "name": "USPS COLLECTION BOX - BLUE BOX", "address": {"city": "KERMIT", "state": "TX", "street": "100 N POPLAR ST", "postcode": "79745"}}},
{"geometry": {"type": "Point", "coordinates": [-103.094608235, 31.857447417]}, "type": "Feature", "properties": {"collection_times": [{"days": "Mon-Sat", "time": "3:15pm"}, {"days": "Sun", "time": "Closed"}], "id": "7974500014", "name": "USPS COLLECTION BOX - BLUE BOX", "address": {"city": "KERMIT", "state": "TX", "street": "100 W AUSTIN ST", "postcode": "79745"}}},
{"geometry": {"type": "Point", "coordinates": [-101.6410394807, 32.4026964644]}, "type": "Feature", "properties": {"collection_times": [{"days": "Mon-Fri", "time": "3:30pm"}, {"days": "Sat", "time": "1:30pm"}, {"days": "Sun", "time": "Closed"}], "id": "7974800000", "name": "USPS COLLECTION BOX - BLUE BOX", "address": {"city": "KNOTT", "state": "TX", "street": "5900 W FM 846", "postcode": "79748"}}},
{"geometry": {"type": "Point", "coordinates": [-101.6410394807, 32.4026964644]}, "type": "Feature", "properties": {"collection_times": [{"days": "Mon-Fri", "time": "3:30pm"}, {"days": "Sat", "time": "1:30pm"}, {"days": "Sun", "time": "Closed"}], "id": "7974800003", "name": "USPS COLLECTION BOX - PO LOBBY", "address": {"city": "KNOTT", "state": "TX", "street": "5900 W FM 846", "postcode": "79748"}}},
{"geometry": {"type": "Point", "coordinates": [-101.948271765, 32.305750594]}, "type": "Feature", "properties": {"collection_times": [{"days": "Mon-Fri", "time": "12:00pm"}, {"days": "Sat", "time": "11:00am"}, {"days": "Sun", "time": "Closed"}], "id": "7974900001", "name": "USPS COLLECTION BOX - PO LOBBY", "address": {"city": "LENORAH", "state": "TX", "street": "3298 STATE HIGHWAY 176", "postcode": "79749"}}},
{"geometry": {"type": "Point", "coordinates": [-102.224416003, 31.1359846207]}, "type": "Feature", "properties": {"collection_times": [{"days": "Mon-Sat", "time": "4:15pm"}, {"days": "Sun", "time": "Closed"}], "id": "7975200000", "name": "USPS COLLECTION BOX - BLUE BOX", "address": {"city": "MCCAMEY", "state": "TX", "street": "103 W 3RD ST", "postcode": "79752"}}},
{"geometry": {"type": "Point", "coordinates": [-102.224445525, 31.135912946]}, "type": "Feature", "properties": {"collection_times": [{"days": "Mon-Fri", "time": "4:00pm"}, {"days": "Sat", "time": "12:00pm"}, {"days": "Sun", "time": "Closed"}], "id": "7975200002", "name": "USPS COLLECTION BOX - PO LOBBY", "address": {"city": "MCCAMEY", "state": "TX", "street": "103 W 3RD ST", "postcode": "79752"}}},
{"geometry": {"type": "Point", "coordinates": [-102.224445525, 31.135912946]}, "type": "Feature", "properties": {"collection_times": [{"days": "Mon-Fri", "time": "4:00pm"}, {"days": "Sat", "time": "12:00pm"}, {"days": "Sun", "time": "Closed"}], "id": "7975200004", "name": "USPS COLLECTION BOX - PO LOBBY", "address": {"city": "MCCAMEY", "state": "TX", "street": "103 W 3RD ST", "postcode": "79752"}}},
{"geometry": {"type": "Point", "coordinates": [-103.580102472, 31.84919122]}, "type": "Feature", "properties": {"collection_times": [{"days": "Mon-Sat", "time": "3:15pm"}, {"days": "Sun", "time": "Closed"}], "id": "7975400000", "name": "USPS COLLECTION BOX - BLUE BOX", "address": {"city": "MENTONE", "state": "TX", "street": "111 BELL ST", "postcode": "79754"}}},
{"geometry": {"type": "Point", "coordinates": [-103.5987380081, 31.7058305294]}, "type": "Feature", "properties": {"collection_times": [{"days": "Mon-Sat", "time": "10:00am"}, {"days": "Sun", "time": "Closed"}], "id": "7975400001", "name": "USPS COLLECTION BOX - PO LOBBY", "address": {"city": "MENTONE", "state": "TX", "street": "111 BELL ST", "postcode": "79754"}}},
{"geometry": {"type": "Point", "coordinates": [-103.598738008, 31.705830529]}, "type": "Feature", "properties": {"collection_times": [{"days": "Mon-Sat", "time": "10:00am"}, {"days": "Sun", "time": "Closed"}], "id": "7975400002", "name": "USPS COLLECTION BOX - PO LOBBY", "address": {"city": "MENTONE", "state": "TX", "street": "111 BELL ST", "postcode": "79754"}}},
{"geometry": {"type": "Point", "coordinates": [-101.858136574, 31.634033032]}, "type": "Feature", "properties": {"collection_times": [{"days": "Mon-Fri", "time": "12:45pm"}, {"days": "Sat", "time": "12:15pm"}, {"days": "Sun", "time": "Closed"}], "id": "7975500001", "name": "USPS COLLECTION BOX - PO LOBBY", "address": {"city": "MIDKIFF", "state": "TX", "street": "1005 FM 3095", "postcode": "79755"}}},
{"geometry": {"type": "Point", "coordinates": [-101.858136574, 31.634033032]}, "type": "Feature", "properties": {"collection_times": [{"days": "Mon-Fri", "time": "12:45pm"}, {"days": "Sat", "time": "12:15pm"}, {"days": "Sun", "time": "Closed"}], "id": "7975500002", "name": "USPS COLLECTION BOX - PO LOBBY", "address": {"city": "MIDKIFF", "state": "TX", "street": "1005 FM 3095", "postcode": "79755"}}},
{"geometry": {"type": "Point", "coordinates": [-102.891983751, 31.573116059]}, "type": "Feature", "properties": {"collection_times": [{"days": "Mon-Sat", "time": "2:15pm"}, {"days": "Sun", "time": "Closed"}], "id": "7975600004", "name": "USPS COLLECTION BOX - BLUE BOX", "address": {"city": "MONAHANS", "state": "TX", "street": "2204 S STOCKTON AVE", "postcode": "79756"}}},
{"geometry": {"type": "Point", "coordinates": [-102.894750628, 31.592589903]}, "type": "Feature", "properties": {"collection_times": [{"days": "Mon-Sat", "time": "5:30pm"}, {"days": "Sun", "time": "Closed"}], "id": "7975600006", "name": "USPS COLLECTION BOX - BLUE BOX", "address": {"city": "MONAHANS", "state": "TX", "street": "201 S BETTY AVE", "postcode": "79756"}}},
{"geometry": {"type": "Point", "coordinates": [-102.894750628, 31.592589903]}, "type": "Feature", "properties": {"collection_times": [{"days": "Mon-Sat", "time": "5:30pm"}, {"days": "Sun", "time": "Closed"}], "id": "7975600007", "name": "USPS COLLECTION BOX - BLUE BOX", "address": {"city": "MONAHANS", "state": "TX", "street": "201 S BETTY AVE", "postcode": "79756"}}},
{"geometry": {"type": "Point", "coordinates": [-102.891398591, 31.583693486]}, "type": "Feature", "properties": {"collection_times": [{"days": "Mon-Sat", "time": "10:30am"}, {"days": "Sun", "time": "Closed"}], "id": "7975600009", "name": "USPS COLLECTION BOX - BLUE BOX", "address": {"city": "MONAHANS", "state": "TX", "street": "1113 S BETTY AVE", "postcode": "79756"}}},
{"geometry": {"type": "Point", "coordinates": [-102.894750628, 31.592589903]}, "type": "Feature", "properties": {"collection_times": [{"days": "Mon-Fri", "time": "5:00pm"}, {"days": "Sat", "time": "3:15pm"}, {"days": "Sun", "time": "Closed"}], "id": "7975600012", "name": "USPS COLLECTION BOX - PO LOBBY", "address": {"city": "MONAHANS", "state": "TX", "street": "201 S BETTY AVE", "postcode": "79756"}}},
{"geometry": {"type": "Point", "coordinates": [-102.894750628, 31.592589903]}, "type": "Feature", "properties": {"collection_times": [{"days": "Mon-Fri", "time": "5:00pm"}, {"days": "Sat", "time": "3:15pm"}, {"days": "Sun", "time": "Closed"}], "id": "7975600013", "name": "USPS COLLECTION BOX - PO LOBBY", "address": {"city": "MONAHANS", "state": "TX", "street": "201 S BETTY AVE", "postcode": "79756"}}},
{"geometry": {"type": "Point", "coordinates": [-102.3825440254, 32.034943427]}, "type": "Feature", "properties": {"collection_times": [{"days": "Mon-Sat", "time": "5:30pm"}, {"days": "Sun", "time": "Closed"}], "id": "7975800000", "name": "USPS COLLECTION BOX - BLUE BOX", "address": {"city": "GARDENDALE", "state": "TX", "street": "4600 E US HIGHWAY 158", "postcode": "79758"}}},
{"geometry": {"type": "Point", "coordinates": [-102.382544048, 32.03494335]}, "type": "Feature", "properties": {"collection_times": [{"days": "Mon-Fri", "time": "3:30pm"}, {"days": "Sat", "time": "9:45am"}, {"days": "Sun", "time": "Closed"}], "id": "7975800001", "name": "USPS COLLECTION BOX - PO LOBBY", "address": {"city": "GARDENDALE", "state": "TX", "street": "4600 E US HIGHWAY 158", "postcode": "79758"}}},
{"geometry": {"type": "Point", "coordinates": [-102.3665689294, 31.8463222556]}, "type": "Feature", "properties": {"collection_times": [{"days": "Mon-Sat", "time": "5:30pm"}, {"days": "Sun", "time": "Closed"}], "id": "7976100000", "name": "USPS COLLECTION BOX - BLUE BOX", "address": {"city": "ODESSA", "state": "TX", "street": "200 N TEXAS AVE", "postcode": "79761"}}},
{"geometry": {"type": "Point", "coordinates": [-102.3665689294, 31.8463222556]}, "type": "Feature", "properties": {"collection_times": [{"days": "Mon-Sat", "time": "5:30pm"}, {"days": "Sun", "time": "Closed"}], "id": "7976100001", "name": "USPS COLLECTION BOX - BLUE BOX", "address": {"city": "ODESSA", "state": "TX", "street": "200 N TEXAS AVE", "postcode": "79761"}}},
{"geometry": {"type": "Point", "coordinates": [-102.3545658099, 31.8562240634]}, "type": "Feature", "properties": {"collection_times": [{"days": "Mon-Sat", "time": "5:30pm"}, {"days": "Sun", "time": "Closed"}], "id": "7976100002", "name": "USPS COLLECTION BOX - EXPRESS", "address": {"city": "ODESSA", "state": "TX", "street": "200 N TEXAS AVE", "postcode": "79761"}}},
{"geometry": {"type": "Point", "coordinates": [-102.3665689294, 31.8463222556]}, "type": "Feature", "properties": {"collection_times": [{"days": "Mon-Sat", "time": "5:30pm"}, {"days": "Sun", "time": "Closed"}], "id": "7976100003", "name": "USPS COLLECTION BOX - PO LOBBY", "address": {"city": "ODESSA", "state": "TX", "street": "200 N TEXAS AVE", "postcode": "79761"}}},
{"geometry": {"type": "Point", "coordinates": [-102.363205874, 31.8517243162]}, "type": "Feature", "properties": {"collection_times": [{"days": "Mon-Fri", "time": "3:45pm"}, {"days": "Sat-Sun", "time": "Closed"}], "id": "7976100004", "name": "USPS COLLECTION BOX - BLUE BOX", "address": {"city": "ODESSA", "state": "TX", "street": "500 ADAMS AVE", "postcode": "79761"}}},
{"geometry": {"type": "Point", "coordinates": [-102.3533221889, 31.8594746039]}, "type": "Feature", "properties": {"collection_times": [{"days": "Mon-Fri", "time": "3:30pm"}, {"days": "Sat", "time": "2:00pm"}, {"days": "Sun", "time": "Closed"}], "id": "7976100011", "name": "USPS COLLECTION BOX - BLUE BOX", "address": {"city": "ODESSA", "state": "TX", "street": "1435 E 8TH ST", "postcode": "79761"}}},
{"geometry": {"type": "Point", "coordinates": [-102.3418931256, 31.8619241396]}, "type": "Feature", "properties": {"collection_times": [{"days": "Mon-Fri", "time": "3:30pm"}, {"days": "Sat", "time": "2:00pm"}, {"days": "Sun", "time": "Closed"}], "id": "7976100012", "name": "USPS COLLECTION BOX - BLUE BOX", "address": {"city": "ODESSA", "state": "TX", "street": "800 TOWER DR", "postcode": "79761"}}},
{"geometry": {"type": "Point", "coordinates": [-102.3418931256, 31.8619241396]}, "type": "Feature", "properties": {"collection_times": [{"days": "Mon-Fri", "time": "3:30pm"}, {"days": "Sat", "time": "2:00pm"}, {"days": "Sun", "time": "Closed"}], "id": "7976100013", "name": "USPS COLLECTION BOX - BLUE BOX", "address": {"city": "ODESSA", "state": "TX", "street": "800 TOWER DR", "postcode": "79761"}}},
{"geometry": {"type": "Point", "coordinates": [-102.3464574058, 31.8627104371]}, "type": "Feature", "properties": {"collection_times": [{"days": "Mon-Fri", "time": "3:30pm"}, {"days": "Sat", "time": "2:00pm"}, {"days": "Sun", "time": "Closed"}], "id": "7976100015", "name": "USPS COLLECTION BOX - BLUE BOX", "address": {"city": "ODESSA", "state": "TX", "street": "947 N GRANDVIEW AVE", "postcode": "79761"}}},
{"geometry": {"type": "Point", "coordinates": [-102.375554999, 31.8588900772]}, "type": "Feature", "properties": {"collection_times": [{"days": "Mon-Fri", "time": "4:00pm"}, {"days": "Sat", "time": "2:15pm"}, {"days": "Sun", "time": "Closed"}], "id": "7976100017", "name": "USPS COLLECTION BOX - BLUE BOX", "address": {"city": "ODESSA", "state": "TX", "street": "201 E 16TH ST", "postcode": "79761"}}},
{"geometry": {"type": "Point", "coordinates": [-102.3702725943, 31.8495442569]}, "type": "Feature", "properties": {"collection_times": [{"days": "Mon-Fri", "time": "4:00pm"}, {"days": "Sat-Sun", "time": "Closed"}], "id": "7976100020", "name": "USPS COLLECTION BOX - BLUE BOX", "address": {"city": "ODESSA", "state": "TX", "street": "620 N GRANT AVE", "postcode": "79761"}}},
{"geometry": {"type": "Point", "coordinates": [-102.3750666507, 31.8458532209]}, "type": "Feature", "properties": {"collection_times": [{"days": "Mon-Fri", "time": "4:00pm"}, {"days": "Sat-Sun", "time": "Closed"}], "id": "7976100038", "name": "USPS COLLECTION BOX - BLUE BOX", "address": {"city": "ODESSA", "state": "TX", "street": "523 N ALLEGHANEY AVE", "postcode": "79761"}}},
{"geometry": {"type": "Point", "coordinates": [-102.3691908149, 31.8473241344]}, "type": "Feature", "properties": {"collection_times": [{"days": "Mon-Fri", "time": "4:00pm"}, {"days": "Sat-Sun", "time": "Closed"}], "id": "7976100040", "name": "USPS COLLECTION BOX - BLUE BOX", "address": {"city": "ODESSA", "state": "TX", "street": "119 W 4TH ST", "postcode": "79761"}}},
{"geometry": {"type": "Point", "coordinates": [-102.3283616428, 31.8761290064]}, "type": "Feature", "properties": {"collection_times": [{"days": "Mon-Fri", "time": "3:30pm"}, {"days": "Sat", "time": "1:55pm"}, {"days": "Sun", "time": "Closed"}], "id": "7976100057", "name": "USPS COLLECTION BOX - BLUE BOX", "address": {"city": "ODESSA", "state": "TX", "street": "4600 OAKWOOD DR", "postcode": "79761"}}},
{"geometry": {"type": "Point", "coordinates": [-102.3565025646, 31.8300931144]}, "type": "Feature", "properties": {"collection_times": [{"days": "Mon-Fri", "time": "3:15pm"}, {"days": "Sat", "time": "1:45pm"}, {"days": "Sun", "time": "Closed"}], "id": "7976100059", "name": "USPS COLLECTION BOX - BLUE BOX", "address": {"city": "ODESSA", "state": "TX", "street": "1601 S GRANT AVE", "postcode": "79761"}}},
{"geometry": {"type": "Point", "coordinates": [-102.3665689294, 31.8463222556]}, "type": "Feature", "properties": {"collection_times": [{"days": "Mon-Sat", "time": "5:30pm"}, {"days": "Sun", "time": "Closed"}], "id": "7976100061", "name": "USPS COLLECTION BOX - PO LOBBY", "address": {"city": "ODESSA", "state": "TX", "street": "200 N TEXAS AVE", "postcode": "79761"}}},
{"geometry": {"type": "Point", "coordinates": [-102.3742217185, 31.844694443]}, "type": "Feature", "properties": {"collection_times": [{"days": "Mon-Fri", "time": "4:00pm"}, {"days": "Sat-Sun", "time": "Closed"}], "id": "7976100062", "name": "USPS COLLECTION BOX - BLUE BOX", "address": {"city": "ODESSA", "state": "TX", "street": "500 W 4TH ST", "postcode": "79761"}}},
{"geometry": {"type": "Point", "coordinates": [-102.3500288078, 31.9006663058]}, "type": "Feature", "properties": {"collection_times": [{"days": "Mon-Sat", "time": "5:15pm"}, {"days": "Sun", "time": "Closed"}], "id": "7976200002", "name": "USPS COLLECTION BOX - PO LOBBY", "address": {"city": "ODESSA", "state": "TX", "street": "4551 E 52ND ST", "postcode": "79762"}}},
{"geometry": {"type": "Point", "coordinates": [-102.3500288078, 31.9006663058]}, "type": "Feature", "properties": {"collection_times": [{"days": "Mon-Sat", "time": "5:15pm"}, {"days": "Sun", "time": "Closed"}], "id": "7976200003", "name": "USPS COLLECTION BOX - PO LOBBY", "address": {"city": "ODESSA", "state": "TX", "street": "4551 E 52ND ST", "postcode": "79762"}}},
{"geometry": {"type": "Point", "coordinates": [-102.3506075095, 31.89279163]}, "type": "Feature", "properties": {"collection_times": [{"days": "Mon-Sat", "time": "5:15pm"}, {"days": "Sun", "time": "Closed"}], "id": "7976200004", "name": "USPS COLLECTION BOX - EXPRESS", "address": {"city": "ODESSA", "state": "TX", "street": "4551 E 52ND ST", "postcode": "79762"}}},
{"geometry": {"type": "Point", "coordinates": [-102.3730231219, 31.8850695528]}, "type": "Feature", "properties": {"collection_times": [{"days": "Mon-Sat", "time": "3:00pm"}, {"days": "Sun", "time": "Closed"}], "id": "7976200005", "name": "USPS COLLECTION BOX - BLUE BOX", "address": {"city": "ODESSA", "state": "TX", "street": "1141 E 42ND ST", "postcode": "79762"}}},
{"geometry": {"type": "Point", "coordinates": [-102.3722395782, 31.8796999335]}, "type": "Feature", "properties": {"collection_times": [{"days": "Mon-Sat", "time": "3:15pm"}, {"days": "Sun", "time": "Closed"}], "id": "7976200007", "name": "USPS COLLECTION BOX - BLUE BOX", "address": {"city": "ODESSA", "state": "TX", "street": "3658 N DIXIE BLVD", "postcode": "79762"}}},
{"geometry": {"type": "Point", "coordinates": [-102.3473161898, 31.8757159192]}, "type": "Feature", "properties": {"collection_times": [{"days": "Mon-Sat", "time": "3:15pm"}, {"days": "Sun", "time": "Closed"}], "id": "7976200008", "name": "USPS COLLECTION BOX - BLUE BOX", "address": {"city": "ODESSA", "state": "TX", "street": "2700 N GRANDVIEW AVE", "postcode": "79762"}}},
{"geometry": {"type": "Point", "coordinates": [-102.3272231834, 31.8801295717]}, "type": "Feature", "properties": {"collection_times": [{"days": "Mon-Sat", "time": "3:30pm"}, {"days": "Sun", "time": "Closed"}], "id": "7976200009", "name": "USPS COLLECTION BOX - BLUE BOX", "address": {"city": "ODESSA", "state": "TX", "street": "4555 E UNIVERSITY BLVD", "postcode": "79762"}}},
{"geometry": {"type": "Point", "coordinates": [-102.3272231834, 31.8801295717]}, "type": "Feature", "properties": {"collection_times": [{"days": "Mon-Sat", "time": "3:30pm"}, {"days": "Sun", "time": "Closed"}], "id": "7976200010", "name": "USPS COLLECTION BOX - BLUE BOX", "address": {"city": "ODESSA", "state": "TX", "street": "4555 E UNIVERSITY BLVD", "postcode": "79762"}}},
{"geometry": {"type": "Point", "coordinates": [-102.3272231834, 31.8801295717]}, "type": "Feature", "properties": {"collection_times": [{"days": "Mon-Sat", "time": "3:30pm"}, {"days": "Sun", "time": "Closed"}], "id": "7976200011", "name": "USPS COLLECTION BOX - BLUE BOX", "address": {"city": "ODESSA", "state": "TX", "street": "4555 E UNIVERSITY BLVD", "postcode": "79762"}}},
{"geometry": {"type": "Point", "coordinates": [-102.3178035431, 31.8823204397]}, "type": "Feature", "properties": {"collection_times": [{"days": "Mon-Sat", "time": "3:30pm"}, {"days": "Sun", "time": "Closed"}], "id": "7976200012", "name": "USPS COLLECTION BOX - BLUE BOX", "address": {"city": "ODESSA", "state": "TX", "street": "5050 E UNIVERSITY BLVD", "postcode": "79762"}}},
{"geometry": {"type": "Point", "coordinates": [-102.3313317733, 31.893909621]}, "type": "Feature", "properties": {"collection_times": [{"days": "Mon-Sat", "time": "3:45pm"}, {"days": "Sun", "time": "Closed"}], "id": "7976200015", "name": "USPS COLLECTION BOX - BLUE BOX", "address": {"city": "ODESSA", "state": "TX", "street": "4950 E 42ND ST", "postcode": "79762"}}},
{"geometry": {"type": "Point", "coordinates": [-102.3452615331, 31.8937517136]}, "type": "Feature", "properties": {"collection_times": [{"days": "Mon-Sat", "time": "3:45pm"}, {"days": "Sun", "time": "Closed"}], "id": "7976200016", "name": "USPS COLLECTION BOX - BLUE BOX", "address": {"city": "ODESSA", "state": "TX", "street": "4001 PENBROOK ST", "postcode": "79762"}}},
{"geometry": {"type": "Point", "coordinates": [-102.3430356984, 31.891605059]}, "type": "Feature", "properties": {"collection_times": [{"days": "Mon-Sat", "time": "3:45pm"}, {"days": "Sun", "time": "Closed"}], "id": "7976200017", "name": "USPS COLLECTION BOX - BLUE BOX", "address": {"city": "ODESSA", "state": "TX", "street": "4001 E 42ND ST", "postcode": "79762"}}},
{"geometry": {"type": "Point", "coordinates": [-102.3433871955, 31.8915300473]}, "type": "Feature", "properties": {"collection_times": [{"days": "Mon-Sat", "time": "3:45pm"}, {"days": "Sun", "time": "Closed"}], "id": "7976200019", "name": "USPS COLLECTION BOX - BLUE BOX", "address": {"city": "ODESSA", "state": "TX", "street": "3909 E 42ND ST", "postcode": "79762"}}},
{"geometry": {"type": "Point", "coordinates": [-102.3780325802, 31.8942426707]}, "type": "Feature", "properties": {"collection_times": [{"days": "Mon-Sat", "time": "3:00pm"}, {"days": "Sun", "time": "Closed"}], "id": "7976200024", "name": "USPS COLLECTION BOX - BLUE BOX", "address": {"city": "ODESSA", "state": "TX", "street": "5112 N DIXIE BLVD", "postcode": "79762"}}},
{"geometry": {"type": "Point", "coordinates": [-102.3549386856, 31.8860423533]}, "type": "Feature", "properties": {"collection_times": [{"days": "Mon-Sat", "time": "3:15pm"}, {"days": "Sun", "time": "Closed"}], "id": "7976200025", "name": "USPS COLLECTION BOX - BLUE BOX", "address": {"city": "ODESSA", "state": "TX", "street": "1901 E 37TH ST", "postcode": "79762"}}},
{"geometry": {"type": "Point", "coordinates": [-102.3397857318, 31.8859604741]}, "type": "Feature", "properties": {"collection_times": [{"days": "Mon-Sat", "time": "3:15pm"}, {"days": "Sun", "time": "Closed"}], "id": "7976200026", "name": "USPS COLLECTION BOX - BLUE BOX", "address": {"city": "ODESSA", "state": "TX", "street": "4041 MAPLE AVE", "postcode": "79762"}}},
{"geometry": {"type": "Point", "coordinates": [-102.3168646661, 31.8944950293]}, "type": "Feature", "properties": {"collection_times": [{"days": "Mon-Sat", "time": "3:30pm"}, {"days": "Sun", "time": "Closed"}], "id": "7976200027", "name": "USPS COLLECTION BOX - BLUE BOX", "address": {"city": "ODESSA", "state": "TX", "street": "6001 EASTRIDGE RD", "postcode": "79762"}}},
{"geometry": {"type": "Point", "coordinates": [-102.3882050935, 31.8928725884]}, "type": "Feature", "properties": {"collection_times": [{"days": "Mon-Sat", "time": "3:00pm"}, {"days": "Sun", "time": "Closed"}], "id": "7976200029", "name": "USPS COLLECTION BOX - BLUE BOX", "address": {"city": "ODESSA", "state": "TX", "street": "5200 ANDREWS HWY", "postcode": "79762"}}},
{"geometry": {"type": "Point", "coordinates": [-102.3822272316, 31.8742758968]}, "type": "Feature", "properties": {"collection_times": [{"days": "Mon-Sat", "time": "3:15pm"}, {"days": "Sun", "time": "Closed"}], "id": "7976200032", "name": "USPS COLLECTION BOX - BLUE BOX", "address": {"city": "ODESSA", "state": "TX", "street": "3326 ANDREWS HWY", "postcode": "79762"}}},
{"geometry": {"type": "Point", "coordinates": [-102.3178035431, 31.8823204397]}, "type": "Feature", "properties": {"collection_times": [{"days": "Mon-Sat", "time": "3:30pm"}, {"days": "Sun", "time": "Closed"}], "id": "7976200034", "name": "USPS COLLECTION BOX - BLUE BOX", "address": {"city": "ODESSA", "state": "TX", "street": "5050 E UNIVERSITY BLVD", "postcode": "79762"}}},
{"geometry": {"type": "Point", "coordinates": [-102.3500288078, 31.9006663058]}, "type": "Feature", "properties": {"collection_times": [{"days": "Mon-Sat", "time": "5:15pm"}, {"days": "Sun", "time": "Closed"}], "id": "7976200036", "name": "USPS COLLECTION BOX - APC", "address": {"city": "ODESSA", "state": "TX", "street": "4551 E 52ND ST", "postcode": "79762"}}},
{"geometry": {"type": "Point", "coordinates": [-102.3925949971, 31.8510350401]}, "type": "Feature", "properties": {"collection_times": [{"days": "Mon-Fri", "time": "4:30pm"}, {"days": "Sat", "time": "2:30pm"}, {"days": "Sun", "time": "Closed"}], "id": "7976300001", "name": "USPS COLLECTION BOX - BLUE BOX", "address": {"city": "ODESSA", "state": "TX", "street": "1625 N COUNTY RD W", "postcode": "79763"}}},
{"geometry": {"type": "Point", "coordinates": [-102.3925949971, 31.8510350401]}, "type": "Feature", "properties": {"collection_times": [{"days": "Mon-Fri", "time": "4:30pm"}, {"days": "Sat", "time": "2:30pm"}, {"days": "Sun", "time": "Closed"}], "id": "7976300002", "name": "USPS COLLECTION BOX - BLUE BOX", "address": {"city": "ODESSA", "state": "TX", "street": "1625 N COUNTY RD W", "postcode": "79763"}}},
{"geometry": {"type": "Point", "coordinates": [-102.3829014133, 31.8200649176]}, "type": "Feature", "properties": {"collection_times": [{"days": "Mon-Sat", "time": "3:15pm"}, {"days": "Sun", "time": "Closed"}], "id": "7976300003", "name": "USPS COLLECTION BOX - BLUE BOX", "address": {"city": "ODESSA", "state": "TX", "street": "1350 S COUNTY RD W", "postcode": "79763"}}},
{"geometry": {"type": "Point", "coordinates": [-102.5560791095, 31.702790762]}, "type": "Feature", "properties": {"collection_times": [{"days": "Mon-Sat", "time": "3:15pm"}, {"days": "Sun", "time": "Closed"}], "id": "7976300008", "name": "USPS COLLECTION BOX - BLUE BOX", "address": {"city": "ODESSA", "state": "TX", "street": "5934 W IH 20", "postcode": "79763"}}},
{"geometry": {"type": "Point", "coordinates": [-102.4119460269, 31.8552204136]}, "type": "Feature", "properties": {"collection_times": [{"days": "Mon-Fri", "time": "4:45pm"}, {"days": "Sat", "time": "2:30pm"}, {"days": "Sun", "time": "Closed"}], "id": "7976300009", "name": "USPS COLLECTION BOX - BLUE BOX", "address": {"city": "ODESSA", "state": "TX", "street": "2450 NW LOOP 338", "postcode": "79763"}}},
{"geometry": {"type": "Point", "coordinates": [-102.3973747942, 31.8658307904]}, "type": "Feature", "properties": {"collection_times": [{"days": "Mon-Fri", "time": "3:45pm"}, {"days": "Sat", "time": "2:00pm"}, {"days": "Sun", "time": "Closed"}], "id": "7976400001", "name": "USPS COLLECTION BOX - BLUE BOX", "address": {"city": "ODESSA", "state": "TX", "street": "2751 N COUNTY RD W", "postcode": "79764"}}},
{"geometry": {"type": "Point", "coordinates": [-102.3973747942, 31.8658307904]}, "type": "Feature", "properties": {"collection_times": [{"days": "Mon-Fri", "time": "3:45pm"}, {"days": "Sat", "time": "2:00pm"}, {"days": "Sun", "time": "Closed"}], "id": "7976400002", "name": "USPS COLLECTION BOX - BLUE BOX", "address": {"city": "ODESSA", "state": "TX", "street": "2751 N COUNTY RD W", "postcode": "79764"}}},
{"geometry": {"type": "Point", "coordinates": [-102.4148487851, 31.9213908031]}, "type": "Feature", "properties": {"collection_times": [{"days": "Mon-Sat", "time": "3:00pm"}, {"days": "Sun", "time": "Closed"}], "id": "7976400012", "name": "USPS COLLECTION BOX - BLUE BOX", "address": {"city": "ODESSA", "state": "TX", "street": "7000 N COUNTY RD W", "postcode": "79764"}}},
{"geometry": {"type": "Point", "coordinates": [-102.438949681, 31.8554974]}, "type": "Feature", "properties": {"collection_times": [{"days": "Mon-Fri", "time": "5:00pm"}, {"days": "Sat", "time": "2:15pm"}, {"days": "Sun", "time": "Closed"}], "id": "7976400014", "name": "USPS COLLECTION BOX - PO LOBBY", "address": {"city": "ODESSA", "state": "TX", "street": "5200 W UNIVERSITY BLVD", "postcode": "79764"}}},
{"geometry": {"type": "Point", "coordinates": [-102.438949681, 31.8554974]}, "type": "Feature", "properties": {"collection_times": [{"days": "Mon-Fri", "time": "5:00pm"}, {"days": "Sat", "time": "2:15pm"}, {"days": "Sun", "time": "Closed"}], "id": "7976400015", "name": "USPS COLLECTION BOX - PO LOBBY", "address": {"city": "ODESSA", "state": "TX", "street": "5200 W UNIVERSITY BLVD", "postcode": "79764"}}},
{"geometry": {"type": "Point", "coordinates": [-102.4013395381, 31.9343363916]}, "type": "Feature", "properties": {"collection_times": [{"days": "Mon-Sat", "time": "3:00pm"}, {"days": "Sun", "time": "Closed"}], "id": "7976500000", "name": "USPS COLLECTION BOX - BLUE BOX", "address": {"city": "ODESSA", "state": "TX", "street": "8700 ANDREWS HWY", "postcode": "79765"}}},
{"geometry": {"type": "Point", "coordinates": [-102.3326580205, 31.8336600128]}, "type": "Feature", "properties": {"collection_times": [{"days": "Mon-Fri", "time": "3:15pm"}, {"days": "Sat", "time": "1:55pm"}, {"days": "Sun", "time": "Closed"}], "id": "7976600000", "name": "USPS COLLECTION BOX - BLUE BOX", "address": {"city": "ODESSA", "state": "TX", "street": "2201 S GRANDVIEW AVE", "postcode": "79766"}}},
{"geometry": {"type": "Point", "coordinates": [-103.9082876367, 31.8281013817]}, "type": "Feature", "properties": {"collection_times": [{"days": "Mon-Sat", "time": "2:45pm"}, {"days": "Sun", "time": "Closed"}], "id": "7977000000", "name": "USPS COLLECTION BOX - BLUE BOX", "address": {"city": "ORLA", "state": "TX", "street": "3737 N HIGHWAY 285", "postcode": "79770"}}},
{"geometry": {"type": "Point", "coordinates": [-103.908289672, 31.828102451]}, "type": "Feature", "properties": {"collection_times": [{"days": "Mon-Fri", "time": "2:00pm"}, {"days": "Sat", "time": "9:15am"}, {"days": "Sun", "time": "Closed"}], "id": "7977000001", "name": "USPS COLLECTION BOX - PO LOBBY", "address": {"city": "ORLA", "state": "TX", "street": "3737 N HIGHWAY 285", "postcode": "79770"}}},
{"geometry": {"type": "Point", "coordinates": [-103.9082896718, 31.828102451]}, "type": "Feature", "properties": {"collection_times": [{"days": "Mon-Fri", "time": "2:00pm"}, {"days": "Sat", "time": "9:15am"}, {"days": "Sun", "time": "Closed"}], "id": "7977000002", "name": "USPS COLLECTION BOX - PO LOBBY", "address": {"city": "ORLA", "state": "TX", "street": "3737 N HIGHWAY 285", "postcode": "79770"}}},
{"geometry": {"type": "Point", "coordinates": [-103.495035597, 31.424486814]}, "type": "Feature", "properties": {"collection_times": [{"days": "Mon-Sat", "time": "4:30pm"}, {"days": "Sun", "time": "Closed"}], "id": "7977200002", "name": "USPS COLLECTION BOX - PO LOBBY", "address": {"city": "PECOS", "state": "TX", "street": "106 W 4TH ST", "postcode": "79772"}}},
{"geometry": {"type": "Point", "coordinates": [-103.495035597, 31.424486814]}, "type": "Feature", "properties": {"collection_times": [{"days": "Mon-Sat", "time": "4:30pm"}, {"days": "Sun", "time": "Closed"}], "id": "7977200003", "name": "USPS COLLECTION BOX - PO LOBBY", "address": {"city": "PECOS", "state": "TX", "street": "106 W 4TH ST", "postcode": "79772"}}},
{"geometry": {"type": "Point", "coordinates": [-103.500748117, 31.396213726]}, "type": "Feature", "properties": {"collection_times": [{"days": "Mon-Sat", "time": "1:30pm"}, {"days": "Sun", "time": "Closed"}], "id": "7977200004", "name": "USPS COLLECTION BOX - BLUE BOX", "address": {"city": "PECOS", "state": "TX", "street": "100 N FRONTAGE RD", "postcode": "79772"}}},
{"geometry": {"type": "Point", "coordinates": [-103.493785137, 31.424748277]}, "type": "Feature", "properties": {"collection_times": [{"days": "Mon-Sat", "time": "1:00pm"}, {"days": "Sun", "time": "Closed"}], "id": "7977200005", "name": "USPS COLLECTION BOX - BLUE BOX", "address": {"city": "PECOS", "state": "TX", "street": "410 S CEDAR ST", "postcode": "79772"}}},
{"geometry": {"type": "Point", "coordinates": [-103.5022991059, 31.4183473553]}, "type": "Feature", "properties": {"collection_times": [{"days": "Mon-Sat", "time": "3:30pm"}, {"days": "Sun", "time": "Closed"}], "id": "7977200006", "name": "USPS COLLECTION BOX - BLUE BOX", "address": {"city": "PECOS", "state": "TX", "street": "724 S EDDY ST", "postcode": "79772"}}},
{"geometry": {"type": "Point", "coordinates": [-103.498240301, 31.431707656]}, "type": "Feature", "properties": {"collection_times": [{"days": "Mon-Sat", "time": "4:30pm"}, {"days": "Sun", "time": "Closed"}], "id": "7977200009", "name": "USPS COLLECTION BOX - BLUE BOX", "address": {"city": "PECOS", "state": "TX", "street": "400 N OAK ST", "postcode": "79772"}}},
{"geometry": {"type": "Point", "coordinates": [-103.498240301, 31.431707656]}, "type": "Feature", "properties": {"collection_times": [{"days": "Mon-Sat", "time": "4:30pm"}, {"days": "Sun", "time": "Closed"}], "id": "7977200010", "name": "USPS COLLECTION BOX - BLUE BOX", "address": {"city": "PECOS", "state": "TX", "street": "400 N OAK ST", "postcode": "79772"}}},
{"geometry": {"type": "Point", "coordinates": [-102.591099219, 31.7397022451]}, "type": "Feature", "properties": {"collection_times": [{"days": "Mon-Fri", "time": "5:00pm"}, {"days": "Sat", "time": "4:00pm"}, {"days": "Sun", "time": "Closed"}], "id": "7977600000", "name": "USPS COLLECTION BOX - BLUE BOX", "address": {"city": "PENWELL", "state": "TX", "street": "157 S FM ROAD 1601", "postcode": "79776"}}},
{"geometry": {"type": "Point", "coordinates": [-102.591088258, 31.739703316]}, "type": "Feature", "properties": {"collection_times": [{"days": "Mon-Fri", "time": "9:45am"}, {"days": "Sat", "time": "1:45pm"}, {"days": "Sun", "time": "Closed"}], "id": "7977600001", "name": "USPS COLLECTION BOX - PO LOBBY", "address": {"city": "PENWELL", "state": "TX", "street": "157 S FM ROAD 1601", "postcode": "79776"}}},
{"geometry": {"type": "Point", "coordinates": [-103.353166537, 31.564723407]}, "type": "Feature", "properties": {"collection_times": [{"days": "Mon-Fri", "time": "4:00pm"}, {"days": "Sat", "time": "3:00pm"}, {"days": "Sun", "time": "Closed"}], "id": "7977700000", "name": "USPS COLLECTION BOX - BLUE BOX", "address": {"city": "PYOTE", "state": "TX", "street": "211 N ROGERS", "postcode": "79777"}}},
{"geometry": {"type": "Point", "coordinates": [-103.120960229, 31.534313888]}, "type": "Feature", "properties": {"collection_times": [{"days": "Mon-Fri", "time": "2:45pm"}, {"days": "Sat", "time": "10:30am"}, {"days": "Sun", "time": "Closed"}], "id": "7977700001", "name": "USPS COLLECTION BOX - PO LOBBY", "address": {"city": "PYOTE", "state": "TX", "street": "211 N ROGERS", "postcode": "79777"}}},
{"geometry": {"type": "Point", "coordinates": [-103.120960229, 31.534313888]}, "type": "Feature", "properties": {"collection_times": [{"days": "Mon-Fri", "time": "2:45pm"}, {"days": "Sat", "time": "10:30am"}, {"days": "Sun", "time": "Closed"}], "id": "7977700002", "name": "USPS COLLECTION BOX - PO LOBBY", "address": {"city": "PYOTE", "state": "TX", "street": "211 N ROGERS", "postcode": "79777"}}},
{"geometry": {"type": "Point", "coordinates": [-101.9381167788, 31.2241173318]}, "type": "Feature", "properties": {"collection_times": [{"days": "Mon-Sat", "time": "3:30pm"}, {"days": "Sun", "time": "Closed"}], "id": "7977800000", "name": "USPS COLLECTION BOX - BLUE BOX", "address": {"city": "RANKIN", "state": "TX", "street": "819 S GRAND ST", "postcode": "79778"}}},
{"geometry": {"type": "Point", "coordinates": [-101.937991331, 31.220227545]}, "type": "Feature", "properties": {"collection_times": [{"days": "Mon-Fri", "time": "3:30pm"}, {"days": "Sat", "time": "10:45am"}, {"days": "Sun", "time": "Closed"}], "id": "7977800001", "name": "USPS COLLECTION BOX - PO LOBBY", "address": {"city": "RANKIN", "state": "TX", "street": "819 S GRAND ST", "postcode": "79778"}}},
{"geometry": {"type": "Point", "coordinates": [-101.937991331, 31.220227545]}, "type": "Feature", "properties": {"collection_times": [{"days": "Mon-Fri", "time": "3:30pm"}, {"days": "Sat", "time": "10:45am"}, {"days": "Sun", "time": "Closed"}], "id": "7977800002", "name": "USPS COLLECTION BOX - PO LOBBY", "address": {"city": "RANKIN", "state": "TX", "street": "819 S GRAND ST", "postcode": "79778"}}},
{"geometry": {"type": "Point", "coordinates": [-103.658086882, 31.034691434]}, "type": "Feature", "properties": {"collection_times": [{"days": "Mon-Fri", "time": "3:00pm"}, {"days": "Sat", "time": "11:30am"}, {"days": "Sun", "time": "Closed"}], "id": "7978000000", "name": "USPS COLLECTION BOX - BLUE BOX", "address": {"city": "SARAGOSA", "state": "TX", "street": "200 W MAIN", "postcode": "79780"}}},
{"geometry": {"type": "Point", "coordinates": [-103.658086882, 31.034691434]}, "type": "Feature", "properties": {"collection_times": [{"days": "Mon-Fri", "time": "2:00pm"}, {"days": "Sat", "time": "11:30am"}, {"days": "Sun", "time": "Closed"}], "id": "7978000001", "name": "USPS COLLECTION BOX - PO LOBBY", "address": {"city": "SARAGOSA", "state": "TX", "street": "200 W MAIN", "postcode": "79780"}}},
{"geometry": {"type": "Point", "coordinates": [-103.658086882, 31.034691434]}, "type": "Feature", "properties": {"collection_times": [{"days": "Mon-Fri", "time": "2:00pm"}, {"days": "Sat", "time": "11:30am"}, {"days": "Sun", "time": "Closed"}], "id": "7978000002", "name": "USPS COLLECTION BOX - PO LOBBY", "address": {"city": "SARAGOSA", "state": "TX", "street": "200 W MAIN", "postcode": "79780"}}},
{"geometry": {"type": "Point", "coordinates": [-102.0031848845, 30.6984761976]}, "type": "Feature", "properties": {"collection_times": [{"days": "Mon-Sat", "time": "2:30pm"}, {"days": "Sun", "time": "Closed"}], "id": "7978100000", "name": "USPS COLLECTION BOX - BLUE BOX", "address": {"city": "SHEFFIELD", "state": "TX", "street": "9580 HIGHWAY 290", "postcode": "79781"}}},
{"geometry": {"type": "Point", "coordinates": [-101.818313104, 30.690595965]}, "type": "Feature", "properties": {"collection_times": [{"days": "Mon-Fri", "time": "12:30pm"}, {"days": "Sat", "time": "11:00am"}, {"days": "Sun", "time": "Closed"}], "id": "7978100001", "name": "USPS COLLECTION BOX - PO LOBBY", "address": {"city": "SHEFFIELD", "state": "TX", "street": "9580 HIGHWAY 290", "postcode": "79781"}}},
{"geometry": {"type": "Point", "coordinates": [-101.951770937, 32.164248947]}, "type": "Feature", "properties": {"collection_times": [{"days": "Mon-Sat", "time": "6:15pm"}, {"days": "Sun", "time": "Closed"}], "id": "7978200000", "name": "USPS COLLECTION BOX - BLUE BOX", "address": {"city": "STANTON", "state": "TX", "street": "216 W BUSINESS 20 LOOP", "postcode": "79782"}}},
{"geometry": {"type": "Point", "coordinates": [-101.78849304, 32.1295161262]}, "type": "Feature", "properties": {"collection_times": [{"days": "Mon-Sat", "time": "6:15pm"}, {"days": "Sun", "time": "Closed"}], "id": "7978200001", "name": "USPS COLLECTION BOX - BLUE BOX", "address": {"city": "STANTON", "state": "TX", "street": "101 N SAINT MARY", "postcode": "79782"}}},
{"geometry": {"type": "Point", "coordinates": [-101.78849304, 32.1295161262]}, "type": "Feature", "properties": {"collection_times": [{"days": "Mon-Sat", "time": "6:15pm"}, {"days": "Sun", "time": "Closed"}], "id": "7978200002", "name": "USPS COLLECTION BOX - BLUE BOX", "address": {"city": "STANTON", "state": "TX", "street": "101 N SAINT MARY", "postcode": "79782"}}},
{"geometry": {"type": "Point", "coordinates": [-101.788468696, 32.129657322]}, "type": "Feature", "properties": {"collection_times": [{"days": "Mon-Fri", "time": "3:30pm"}, {"days": "Sat", "time": "9:45am"}, {"days": "Sun", "time": "Closed"}], "id": "7978200003", "name": "USPS COLLECTION BOX - PO LOBBY", "address": {"city": "STANTON", "state": "TX", "street": "101 N SAINT MARY", "postcode": "79782"}}},
{"geometry": {"type": "Point", "coordinates": [-101.788468696, 32.129657322]}, "type": "Feature", "properties": {"collection_times": [{"days": "Mon-Fri", "time": "3:30pm"}, {"days": "Sat", "time": "9:45am"}, {"days": "Sun", "time": "Closed"}], "id": "7978200004", "name": "USPS COLLECTION BOX - PO LOBBY", "address": {"city": "STANTON", "state": "TX", "street": "101 N SAINT MARY", "postcode": "79782"}}},
{"geometry": {"type": "Point", "coordinates": [-101.803081179, 32.139110448]}, "type": "Feature", "properties": {"collection_times": [{"days": "Mon-Fri", "time": "2:45pm"}, {"days": "Sat-Sun", "time": "Closed"}], "id": "7978200005", "name": "USPS COLLECTION BOX - BLUE BOX", "address": {"city": "STANTON", "state": "TX", "street": "3414 INTERSTATE 20", "postcode": "79782"}}},
{"geometry": {"type": "Point", "coordinates": [-101.989915559, 32.30628726]}, "type": "Feature", "properties": {"collection_times": [{"days": "Mon-Sat", "time": "12:45pm"}, {"days": "Sun", "time": "Closed"}], "id": "7978300000", "name": "USPS COLLECTION BOX - PO LOBBY", "address": {"city": "TARZAN", "state": "TX", "street": "2764 STATE HIGHWAY 176", "postcode": "79783"}}},
{"geometry": {"type": "Point", "coordinates": [-101.989915559, 32.30628726]}, "type": "Feature", "properties": {"collection_times": [{"days": "Mon-Sat", "time": "12:45pm"}, {"days": "Sun", "time": "Closed"}], "id": "7978300001", "name": "USPS COLLECTION BOX - BLUE BOX", "address": {"city": "TARZAN", "state": "TX", "street": "2764 STATE HIGHWAY 176", "postcode": "79783"}}},
{"geometry": {"type": "Point", "coordinates": [-103.794576536, 31.312863024]}, "type": "Feature", "properties": {"collection_times": [{"days": "Mon-Sat", "time": "3:45pm"}, {"days": "Sun", "time": "Closed"}], "id": "7978500000", "name": "USPS COLLECTION BOX - BLUE BOX", "address": {"city": "TOYAH", "state": "TX", "street": "1984 W FRONTAGE I 20", "postcode": "79785"}}},
{"geometry": {"type": "Point", "coordinates": [-103.7945765361, 31.3128630235]}, "type": "Feature", "properties": {"collection_times": [{"days": "Mon-Fri", "time": "12:45pm"}, {"days": "Sat", "time": "11:15am"}, {"days": "Sun", "time": "Closed"}], "id": "7978500001", "name": "USPS COLLECTION BOX - PO LOBBY", "address": {"city": "TOYAH", "state": "TX", "street": "1984 W FRONTAGE I 20", "postcode": "79785"}}},
{"geometry": {"type": "Point", "coordinates": [-103.794576536, 31.312863024]}, "type": "Feature", "properties": {"collection_times": [{"days": "Mon-Fri", "time": "12:45pm"}, {"days": "Sat", "time": "11:15am"}, {"days": "Sun", "time": "Closed"}], "id": "7978500002", "name": "USPS COLLECTION BOX - PO LOBBY", "address": {"city": "TOYAH", "state": "TX", "street": "1984 W FRONTAGE I 20", "postcode": "79785"}}},
{"geometry": {"type": "Point", "coordinates": [-103.0007486259, 31.5692509971]}, "type": "Feature", "properties": {"collection_times": [{"days": "Mon-Fri", "time": "4:15pm"}, {"days": "Sat", "time": "3:15pm"}, {"days": "Sun", "time": "Closed"}], "id": "7978800000", "name": "USPS COLLECTION BOX - BLUE BOX", "address": {"city": "WICKETT", "state": "TX", "street": "300 OBRIEN ST", "postcode": "79788"}}},
{"geometry": {"type": "Point", "coordinates": [-103.0007500436, 31.569408868]}, "type": "Feature", "properties": {"collection_times": [{"days": "Mon-Fri", "time": "11:45am"}, {"days": "Sat", "time": "9:00am"}, {"days": "Sun", "time": "Closed"}], "id": "7978800001", "name": "USPS COLLECTION BOX - PO LOBBY", "address": {"city": "WICKETT", "state": "TX", "street": "300 OBRIEN ST", "postcode": "79788"}}},
{"geometry": {"type": "Point", "coordinates": [-103.000710963, 31.569330946]}, "type": "Feature", "properties": {"collection_times": [{"days": "Mon-Fri", "time": "11:45am"}, {"days": "Sat", "time": "9:00am"}, {"days": "Sun", "time": "Closed"}], "id": "7978800002", "name": "USPS COLLECTION BOX - PO LOBBY", "address": {"city": "WICKETT", "state": "TX", "street": "300 OBRIEN ST", "postcode": "79788"}}},
{"geometry": {"type": "Point", "coordinates": [-103.000710963, 31.569330946]}, "type": "Feature", "properties": {"collection_times": [{"days": "Mon-Fri", "time": "11:45am"}, {"days": "Sat", "time": "9:00am"}, {"days": "Sun", "time": "Closed"}], "id": "7978800003", "name": "USPS COLLECTION BOX - PO LOBBY", "address": {"city": "WICKETT", "state": "TX", "street": "300 OBRIEN ST", "postcode": "79788"}}},
{"geometry": {"type": "Point", "coordinates": [-103.1606440771, 31.7508275594]}, "type": "Feature", "properties": {"collection_times": [{"days": "Mon-Sat", "time": "4:00pm"}, {"days": "Sun", "time": "Closed"}], "id": "7978900000", "name": "USPS COLLECTION BOX - BLUE BOX", "address": {"city": "WINK", "state": "TX", "street": "210 E HENDRICKS BLVD", "postcode": "79789"}}},
{"geometry": {"type": "Point", "coordinates": [-103.157097216, 31.755466825]}, "type": "Feature", "properties": {"collection_times": [{"days": "Mon-Fri", "time": "4:00pm"}, {"days": "Sat", "time": "9:00am"}, {"days": "Sun", "time": "Closed"}], "id": "7978900001", "name": "USPS COLLECTION BOX - PO LOBBY", "address": {"city": "WINK", "state": "TX", "street": "210 E HENDRICKS BLVD", "postcode": "79789"}}}
]}
