{"type": "FeatureCollection", "features": [
{"geometry": {"type": "Point", "coordinates": [-103.670078095, 30.355097474]}, "type": "Feature", "properties": {"collection_times": [{"days": "Mon-Sat", "time": "4:15pm"}, {"days": "Sun", "time": "Closed"}], "id": "7983000002", "name": "USPS COLLECTION BOX - PO LOBBY", "address": {"city": "ALPINE", "state": "TX", "street": "901 W HOLLAND AVE", "postcode": "79830"}}},
{"geometry": {"type": "Point", "coordinates": [-103.6700780954, 30.355097474]}, "type": "Feature", "properties": {"collection_times": [{"days": "Mon-Sat", "time": "4:15pm"}, {"days": "Sun", "time": "Closed"}], "id": "7983000012", "name": "USPS COLLECTION BOX - PO LOBBY", "address": {"city": "ALPINE", "state": "TX", "street": "901 W HOLLAND AVE", "postcode": "79830"}}},
{"geometry": {"type": "Point", "coordinates": [-103.670078095, 30.355097474]}, "type": "Feature", "properties": {"collection_times": [{"days": "Mon-Sat", "time": "4:00pm"}, {"days": "Sun", "time": "Closed"}], "id": "7983000014", "name": "USPS COLLECTION BOX - BLUE BOX", "address": {"city": "ALPINE", "state": "TX", "street": "901 W HOLLAND AVE", "postcode": "79830"}}},
{"geometry": {"type": "Point", "coordinates": [-103.078576136, 29.3677822623]}, "type": "Feature", "properties": {"collection_times": [{"days": "Mon-Sat", "time": "12:30pm"}, {"days": "Sun", "time": "Closed"}], "id": "7983400001", "name": "USPS COLLECTION BOX - BLUE BOX", "address": {"city": "BIG BEND NATL PK", "state": "TX", "street": "1 HWY 385 PANTHER JCT", "postcode": "79834"}}},
{"geometry": {"type": "Point", "coordinates": [-106.600498202, 31.913390064]}, "type": "Feature", "properties": {"collection_times": [{"days": "Mon-Fri", "time": "5:00pm"}, {"days": "Sat", "time": "12:00pm"}, {"days": "Sun", "time": "Closed"}], "id": "7983500001", "name": "USPS COLLECTION BOX - BLUE BOX", "address": {"city": "CANUTILLO", "state": "TX", "street": "7050 DONIPHAN DR", "postcode": "79835"}}},
{"geometry": {"type": "Point", "coordinates": [-106.600498202, 31.913390064]}, "type": "Feature", "properties": {"collection_times": [{"days": "Mon-Fri", "time": "5:00pm"}, {"days": "Sat", "time": "12:00pm"}, {"days": "Sun", "time": "Closed"}], "id": "7983500003", "name": "USPS COLLECTION BOX - BLUE BOX", "address": {"city": "CANUTILLO", "state": "TX", "street": "7050 DONIPHAN DR", "postcode": "79835"}}},
{"geometry": {"type": "Point", "coordinates": [-106.600498202, 31.913390064]}, "type": "Feature", "properties": {"collection_times": [{"days": "Mon-Fri", "time": "5:00pm"}, {"days": "Sat", "time": "12:00pm"}, {"days": "Sun", "time": "Closed"}], "id": "7983500004", "name": "USPS COLLECTION BOX - PO LOBBY", "address": {"city": "CANUTILLO", "state": "TX", "street": "7050 DONIPHAN DR", "postcode": "79835"}}},
{"geometry": {"type": "Point", "coordinates": [-106.2336787945, 31.588294441]}, "type": "Feature", "properties": {"collection_times": [{"days": "Mon-Sat", "time": "5:30pm"}, {"days": "Sun", "time": "Closed"}], "id": "7983600000", "name": "USPS COLLECTION BOX - BLUE BOX", "address": {"city": "CLINT", "state": "TX", "street": "13001 ALAMEDA AVE", "postcode": "79836"}}},
{"geometry": {"type": "Point", "coordinates": [-106.2336787945, 31.588294441]}, "type": "Feature", "properties": {"collection_times": [{"days": "Mon-Sat", "time": "5:30pm"}, {"days": "Sun", "time": "Closed"}], "id": "7983600001", "name": "USPS COLLECTION BOX - BLUE BOX", "address": {"city": "CLINT", "state": "TX", "street": "13001 ALAMEDA AVE", "postcode": "79836"}}},
{"geometry": {"type": "Point", "coordinates": [-106.232979036, 31.587540532]}, "type": "Feature", "properties": {"collection_times": [{"days": "Mon-Fri", "time": "5:00pm"}, {"days": "Sat", "time": "11:30am"}, {"days": "Sun", "time": "Closed"}], "id": "7983600002", "name": "USPS COLLECTION BOX - PO LOBBY", "address": {"city": "CLINT", "state": "TX", "street": "13001 ALAMEDA AVE", "postcode": "79836"}}},
{"geometry": {"type": "Point", "coordinates": [-106.232979036, 31.5875405324]}, "type": "Feature", "properties": {"collection_times": [{"days": "Mon-Fri", "time": "5:00pm"}, {"days": "Sat", "time": "11:30am"}, {"days": "Sun", "time": "Closed"}], "id": "7983600003", "name": "USPS COLLECTION BOX - PO LOBBY", "address": {"city": "CLINT", "state": "TX", "street": "13001 ALAMEDA AVE", "postcode": "79836"}}},
{"geometry": {"type": "Point", "coordinates": [-105.2012556398, 31.9386650341]}, "type": "Feature", "properties": {"collection_times": [{"days": "Mon-Fri", "time": "2:45pm"}, {"days": "Sat", "time": "10:00am"}, {"days": "Sun", "time": "Closed"}], "id": "7983700000", "name": "USPS COLLECTION BOX - PO LOBBY", "address": {"city": "DELL CITY", "state": "TX", "street": "108 N MAIN ST", "postcode": "79837"}}},
{"geometry": {"type": "Point", "coordinates": [-105.20125564, 31.938665034]}, "type": "Feature", "properties": {"collection_times": [{"days": "Mon-Fri", "time": "2:45pm"}, {"days": "Sat", "time": "10:00am"}, {"days": "Sun", "time": "Closed"}], "id": "7983700001", "name": "USPS COLLECTION BOX - PO LOBBY", "address": {"city": "DELL CITY", "state": "TX", "street": "108 N MAIN ST", "postcode": "79837"}}},
{"geometry": {"type": "Point", "coordinates": [-105.20125564, 31.938665034]}, "type": "Feature", "properties": {"collection_times": [{"days": "Mon-Fri", "time": "2:45pm"}, {"days": "Sat", "time": "10:00am"}, {"days": "Sun", "time": "Closed"}], "id": "7983700002", "name": "USPS COLLECTION BOX - PO LOBBY", "address": {"city": "DELL CITY", "state": "TX", "street": "108 N MAIN ST", "postcode": "79837"}}},
{"geometry": {"type": "Point", "coordinates": [-106.1561195848, 31.4987845044]}, "type": "Feature", "properties": {"collection_times": [{"days": "Mon-Sat", "time": "5:00pm"}, {"days": "Sun", "time": "Closed"}], "id": "7983800000", "name": "USPS COLLECTION BOX - BLUE BOX", "address": {"city": "FABENS", "state": "TX", "street": "605 W MAIN ST", "postcode": "79838"}}},
{"geometry": {"type": "Point", "coordinates": [-106.1631497323, 31.5075769646]}, "type": "Feature", "properties": {"collection_times": [{"days": "Mon-Fri", "time": "4:00pm"}, {"days": "Sat", "time": "11:30am"}, {"days": "Sun", "time": "Closed"}], "id": "7983800001", "name": "USPS COLLECTION BOX - PO LOBBY", "address": {"city": "FABENS", "state": "TX", "street": "605 W MAIN ST", "postcode": "79838"}}},
{"geometry": {"type": "Point", "coordinates": [-106.163149732, 31.507576965]}, "type": "Feature", "properties": {"collection_times": [{"days": "Mon-Fri", "time": "4:00pm"}, {"days": "Sat", "time": "11:30am"}, {"days": "Sun", "time": "Closed"}], "id": "7983800002", "name": "USPS COLLECTION BOX - PO LOBBY", "address": {"city": "FABENS", "state": "TX", "street": "605 W MAIN ST", "postcode": "79838"}}},
{"geometry": {"type": "Point", "coordinates": [-106.1561195848, 31.4987845044]}, "type": "Feature", "properties": {"collection_times": [{"days": "Mon-Sat", "time": "5:00pm"}, {"days": "Sun", "time": "Closed"}], "id": "7983800003", "name": "USPS COLLECTION BOX - BLUE BOX", "address": {"city": "FABENS", "state": "TX", "street": "605 W MAIN ST", "postcode": "79838"}}},
{"geometry": {"type": "Point", "coordinates": [-105.7087768989, 31.5177363557]}, "type": "Feature", "properties": {"collection_times": [{"days": "Mon-Sat", "time": "4:15pm"}, {"days": "Sun", "time": "Closed"}], "id": "7983900000", "name": "USPS COLLECTION BOX - BLUE BOX", "address": {"city": "FORT HANCOCK", "state": "TX", "street": "107 W TX HIGHWAY 20", "postcode": "79839"}}},
{"geometry": {"type": "Point", "coordinates": [-105.8932748828, 31.313748907]}, "type": "Feature", "properties": {"collection_times": [{"days": "Mon-Fri", "time": "3:45pm"}, {"days": "Sat", "time": "11:45am"}, {"days": "Sun", "time": "Closed"}], "id": "7983900001", "name": "USPS COLLECTION BOX - PO LOBBY", "address": {"city": "FORT HANCOCK", "state": "TX", "street": "107 W TX HIGHWAY 20", "postcode": "79839"}}},
{"geometry": {"type": "Point", "coordinates": [-105.8932748828, 31.313748907]}, "type": "Feature", "properties": {"collection_times": [{"days": "Mon-Fri", "time": "3:45pm"}, {"days": "Sat", "time": "11:45am"}, {"days": "Sun", "time": "Closed"}], "id": "7983900002", "name": "USPS COLLECTION BOX - PO LOBBY", "address": {"city": "FORT HANCOCK", "state": "TX", "street": "107 W TX HIGHWAY 20", "postcode": "79839"}}},
{"geometry": {"type": "Point", "coordinates": [-105.8932748828, 31.313748907]}, "type": "Feature", "properties": {"collection_times": [{"days": "Mon-Fri", "time": "3:45pm"}, {"days": "Sat", "time": "11:45am"}, {"days": "Sun", "time": "Closed"}], "id": "7983900003", "name": "USPS COLLECTION BOX - PO LOBBY", "address": {"city": "FORT HANCOCK", "state": "TX", "street": "107 W TX HIGHWAY 20", "postcode": "79839"}}},
{"geometry": {"type": "Point", "coordinates": [-105.893274883, 31.313748907]}, "type": "Feature", "properties": {"collection_times": [{"days": "Mon-Fri", "time": "3:45pm"}, {"days": "Sat", "time": "11:45am"}, {"days": "Sun", "time": "Closed"}], "id": "7983900004", "name": "USPS COLLECTION BOX - PO LOBBY", "address": {"city": "FORT HANCOCK", "state": "TX", "street": "107 W TX HIGHWAY 20", "postcode": "79839"}}},
{"geometry": {"type": "Point", "coordinates": [-103.2454961526, 30.2065036393]}, "type": "Feature", "properties": {"collection_times": [{"days": "Mon-Sat", "time": "2:45pm"}, {"days": "Sun", "time": "Closed"}], "id": "7984200000", "name": "USPS COLLECTION BOX - BLUE BOX", "address": {"city": "MARATHON", "state": "TX", "street": "107 E US HIGHWAY 90", "postcode": "79842"}}},
{"geometry": {"type": "Point", "coordinates": [-103.162448322, 30.211616333]}, "type": "Feature", "properties": {"collection_times": [{"days": "Mon-Fri", "time": "2:15pm"}, {"days": "Sat", "time": "10:00am"}, {"days": "Sun", "time": "Closed"}], "id": "7984200001", "name": "USPS COLLECTION BOX - PO LOBBY", "address": {"city": "MARATHON", "state": "TX", "street": "107 E US HIGHWAY 90", "postcode": "79842"}}},
{"geometry": {"type": "Point", "coordinates": [-103.162448322, 30.211616333]}, "type": "Feature", "properties": {"collection_times": [{"days": "Mon-Fri", "time": "2:15pm"}, {"days": "Sat", "time": "10:00am"}, {"days": "Sun", "time": "Closed"}], "id": "7984200002", "name": "USPS COLLECTION BOX - PO LOBBY", "address": {"city": "MARATHON", "state": "TX", "street": "107 E US HIGHWAY 90", "postcode": "79842"}}},
{"geometry": {"type": "Point", "coordinates": [-104.0210680159, 30.3108351687]}, "type": "Feature", "properties": {"collection_times": [{"days": "Mon-Sat", "time": "4:00pm"}, {"days": "Sun", "time": "Closed"}], "id": "7984300000", "name": "USPS COLLECTION BOX - BLUE BOX", "address": {"city": "MARFA", "state": "TX", "street": "100 N HIGHLAND", "postcode": "79843"}}},
{"geometry": {"type": "Point", "coordinates": [-104.021240443, 30.31131825]}, "type": "Feature", "properties": {"collection_times": [{"days": "Mon-Fri", "time": "4:30pm"}, {"days": "Sat", "time": "9:00am"}, {"days": "Sun", "time": "Closed"}], "id": "7984300002", "name": "USPS COLLECTION BOX - PO LOBBY", "address": {"city": "MARFA", "state": "TX", "street": "100 N HIGHLAND AVE", "postcode": "79843"}}},
{"geometry": {"type": "Point", "coordinates": [-104.3543623576, 29.5607270193]}, "type": "Feature", "properties": {"collection_times": [{"days": "Mon-Fri", "time": "1:45pm"}, {"days": "Sat", "time": "12:30pm"}, {"days": "Sun", "time": "Closed"}], "id": "7984500001", "name": "USPS COLLECTION BOX - BLUE BOX", "address": {"city": "PRESIDIO", "state": "TX", "street": "202 E OREILLY ST", "postcode": "79845"}}},
{"geometry": {"type": "Point", "coordinates": [-104.354362358, 29.560727019]}, "type": "Feature", "properties": {"collection_times": [{"days": "Mon-Fri", "time": "2:00pm"}, {"days": "Sat", "time": "12:30pm"}, {"days": "Sun", "time": "Closed"}], "id": "7984500003", "name": "USPS COLLECTION BOX - PO LOBBY", "address": {"city": "PRESIDIO", "state": "TX", "street": "202 E OREILLY ST", "postcode": "79845"}}},
{"geometry": {"type": "Point", "coordinates": [-104.354362358, 29.560727019]}, "type": "Feature", "properties": {"collection_times": [{"days": "Mon-Fri", "time": "2:00pm"}, {"days": "Sat", "time": "12:30pm"}, {"days": "Sun", "time": "Closed"}], "id": "7984500005", "name": "USPS COLLECTION BOX - PO LOBBY", "address": {"city": "PRESIDIO", "state": "TX", "street": "202 E OREILLY ST", "postcode": "79845"}}},
{"geometry": {"type": "Point", "coordinates": [-104.354362358, 29.560727019]}, "type": "Feature", "properties": {"collection_times": [{"days": "Mon-Fri", "time": "2:00pm"}, {"days": "Sat", "time": "12:30pm"}, {"days": "Sun", "time": "Closed"}], "id": "7984500006", "name": "USPS COLLECTION BOX - PO LOBBY", "address": {"city": "PRESIDIO", "state": "TX", "street": "202 E OREILLY ST", "postcode": "79845"}}},
{"geometry": {"type": "Point", "coordinates": [-102.401029033, 30.140963733]}, "type": "Feature", "properties": {"collection_times": [{"days": "Mon-Fri", "time": "2:30pm"}, {"days": "Sat", "time": "12:30pm"}, {"days": "Sun", "time": "Closed"}], "id": "7984800001", "name": "USPS COLLECTION BOX - PO LOBBY", "address": {"city": "SANDERSON", "state": "TX", "street": "208 W DOWNIE ST", "postcode": "79848"}}},
{"geometry": {"type": "Point", "coordinates": [-102.4010290334, 30.1409637327]}, "type": "Feature", "properties": {"collection_times": [{"days": "Mon-Fri", "time": "2:30pm"}, {"days": "Sat", "time": "12:30pm"}, {"days": "Sun", "time": "Closed"}], "id": "7984800002", "name": "USPS COLLECTION BOX - PO LOBBY", "address": {"city": "SANDERSON", "state": "TX", "street": "208 W DOWNIE ST", "postcode": "79848"}}},
{"geometry": {"type": "Point", "coordinates": [-102.401029033, 30.140963733]}, "type": "Feature", "properties": {"collection_times": [{"days": "Mon-Fri", "time": "2:15pm"}, {"days": "Sat", "time": "12:30pm"}, {"days": "Sun", "time": "Closed"}], "id": "7984800003", "name": "USPS COLLECTION BOX - BLUE BOX", "address": {"city": "SANDERSON", "state": "TX", "street": "208 W DOWNIE ST", "postcode": "79848"}}},
{"geometry": {"type": "Point", "coordinates": [-106.2725631612, 31.5882050354]}, "type": "Feature", "properties": {"collection_times": [{"days": "Mon-Sat", "time": "5:30pm"}, {"days": "Sun", "time": "Closed"}], "id": "7984900000", "name": "USPS COLLECTION BOX - BLUE BOX", "address": {"city": "SAN ELIZARIO", "state": "TX", "street": "1416 SAN ANTONIO RD", "postcode": "79849"}}},
{"geometry": {"type": "Point", "coordinates": [-106.2725403935, 31.5882216375]}, "type": "Feature", "properties": {"collection_times": [{"days": "Mon-Fri", "time": "4:00pm"}, {"days": "Sat-Sun", "time": "Closed"}], "id": "7984900001", "name": "USPS COLLECTION BOX - PO LOBBY", "address": {"city": "SAN ELIZARIO", "state": "TX", "street": "1416 SAN ANTONIO RD", "postcode": "79849"}}},
{"geometry": {"type": "Point", "coordinates": [-106.2725403935, 31.5882216375]}, "type": "Feature", "properties": {"collection_times": [{"days": "Mon-Fri", "time": "4:00pm"}, {"days": "Sat-Sun", "time": "Closed"}], "id": "7984900002", "name": "USPS COLLECTION BOX - PO LOBBY", "address": {"city": "SAN ELIZARIO", "state": "TX", "street": "1416 SAN ANTONIO RD", "postcode": "79849"}}},
{"geometry": {"type": "Point", "coordinates": [-105.3563778973, 31.1822732633]}, "type": "Feature", "properties": {"collection_times": [{"days": "Mon-Sat", "time": "6:00pm"}, {"days": "Sun", "time": "Closed"}], "id": "7985100000", "name": "USPS COLLECTION BOX - BLUE BOX", "address": {"city": "SIERRA BLANCA", "state": "TX", "street": "1195 EL PASO ST", "postcode": "79851"}}},
{"geometry": {"type": "Point", "coordinates": [-105.361439708, 31.176079676]}, "type": "Feature", "properties": {"collection_times": [{"days": "Mon-Fri", "time": "3:00pm"}, {"days": "Sat", "time": "8:30am"}, {"days": "Sun", "time": "Closed"}], "id": "7985100001", "name": "USPS COLLECTION BOX - PO LOBBY", "address": {"city": "SIERRA BLANCA", "state": "TX", "street": "1195 EL PASO ST", "postcode": "79851"}}},
{"geometry": {"type": "Point", "coordinates": [-103.5929708532, 29.3309137919]}, "type": "Feature", "properties": {"collection_times": [{"days": "Mon-Fri", "time": "1:15pm"}, {"days": "Sat-Sun", "time": "Closed"}], "id": "7985200000", "name": "USPS COLLECTION BOX - BLUE BOX", "address": {"city": "TERLINGUA", "state": "TX", "street": "2 STATE HWY 170", "postcode": "79852"}}},
{"geometry": {"type": "Point", "coordinates": [-103.522520636, 29.369309201]}, "type": "Feature", "properties": {"collection_times": [{"days": "Mon-Sat", "time": "11:00am"}, {"days": "Sun", "time": "Closed"}], "id": "7985200002", "name": "USPS COLLECTION BOX - PO LOBBY", "address": {"city": "TERLINGUA", "state": "TX", "street": "53600 TX HIGHWAY 118", "postcode": "79852"}}},
{"geometry": {"type": "Point", "coordinates": [-103.522520636, 29.369309201]}, "type": "Feature", "properties": {"collection_times": [{"days": "Mon-Sat", "time": "11:00am"}, {"days": "Sun", "time": "Closed"}], "id": "7985200003", "name": "USPS COLLECTION BOX - BLUE BOX", "address": {"city": "TERLINGUA", "state": "TX", "street": "53600 TX HIGHWAY 118", "postcode": "79852"}}},
{"geometry": {"type": "Point", "coordinates": [-106.0874747957, 31.443322668]}, "type": "Feature", "properties": {"collection_times": [{"days": "Mon-Sat", "time": "4:45pm"}, {"days": "Sun", "time": "Closed"}], "id": "7985300000", "name": "USPS COLLECTION BOX - BLUE BOX", "address": {"city": "TORNILLO", "state": "TX", "street": "19280 COBB ST", "postcode": "79853"}}},
{"geometry": {"type": "Point", "coordinates": [-106.087474796, 31.443322668]}, "type": "Feature", "properties": {"collection_times": [{"days": "Mon-Fri", "time": "3:00pm"}, {"days": "Sat-Sun", "time": "Closed"}], "id": "7985300001", "name": "USPS COLLECTION BOX - PO LOBBY", "address": {"city": "TORNILLO", "state": "TX", "street": "19280 COBB ST", "postcode": "79853"}}},
{"geometry": {"type": "Point", "coordinates": [-104.496682923, 30.584888154]}, "type": "Feature", "properties": {"collection_times": [{"days": "Mon-Fri", "time": "2:00pm"}, {"days": "Sat", "time": "9:00am"}, {"days": "Sun", "time": "Closed"}], "id": "7985400001", "name": "USPS COLLECTION BOX - PO LOBBY", "address": {"city": "VALENTINE", "state": "TX", "street": "311 W CALIFORNIA AVE", "postcode": "79854"}}},
{"geometry": {"type": "Point", "coordinates": [-104.496682923, 30.584888154]}, "type": "Feature", "properties": {"collection_times": [{"days": "Mon-Fri", "time": "2:00pm"}, {"days": "Sat", "time": "9:00am"}, {"days": "Sun", "time": "Closed"}], "id": "7985400002", "name": "USPS COLLECTION BOX - PO LOBBY", "address": {"city": "VALENTINE", "state": "TX", "street": "311 W CALIFORNIA AVE", "postcode": "79854"}}},
{"geometry": {"type": "Point", "coordinates": [-104.837328612, 31.0392806973]}, "type": "Feature", "properties": {"collection_times": [{"days": "Mon-Sat", "time": "5:45pm"}, {"days": "Sun", "time": "Closed"}], "id": "7985500000", "name": "USPS COLLECTION BOX - BLUE BOX", "address": {"city": "VAN HORN", "state": "TX", "street": "603 W BROADWAY ST", "postcode": "79855"}}},
{"geometry": {"type": "Point", "coordinates": [-104.8373912836, 31.0392872111]}, "type": "Feature", "properties": {"collection_times": [{"days": "Mon-Fri", "time": "4:00pm"}, {"days": "Sat", "time": "9:00am"}, {"days": "Sun", "time": "Closed"}], "id": "7985500001", "name": "USPS COLLECTION BOX - PO LOBBY", "address": {"city": "VAN HORN", "state": "TX", "street": "603 W BROADWAY ST", "postcode": "79855"}}},
{"geometry": {"type": "Point", "coordinates": [-104.8373912836, 31.0392872111]}, "type": "Feature", "properties": {"collection_times": [{"days": "Mon-Fri", "time": "4:00pm"}, {"days": "Sat", "time": "9:00am"}, {"days": "Sun", "time": "Closed"}], "id": "7985500003", "name": "USPS COLLECTION BOX - PO LOBBY", "address": {"city": "VAN HORN", "state": "TX", "street": "603 W BROADWAY ST", "postcode": "79855"}}}
]}
