{"type": "FeatureCollection", "features": [
{"geometry": {"type": "Point", "coordinates": [-106.4890440807, 31.7610531669]}, "type": "Feature", "properties": {"collection_times": [{"days": "Mon-Fri", "time": "2:30pm"}, {"days": "Sat", "time": "1:15pm"}, {"days": "Sun", "time": "Closed"}], "id": "7990100014", "name": "USPS COLLECTION BOX - BLUE BOX", "address": {"city": "EL PASO", "state": "TX", "street": "500 N MESA ST", "postcode": "79901"}}},
{"geometry": {"type": "Point", "coordinates": [-106.4871857177, 31.7598897366]}, "type": "Feature", "properties": {"collection_times": [{"days": "Mon-Fri", "time": "5:15pm"}, {"days": "Sat", "time": "2:00pm"}, {"days": "Sun", "time": "Closed"}], "id": "7990100020", "name": "USPS COLLECTION BOX - PO LOBBY", "address": {"city": "EL PASO", "state": "TX", "street": "219 E MILLS ST", "postcode": "79901"}}},
{"geometry": {"type": "Point", "coordinates": [-106.4845319468, 31.757789506]}, "type": "Feature", "properties": {"collection_times": [{"days": "Mon-Fri", "time": "1:35pm"}, {"days": "Sat", "time": "2:10pm"}, {"days": "Sun", "time": "Closed"}], "id": "7990100029", "name": "USPS COLLECTION BOX - BLUE BOX", "address": {"city": "EL PASO", "state": "TX", "street": "500 E OVERLAND AVE", "postcode": "79901"}}},
{"geometry": {"type": "Point", "coordinates": [-106.4888515706, 31.757819263]}, "type": "Feature", "properties": {"collection_times": [{"days": "Mon-Fri", "time": "1:15pm"}, {"days": "Sat", "time": "1:45pm"}, {"days": "Sun", "time": "Closed"}], "id": "7990100040", "name": "USPS COLLECTION BOX - BLUE BOX", "address": {"city": "EL PASO", "state": "TX", "street": "105 E SAN ANTONIO AVE", "postcode": "79901"}}},
{"geometry": {"type": "Point", "coordinates": [-106.4863185932, 31.7594346784]}, "type": "Feature", "properties": {"collection_times": [{"days": "Mon-Fri", "time": "1:50pm"}, {"days": "Sat", "time": "1:10pm"}, {"days": "Sun", "time": "Closed"}], "id": "7990100115", "name": "USPS COLLECTION BOX - BLUE BOX", "address": {"city": "EL PASO", "state": "TX", "street": "303 TEXAS AVE", "postcode": "79901"}}},
{"geometry": {"type": "Point", "coordinates": [-106.4863185932, 31.7594346784]}, "type": "Feature", "properties": {"collection_times": [{"days": "Mon-Fri", "time": "1:50pm"}, {"days": "Sat", "time": "1:10pm"}, {"days": "Sun", "time": "Closed"}], "id": "7990100116", "name": "USPS COLLECTION BOX - BLUE BOX", "address": {"city": "EL PASO", "state": "TX", "street": "303 TEXAS AVE", "postcode": "79901"}}},
{"geometry": {"type": "Point", "coordinates": [-106.4880545586, 31.7582629118]}, "type": "Feature", "properties": {"collection_times": [{"days": "Mon-Fri", "time": "2:55pm"}, {"days": "Sat", "time": "1:40pm"}, {"days": "Sun", "time": "Closed"}], "id": "7990100122", "name": "USPS COLLECTION BOX - BLUE BOX", "address": {"city": "EL PASO", "state": "TX", "street": "109 N OREGON ST", "postcode": "79901"}}},
{"geometry": {"type": "Point", "coordinates": [-106.4869361134, 31.7624472939]}, "type": "Feature", "properties": {"collection_times": [{"days": "Mon-Fri", "time": "2:25pm"}, {"days": "Sat-Sun", "time": "Closed"}], "id": "7990100123", "name": "USPS COLLECTION BOX - BLUE BOX", "address": {"city": "EL PASO", "state": "TX", "street": "401 E FRANKLIN AVE", "postcode": "79901"}}},
{"geometry": {"type": "Point", "coordinates": [-106.4869361134, 31.7624472939]}, "type": "Feature", "properties": {"collection_times": [{"days": "Mon-Fri", "time": "2:25pm"}, {"days": "Sat-Sun", "time": "Closed"}], "id": "7990100124", "name": "USPS COLLECTION BOX - BLUE BOX", "address": {"city": "EL PASO", "state": "TX", "street": "401 E FRANKLIN AVE", "postcode": "79901"}}},
{"geometry": {"type": "Point", "coordinates": [-106.4873461792, 31.7598552789]}, "type": "Feature", "properties": {"collection_times": [{"days": "Mon-Fri", "time": "5:00pm"}, {"days": "Sat", "time": "2:30pm"}, {"days": "Sun", "time": "Closed"}], "id": "7990100126", "name": "USPS COLLECTION BOX - BLUE BOX", "address": {"city": "EL PASO", "state": "TX", "street": "219 MILLS", "postcode": "79901"}}},
{"geometry": {"type": "Point", "coordinates": [-106.4873461792, 31.7598552789]}, "type": "Feature", "properties": {"collection_times": [{"days": "Mon-Fri", "time": "5:00pm"}, {"days": "Sat", "time": "2:30pm"}, {"days": "Sun", "time": "Closed"}], "id": "7990100127", "name": "USPS COLLECTION BOX - BLUE BOX", "address": {"city": "EL PASO", "state": "TX", "street": "219 MILLS", "postcode": "79901"}}},
{"geometry": {"type": "Point", "coordinates": [-106.4853828883, 31.776627423]}, "type": "Feature", "properties": {"collection_times": [{"days": "Mon-Fri", "time": "3:10pm"}, {"days": "Sat", "time": "1:55pm"}, {"days": "Sun", "time": "Closed"}], "id": "7990200003", "name": "USPS COLLECTION BOX - BLUE BOX", "address": {"city": "EL PASO", "state": "TX", "street": "1250 E CLIFF DR", "postcode": "79902"}}},
{"geometry": {"type": "Point", "coordinates": [-106.4783513802, 31.7790572207]}, "type": "Feature", "properties": {"collection_times": [{"days": "Mon-Fri", "time": "2:55pm"}, {"days": "Sat-Sun", "time": "Closed"}], "id": "7990200006", "name": "USPS COLLECTION BOX - BLUE BOX", "address": {"city": "EL PASO", "state": "TX", "street": "1733 CURIE DR", "postcode": "79902"}}},
{"geometry": {"type": "Point", "coordinates": [-106.4796819239, 31.7786506202]}, "type": "Feature", "properties": {"collection_times": [{"days": "Mon-Fri", "time": "3:05pm"}, {"days": "Sat", "time": "1:50pm"}, {"days": "Sun", "time": "Closed"}], "id": "7990200011", "name": "USPS COLLECTION BOX - BLUE BOX", "address": {"city": "EL PASO", "state": "TX", "street": "1625 MEDICAL CENTER DR", "postcode": "79902"}}},
{"geometry": {"type": "Point", "coordinates": [-106.5009305179, 31.7744484126]}, "type": "Feature", "properties": {"collection_times": [{"days": "Mon-Fri", "time": "1:10pm"}, {"days": "Sat", "time": "2:30pm"}, {"days": "Sun", "time": "Closed"}], "id": "7990200015", "name": "USPS COLLECTION BOX - BLUE BOX", "address": {"city": "EL PASO", "state": "TX", "street": "2311 N MESA ST", "postcode": "79902"}}},
{"geometry": {"type": "Point", "coordinates": [-106.510702942, 31.794213291]}, "type": "Feature", "properties": {"collection_times": [{"days": "Mon-Fri", "time": "3:45pm"}, {"days": "Sat-Sun", "time": "Closed"}], "id": "7990200023", "name": "USPS COLLECTION BOX - BLUE BOX", "address": {"city": "EL PASO", "state": "TX", "street": "4171 N MESA ST", "postcode": "79902"}}},
{"geometry": {"type": "Point", "coordinates": [-106.4797484547, 31.7715513461]}, "type": "Feature", "properties": {"collection_times": [{"days": "Mon-Sat", "time": "1:30pm"}, {"days": "Sun", "time": "Closed"}], "id": "7990200031", "name": "USPS COLLECTION BOX - BLUE BOX", "address": {"city": "EL PASO", "state": "TX", "street": "1401 MONTANA AVE", "postcode": "79902"}}},
{"geometry": {"type": "Point", "coordinates": [-106.4797484547, 31.7715513461]}, "type": "Feature", "properties": {"collection_times": [{"days": "Mon-Sat", "time": "1:30pm"}, {"days": "Sun", "time": "Closed"}], "id": "7990200032", "name": "USPS COLLECTION BOX - BLUE BOX", "address": {"city": "EL PASO", "state": "TX", "street": "1401 MONTANA AVE", "postcode": "79902"}}},
{"geometry": {"type": "Point", "coordinates": [-106.4795821483, 31.7800910145]}, "type": "Feature", "properties": {"collection_times": [{"days": "Mon-Fri", "time": "3:00pm"}, {"days": "Sat-Sun", "time": "Closed"}], "id": "7990200038", "name": "USPS COLLECTION BOX - BLUE BOX", "address": {"city": "EL PASO", "state": "TX", "street": "1700 MURCHISON DR", "postcode": "79902"}}},
{"geometry": {"type": "Point", "coordinates": [-106.4979068748, 31.7695273033]}, "type": "Feature", "properties": {"collection_times": [{"days": "Mon-Fri", "time": "3:15pm"}, {"days": "Sat-Sun", "time": "Closed"}], "id": "7990200042", "name": "USPS COLLECTION BOX - BLUE BOX", "address": {"city": "EL PASO", "state": "TX", "street": "1700 N OREGON ST", "postcode": "79902"}}},
{"geometry": {"type": "Point", "coordinates": [-106.4979068748, 31.7695273033]}, "type": "Feature", "properties": {"collection_times": [{"days": "Mon-Fri", "time": "3:15pm"}, {"days": "Sat-Sun", "time": "Closed"}], "id": "7990200043", "name": "USPS COLLECTION BOX - BLUE BOX", "address": {"city": "EL PASO", "state": "TX", "street": "1700 N OREGON ST", "postcode": "79902"}}},
{"geometry": {"type": "Point", "coordinates": [-106.5143689318, 31.7944581635]}, "type": "Feature", "properties": {"collection_times": [{"days": "Mon-Fri", "time": "4:00pm"}, {"days": "Sat", "time": "3:45pm"}, {"days": "Sun", "time": "Closed"}], "id": "7990200053", "name": "USPS COLLECTION BOX - BLUE BOX", "address": {"city": "EL PASO", "state": "TX", "street": "4141 PINNACLE ST", "postcode": "79902"}}},
{"geometry": {"type": "Point", "coordinates": [-106.5143689318, 31.7944581635]}, "type": "Feature", "properties": {"collection_times": [{"days": "Mon-Fri", "time": "4:00pm"}, {"days": "Sat", "time": "3:45pm"}, {"days": "Sun", "time": "Closed"}], "id": "7990200054", "name": "USPS COLLECTION BOX - BLUE BOX", "address": {"city": "EL PASO", "state": "TX", "street": "4141 PINNACLE ST", "postcode": "79902"}}},
{"geometry": {"type": "Point", "coordinates": [-106.5143689318, 31.7944581635]}, "type": "Feature", "properties": {"collection_times": [{"days": "Mon-Fri", "time": "4:00pm"}, {"days": "Sat", "time": "3:45pm"}, {"days": "Sun", "time": "Closed"}], "id": "7990200055", "name": "USPS COLLECTION BOX - BLUE BOX", "address": {"city": "EL PASO", "state": "TX", "street": "4141 PINNACLE ST", "postcode": "79902"}}},
{"geometry": {"type": "Point", "coordinates": [-106.5143689318, 31.7944581635]}, "type": "Feature", "properties": {"collection_times": [{"days": "Mon-Fri", "time": "4:00pm"}, {"days": "Sat", "time": "3:45pm"}, {"days": "Sun", "time": "Closed"}], "id": "7990200056", "name": "USPS COLLECTION BOX - BLUE BOX", "address": {"city": "EL PASO", "state": "TX", "street": "4141 PINNACLE ST", "postcode": "79902"}}},
{"geometry": {"type": "Point", "coordinates": [-106.5143689318, 31.7944581635]}, "type": "Feature", "properties": {"collection_times": [{"days": "Mon-Fri", "time": "4:00pm"}, {"days": "Sat", "time": "3:45pm"}, {"days": "Sun", "time": "Closed"}], "id": "7990200057", "name": "USPS COLLECTION BOX - BLUE BOX", "address": {"city": "EL PASO", "state": "TX", "street": "4141 PINNACLE ST", "postcode": "79902"}}},
{"geometry": {"type": "Point", "coordinates": [-106.5025594524, 31.7778044672]}, "type": "Feature", "properties": {"collection_times": [{"days": "Mon-Fri", "time": "1:00pm"}, {"days": "Sat-Sun", "time": "Closed"}], "id": "7990200064", "name": "USPS COLLECTION BOX - BLUE BOX", "address": {"city": "EL PASO", "state": "TX", "street": "2701 N STANTON ST", "postcode": "79902"}}},
{"geometry": {"type": "Point", "coordinates": [-106.510702942, 31.794213291]}, "type": "Feature", "properties": {"collection_times": [{"days": "Mon-Fri", "time": "3:45pm"}, {"days": "Sat-Sun", "time": "Closed"}], "id": "7990200101", "name": "USPS COLLECTION BOX - BLUE BOX", "address": {"city": "EL PASO", "state": "TX", "street": "4171 N MESA ST", "postcode": "79902"}}},
{"geometry": {"type": "Point", "coordinates": [-106.4871785803, 31.7786259782]}, "type": "Feature", "properties": {"collection_times": [{"days": "Mon-Fri", "time": "1:20pm"}, {"days": "Sat-Sun", "time": "Closed"}], "id": "7990200102", "name": "USPS COLLECTION BOX - BLUE BOX", "address": {"city": "EL PASO", "state": "TX", "street": "1300 MURCHISON DR", "postcode": "79902"}}},
{"geometry": {"type": "Point", "coordinates": [-106.5143689318, 31.7944581635]}, "type": "Feature", "properties": {"collection_times": [{"days": "Mon-Fri", "time": "4:00pm"}, {"days": "Sat", "time": "3:45pm"}, {"days": "Sun", "time": "Closed"}], "id": "7990200103", "name": "USPS COLLECTION BOX - BLUE BOX", "address": {"city": "EL PASO", "state": "TX", "street": "4141 PINNACLE ST", "postcode": "79902"}}},
{"geometry": {"type": "Point", "coordinates": [-106.5025594524, 31.7778044672]}, "type": "Feature", "properties": {"collection_times": [{"days": "Mon-Fri", "time": "1:00pm"}, {"days": "Sat-Sun", "time": "Closed"}], "id": "7990200104", "name": "USPS COLLECTION BOX - BLUE BOX", "address": {"city": "EL PASO", "state": "TX", "street": "2701 N STANTON ST", "postcode": "79902"}}},
{"geometry": {"type": "Point", "coordinates": [-106.5285370026, 31.8292489744]}, "type": "Feature", "properties": {"collection_times": [{"days": "Mon-Fri", "time": "5:00pm"}, {"days": "Sat", "time": "3:00pm"}, {"days": "Sun", "time": "Closed"}], "id": "7990200108", "name": "USPS COLLECTION BOX - PO LOBBY", "address": {"city": "EL PASO", "state": "TX", "street": "5981 N MESA ST", "postcode": "79902"}}},
{"geometry": {"type": "Point", "coordinates": [-106.5045049705, 31.7787473927]}, "type": "Feature", "properties": {"collection_times": [{"days": "Mon-Fri", "time": "2:45pm"}, {"days": "Sat-Sun", "time": "Closed"}], "id": "7990200110", "name": "USPS COLLECTION BOX - BLUE BOX", "address": {"city": "EL PASO", "state": "TX", "street": "2900 N MESA ST", "postcode": "79902"}}},
{"geometry": {"type": "Point", "coordinates": [-106.4594098412, 31.7816975851]}, "type": "Feature", "properties": {"collection_times": [{"days": "Mon-Fri", "time": "4:45pm"}, {"days": "Sat", "time": "4:15pm"}, {"days": "Sun", "time": "Closed"}], "id": "7990300027", "name": "USPS COLLECTION BOX - BLUE BOX", "address": {"city": "EL PASO", "state": "TX", "street": "3011 E YANDELL DR", "postcode": "79903"}}},
{"geometry": {"type": "Point", "coordinates": [-106.4594098412, 31.7816975851]}, "type": "Feature", "properties": {"collection_times": [{"days": "Mon-Fri", "time": "4:45pm"}, {"days": "Sat", "time": "4:15pm"}, {"days": "Sun", "time": "Closed"}], "id": "7990300028", "name": "USPS COLLECTION BOX - BLUE BOX", "address": {"city": "EL PASO", "state": "TX", "street": "3011 E YANDELL DR", "postcode": "79903"}}},
{"geometry": {"type": "Point", "coordinates": [-106.4594098412, 31.7816975851]}, "type": "Feature", "properties": {"collection_times": [{"days": "Mon-Fri", "time": "4:45pm"}, {"days": "Sat", "time": "4:15pm"}, {"days": "Sun", "time": "Closed"}], "id": "7990300029", "name": "USPS COLLECTION BOX - BLUE BOX", "address": {"city": "EL PASO", "state": "TX", "street": "3011 E YANDELL DR", "postcode": "79903"}}},
{"geometry": {"type": "Point", "coordinates": [-106.4594098412, 31.7816975851]}, "type": "Feature", "properties": {"collection_times": [{"days": "Mon-Fri", "time": "4:45pm"}, {"days": "Sat", "time": "4:15pm"}, {"days": "Sun", "time": "Closed"}], "id": "7990300030", "name": "USPS COLLECTION BOX - BLUE BOX", "address": {"city": "EL PASO", "state": "TX", "street": "3011 E YANDELL DR", "postcode": "79903"}}},
{"geometry": {"type": "Point", "coordinates": [-106.4594098412, 31.7816975851]}, "type": "Feature", "properties": {"collection_times": [{"days": "Mon-Fri", "time": "4:45pm"}, {"days": "Sat", "time": "4:15pm"}, {"days": "Sun", "time": "Closed"}], "id": "7990300031", "name": "USPS COLLECTION BOX - BLUE BOX", "address": {"city": "EL PASO", "state": "TX", "street": "3011 E YANDELL DR", "postcode": "79903"}}},
{"geometry": {"type": "Point", "coordinates": [-106.4594098412, 31.7816975851]}, "type": "Feature", "properties": {"collection_times": [{"days": "Mon-Fri", "time": "5:00pm"}, {"days": "Sat", "time": "3:00pm"}, {"days": "Sun", "time": "Closed"}], "id": "7990300032", "name": "USPS COLLECTION BOX - PO LOBBY", "address": {"city": "EL PASO", "state": "TX", "street": "3011 E YANDELL DR", "postcode": "79903"}}},
{"geometry": {"type": "Point", "coordinates": [-106.4594098412, 31.7816975851]}, "type": "Feature", "properties": {"collection_times": [{"days": "Mon-Fri", "time": "5:00pm"}, {"days": "Sat", "time": "3:00pm"}, {"days": "Sun", "time": "Closed"}], "id": "7990300036", "name": "USPS COLLECTION BOX - PO LOBBY", "address": {"city": "EL PASO", "state": "TX", "street": "3011 E YANDELL DR", "postcode": "79903"}}},
{"geometry": {"type": "Point", "coordinates": [-106.4355673033, 31.8584905493]}, "type": "Feature", "properties": {"collection_times": [{"days": "Mon-Fri", "time": "4:30pm"}, {"days": "Sat", "time": "3:50pm"}, {"days": "Sun", "time": "Closed"}], "id": "7990400001", "name": "USPS COLLECTION BOX - BLUE BOX", "address": {"city": "EL PASO", "state": "TX", "street": "8500 DYER ST", "postcode": "79904"}}},
{"geometry": {"type": "Point", "coordinates": [-106.4433535392, 31.8550079181]}, "type": "Feature", "properties": {"collection_times": [{"days": "Mon-Fri", "time": "5:15pm"}, {"days": "Sat", "time": "3:40pm"}, {"days": "Sun", "time": "Closed"}], "id": "7990400003", "name": "USPS COLLECTION BOX - BLUE BOX", "address": {"city": "EL PASO", "state": "TX", "street": "4100 HERCULES AVE", "postcode": "79904"}}},
{"geometry": {"type": "Point", "coordinates": [-106.4433535392, 31.8550079181]}, "type": "Feature", "properties": {"collection_times": [{"days": "Mon-Fri", "time": "5:15pm"}, {"days": "Sat", "time": "3:40pm"}, {"days": "Sun", "time": "Closed"}], "id": "7990400004", "name": "USPS COLLECTION BOX - BLUE BOX", "address": {"city": "EL PASO", "state": "TX", "street": "4100 HERCULES AVE", "postcode": "79904"}}},
{"geometry": {"type": "Point", "coordinates": [-106.4433535392, 31.8550079181]}, "type": "Feature", "properties": {"collection_times": [{"days": "Mon-Fri", "time": "5:15pm"}, {"days": "Sat", "time": "3:40pm"}, {"days": "Sun", "time": "Closed"}], "id": "7990400005", "name": "USPS COLLECTION BOX - BLUE BOX", "address": {"city": "EL PASO", "state": "TX", "street": "4100 HERCULES AVE", "postcode": "79904"}}},
{"geometry": {"type": "Point", "coordinates": [-106.4433535392, 31.8550079181]}, "type": "Feature", "properties": {"collection_times": [{"days": "Mon-Fri", "time": "5:15pm"}, {"days": "Sat", "time": "3:55pm"}, {"days": "Sun", "time": "Closed"}], "id": "7990400018", "name": "USPS COLLECTION BOX - PO LOBBY", "address": {"city": "EL PASO", "state": "TX", "street": "4100 HERCULES AVE", "postcode": "79904"}}},
{"geometry": {"type": "Point", "coordinates": [-106.4316365457, 31.7692413524]}, "type": "Feature", "properties": {"collection_times": [{"days": "Mon-Fri", "time": "3:40pm"}, {"days": "Sat-Sun", "time": "Closed"}], "id": "7990500017", "name": "USPS COLLECTION BOX - EXPRESS", "address": {"city": "EL PASO", "state": "TX", "street": "6070 SURETY DR", "postcode": "79905"}}},
{"geometry": {"type": "Point", "coordinates": [-106.4118192361, 31.7765440845]}, "type": "Feature", "properties": {"collection_times": [{"days": "Mon-Fri", "time": "1:00pm"}, {"days": "Sat-Sun", "time": "Closed"}], "id": "7990500022", "name": "USPS COLLECTION BOX - BLUE BOX", "address": {"city": "EL PASO", "state": "TX", "street": "6122 TROWBRIDGE DR", "postcode": "79905"}}},
{"geometry": {"type": "Point", "coordinates": [-106.4384785653, 31.7676286541]}, "type": "Feature", "properties": {"collection_times": [{"days": "Mon-Fri", "time": "5:40pm"}, {"days": "Sat", "time": "4:15pm"}, {"days": "Sun", "time": "Closed"}], "id": "7990500025", "name": "USPS COLLECTION BOX - BLUE BOX", "address": {"city": "EL PASO", "state": "TX", "street": "4400 E PAISANO DR", "postcode": "79905"}}},
{"geometry": {"type": "Point", "coordinates": [-106.4384785653, 31.7676286541]}, "type": "Feature", "properties": {"collection_times": [{"days": "Mon-Fri", "time": "5:30pm"}, {"days": "Sat", "time": "2:00pm"}, {"days": "Sun", "time": "Closed"}], "id": "7990500034", "name": "USPS COLLECTION BOX - PO LOBBY", "address": {"city": "EL PASO", "state": "TX", "street": "4400 E PAISANO DR", "postcode": "79905"}}},
{"geometry": {"type": "Point", "coordinates": [-106.4102385109, 31.7796981537]}, "type": "Feature", "properties": {"collection_times": [{"days": "Mon-Fri", "time": "3:40pm"}, {"days": "Sat-Sun", "time": "Closed"}], "id": "7990500035", "name": "USPS COLLECTION BOX - BLUE BOX", "address": {"city": "EL PASO", "state": "TX", "street": "6070 SURETY DR", "postcode": "79905"}}},
{"geometry": {"type": "Point", "coordinates": [-106.4384785653, 31.7676286541]}, "type": "Feature", "properties": {"collection_times": [{"days": "Mon-Fri", "time": "5:30pm"}, {"days": "Sat", "time": "2:00pm"}, {"days": "Sun", "time": "Closed"}], "id": "7990500036", "name": "USPS COLLECTION BOX - PO LOBBY", "address": {"city": "EL PASO", "state": "TX", "street": "4400 E PAISANO DR", "postcode": "79905"}}},
{"geometry": {"type": "Point", "coordinates": [-106.4384785653, 31.7676286541]}, "type": "Feature", "properties": {"collection_times": [{"days": "Mon-Fri", "time": "5:30pm"}, {"days": "Sat", "time": "2:00pm"}, {"days": "Sun", "time": "Closed"}], "id": "7990500037", "name": "USPS COLLECTION BOX - PO LOBBY", "address": {"city": "EL PASO", "state": "TX", "street": "4400 E PAISANO DR", "postcode": "79905"}}},
{"geometry": {"type": "Point", "coordinates": [-106.409888813, 31.7795587953]}, "type": "Feature", "properties": {"collection_times": [{"days": "Mon-Fri", "time": "3:40pm"}, {"days": "Sat-Sun", "time": "Closed"}], "id": "7990500038", "name": "USPS COLLECTION BOX - BLUE BOX", "address": {"city": "EL PASO", "state": "TX", "street": "6090 SURETY DR", "postcode": "79905"}}},
{"geometry": {"type": "Point", "coordinates": [-106.4277133814, 31.8193730021]}, "type": "Feature", "properties": {"collection_times": [{"days": "Mon-Fri", "time": "5:15pm"}, {"days": "Sat", "time": "2:15pm"}, {"days": "Sun", "time": "Closed"}], "id": "7990600009", "name": "USPS COLLECTION BOX - BLUE BOX", "address": {"city": "EL PASO", "state": "TX", "street": "1733 PLEASONTON RD", "postcode": "79906"}}},
{"geometry": {"type": "Point", "coordinates": [-106.4277133814, 31.8193730021]}, "type": "Feature", "properties": {"collection_times": [{"days": "Mon-Fri", "time": "5:15pm"}, {"days": "Sat", "time": "2:15pm"}, {"days": "Sun", "time": "Closed"}], "id": "7990600010", "name": "USPS COLLECTION BOX - BLUE BOX", "address": {"city": "EL PASO", "state": "TX", "street": "1733 PLEASONTON RD", "postcode": "79906"}}},
{"geometry": {"type": "Point", "coordinates": [-106.4277133814, 31.8193730021]}, "type": "Feature", "properties": {"collection_times": [{"days": "Mon-Fri", "time": "5:15pm"}, {"days": "Sat", "time": "2:15pm"}, {"days": "Sun", "time": "Closed"}], "id": "7990600011", "name": "USPS COLLECTION BOX - BLUE BOX", "address": {"city": "EL PASO", "state": "TX", "street": "1733 PLEASONTON RD", "postcode": "79906"}}},
{"geometry": {"type": "Point", "coordinates": [-106.4221254517, 31.8068279491]}, "type": "Feature", "properties": {"collection_times": [{"days": "Mon-Fri", "time": "10:45am"}, {"days": "Sat-Sun", "time": "Closed"}], "id": "7990600041", "name": "USPS COLLECTION BOX - BLUE BOX", "address": {"city": "EL PASO", "state": "TX", "street": "1015 CARTER RD", "postcode": "79906"}}},
{"geometry": {"type": "Point", "coordinates": [-99.3330489019, 31.4627353752]}, "type": "Feature", "properties": {"collection_times": [{"days": "Mon-Fri", "time": "12:00pm"}, {"days": "Sat-Sun", "time": "Closed"}], "id": "7990600042", "name": "USPS COLLECTION BOX - BLUE BOX", "address": {"city": "EL PASO", "state": "TX", "street": "11374 CHURCHILL ST", "postcode": "79906"}}},
{"geometry": {"type": "Point", "coordinates": [-106.4155904477, 31.7981495897]}, "type": "Feature", "properties": {"collection_times": [{"days": "Mon-Fri", "time": "10:00am"}, {"days": "Sat-Sun", "time": "Closed"}], "id": "7990600043", "name": "USPS COLLECTION BOX - BLUE BOX", "address": {"city": "EL PASO", "state": "TX", "street": "13471 SGT MAJOR BLVD", "postcode": "79906"}}},
{"geometry": {"type": "Point", "coordinates": [-106.4155904477, 31.7981495897]}, "type": "Feature", "properties": {"collection_times": [{"days": "Mon-Fri", "time": "10:30am"}, {"days": "Sat-Sun", "time": "Closed"}], "id": "7990600044", "name": "USPS COLLECTION BOX - BLUE BOX", "address": {"city": "EL PASO", "state": "TX", "street": "20226 ANZIO WAY", "postcode": "79906"}}},
{"geometry": {"type": "Point", "coordinates": [-106.3145825411, 31.7075733764]}, "type": "Feature", "properties": {"collection_times": [{"days": "Mon-Fri", "time": "4:45pm"}, {"days": "Sat", "time": "3:00pm"}, {"days": "Sun", "time": "Closed"}], "id": "7990700040", "name": "USPS COLLECTION BOX - BLUE BOX", "address": {"city": "EL PASO", "state": "TX", "street": "880 N ZARAGOZA RD", "postcode": "79907"}}},
{"geometry": {"type": "Point", "coordinates": [-106.3145825411, 31.7075733764]}, "type": "Feature", "properties": {"collection_times": [{"days": "Mon-Fri", "time": "4:45pm"}, {"days": "Sat", "time": "3:00pm"}, {"days": "Sun", "time": "Closed"}], "id": "7990700041", "name": "USPS COLLECTION BOX - BLUE BOX", "address": {"city": "EL PASO", "state": "TX", "street": "880 N ZARAGOZA RD", "postcode": "79907"}}},
{"geometry": {"type": "Point", "coordinates": [-106.3145825411, 31.7075733764]}, "type": "Feature", "properties": {"collection_times": [{"days": "Mon-Fri", "time": "5:15pm"}, {"days": "Sat", "time": "3:45pm"}, {"days": "Sun", "time": "Closed"}], "id": "7990700042", "name": "USPS COLLECTION BOX - PO LOBBY", "address": {"city": "EL PASO", "state": "TX", "street": "880 N ZARAGOZA RD", "postcode": "79907"}}},
{"geometry": {"type": "Point", "coordinates": [-106.3145825411, 31.7075733764]}, "type": "Feature", "properties": {"collection_times": [{"days": "Mon-Fri", "time": "5:15pm"}, {"days": "Sat", "time": "3:45pm"}, {"days": "Sun", "time": "Closed"}], "id": "7990700043", "name": "USPS COLLECTION BOX - PO LOBBY", "address": {"city": "EL PASO", "state": "TX", "street": "880 N ZARAGOZA RD", "postcode": "79907"}}},
{"geometry": {"type": "Point", "coordinates": [-106.3145825411, 31.7075733764]}, "type": "Feature", "properties": {"collection_times": [{"days": "Mon-Fri", "time": "5:15pm"}, {"days": "Sat", "time": "3:45pm"}, {"days": "Sun", "time": "Closed"}], "id": "7990700044", "name": "USPS COLLECTION BOX - PO LOBBY", "address": {"city": "EL PASO", "state": "TX", "street": "880 N ZARAGOZA RD", "postcode": "79907"}}},
{"geometry": {"type": "Point", "coordinates": [-106.5099363845, 31.8077274142]}, "type": "Feature", "properties": {"collection_times": [{"days": "Mon-Fri", "time": "4:15pm"}, {"days": "Sat", "time": "3:55pm"}, {"days": "Sun", "time": "Closed"}], "id": "7991200003", "name": "USPS COLLECTION BOX - BLUE BOX", "address": {"city": "EL PASO", "state": "TX", "street": "4849 N MESA ST", "postcode": "79912"}}},
{"geometry": {"type": "Point", "coordinates": [-106.5099363845, 31.8077274142]}, "type": "Feature", "properties": {"collection_times": [{"days": "Mon-Fri", "time": "4:15pm"}, {"days": "Sat", "time": "3:55pm"}, {"days": "Sun", "time": "Closed"}], "id": "7991200005", "name": "USPS COLLECTION BOX - BLUE BOX", "address": {"city": "EL PASO", "state": "TX", "street": "4849 N MESA ST", "postcode": "79912"}}},
{"geometry": {"type": "Point", "coordinates": [-106.5203854611, 31.8223121153]}, "type": "Feature", "properties": {"collection_times": [{"days": "Mon-Fri", "time": "1:30pm"}, {"days": "Sat", "time": "2:10pm"}, {"days": "Sun", "time": "Closed"}], "id": "7991200006", "name": "USPS COLLECTION BOX - BLUE BOX", "address": {"city": "EL PASO", "state": "TX", "street": "5670 N MESA ST", "postcode": "79912"}}},
{"geometry": {"type": "Point", "coordinates": [-106.5240253628, 31.8252448234]}, "type": "Feature", "properties": {"collection_times": [{"days": "Mon-Fri", "time": "4:30pm"}, {"days": "Sat", "time": "12:45pm"}, {"days": "Sun", "time": "Closed"}], "id": "7991200007", "name": "USPS COLLECTION BOX - BLUE BOX", "address": {"city": "EL PASO", "state": "TX", "street": "5823 N MESA ST", "postcode": "79912"}}},
{"geometry": {"type": "Point", "coordinates": [-106.5509154254, 31.8356436117]}, "type": "Feature", "properties": {"collection_times": [{"days": "Mon-Fri", "time": "2:30pm"}, {"days": "Sat", "time": "3:05pm"}, {"days": "Sun", "time": "Closed"}], "id": "7991200008", "name": "USPS COLLECTION BOX - BLUE BOX", "address": {"city": "EL PASO", "state": "TX", "street": "7015 N MESA ST", "postcode": "79912"}}},
{"geometry": {"type": "Point", "coordinates": [-106.5387071295, 31.8168350153]}, "type": "Feature", "properties": {"collection_times": [{"days": "Mon-Fri", "time": "4:25pm"}, {"days": "Sat", "time": "4:05pm"}, {"days": "Sun", "time": "Closed"}], "id": "7991200009", "name": "USPS COLLECTION BOX - BLUE BOX", "address": {"city": "EL PASO", "state": "TX", "street": "5822 CROMO DR", "postcode": "79912"}}},
{"geometry": {"type": "Point", "coordinates": [-106.5292280793, 31.83001791]}, "type": "Feature", "properties": {"collection_times": [{"days": "Mon-Fri", "time": "1:45pm"}, {"days": "Sat", "time": "12:45pm"}, {"days": "Sun", "time": "Closed"}], "id": "7991200014", "name": "USPS COLLECTION BOX - BLUE BOX", "address": {"city": "EL PASO", "state": "TX", "street": "6006 N MESA ST", "postcode": "79912"}}},
{"geometry": {"type": "Point", "coordinates": [-106.5292280793, 31.83001791]}, "type": "Feature", "properties": {"collection_times": [{"days": "Mon-Fri", "time": "1:45pm"}, {"days": "Sat", "time": "12:45pm"}, {"days": "Sun", "time": "Closed"}], "id": "7991200015", "name": "USPS COLLECTION BOX - BLUE BOX", "address": {"city": "EL PASO", "state": "TX", "street": "6006 N MESA ST", "postcode": "79912"}}},
{"geometry": {"type": "Point", "coordinates": [-106.5412232833, 31.8339417849]}, "type": "Feature", "properties": {"collection_times": [{"days": "Mon-Fri", "time": "2:05pm"}, {"days": "Sat-Sun", "time": "Closed"}], "id": "7991200016", "name": "USPS COLLECTION BOX - BLUE BOX", "address": {"city": "EL PASO", "state": "TX", "street": "6600 N MESA ST", "postcode": "79912"}}},
{"geometry": {"type": "Point", "coordinates": [-106.5387071295, 31.8168350153]}, "type": "Feature", "properties": {"collection_times": [{"days": "Mon-Fri", "time": "4:25pm"}, {"days": "Sat", "time": "4:05pm"}, {"days": "Sun", "time": "Closed"}], "id": "7991200027", "name": "USPS COLLECTION BOX - BLUE BOX", "address": {"city": "EL PASO", "state": "TX", "street": "5822 CROMO DR", "postcode": "79912"}}},
{"geometry": {"type": "Point", "coordinates": [-106.5490982411, 31.8352903581]}, "type": "Feature", "properties": {"collection_times": [{"days": "Mon-Fri", "time": "2:20pm"}, {"days": "Sat-Sun", "time": "Closed"}], "id": "7991200032", "name": "USPS COLLECTION BOX - BLUE BOX", "address": {"city": "EL PASO", "state": "TX", "street": "6955 N MESA ST", "postcode": "79912"}}},
{"geometry": {"type": "Point", "coordinates": [-106.5566931759, 31.8367057219]}, "type": "Feature", "properties": {"collection_times": [{"days": "Mon-Fri", "time": "2:35pm"}, {"days": "Sat-Sun", "time": "Closed"}], "id": "7991200033", "name": "USPS COLLECTION BOX - BLUE BOX", "address": {"city": "EL PASO", "state": "TX", "street": "7211 N MESA ST", "postcode": "79912"}}},
{"geometry": {"type": "Point", "coordinates": [-106.537912359, 31.8330640494]}, "type": "Feature", "properties": {"collection_times": [{"days": "Mon-Fri", "time": "2:00pm"}, {"days": "Sat-Sun", "time": "Closed"}], "id": "7991200034", "name": "USPS COLLECTION BOX - BLUE BOX", "address": {"city": "EL PASO", "state": "TX", "street": "6513 N MESA ST", "postcode": "79912"}}},
{"geometry": {"type": "Point", "coordinates": [-106.5422595553, 31.8190459656]}, "type": "Feature", "properties": {"collection_times": [{"days": "Mon-Fri", "time": "1:20pm"}, {"days": "Sat", "time": "4:15pm"}, {"days": "Sun", "time": "Closed"}], "id": "7991200035", "name": "USPS COLLECTION BOX - BLUE BOX", "address": {"city": "EL PASO", "state": "TX", "street": "690 SUNLAND PARK DR", "postcode": "79912"}}},
{"geometry": {"type": "Point", "coordinates": [-106.5285370026, 31.8292489744]}, "type": "Feature", "properties": {"collection_times": [{"days": "Mon-Fri", "time": "4:55pm"}, {"days": "Sat", "time": "4:35pm"}, {"days": "Sun", "time": "Closed"}], "id": "7991200040", "name": "USPS COLLECTION BOX - BLUE BOX", "address": {"city": "EL PASO", "state": "TX", "street": "5981 N MESA ST", "postcode": "79912"}}},
{"geometry": {"type": "Point", "coordinates": [-106.509490409, 31.8034876893]}, "type": "Feature", "properties": {"collection_times": [{"days": "Mon-Fri", "time": "4:10pm"}, {"days": "Sat-Sun", "time": "Closed"}], "id": "7991200051", "name": "USPS COLLECTION BOX - BLUE BOX", "address": {"city": "EL PASO", "state": "TX", "street": "4695 N MESA ST", "postcode": "79912"}}},
{"geometry": {"type": "Point", "coordinates": [-106.5285370026, 31.8292489744]}, "type": "Feature", "properties": {"collection_times": [{"days": "Mon-Fri", "time": "4:55pm"}, {"days": "Sat", "time": "4:35pm"}, {"days": "Sun", "time": "Closed"}], "id": "7991200053", "name": "USPS COLLECTION BOX - BLUE BOX", "address": {"city": "EL PASO", "state": "TX", "street": "5981 N MESA ST", "postcode": "79912"}}},
{"geometry": {"type": "Point", "coordinates": [-106.5285370026, 31.8292489744]}, "type": "Feature", "properties": {"collection_times": [{"days": "Mon-Fri", "time": "4:55pm"}, {"days": "Sat", "time": "4:35pm"}, {"days": "Sun", "time": "Closed"}], "id": "7991200054", "name": "USPS COLLECTION BOX - BLUE BOX", "address": {"city": "EL PASO", "state": "TX", "street": "5981 N MESA ST", "postcode": "79912"}}},
{"geometry": {"type": "Point", "coordinates": [-106.5285370026, 31.8292489744]}, "type": "Feature", "properties": {"collection_times": [{"days": "Mon-Fri", "time": "4:55pm"}, {"days": "Sat", "time": "4:35pm"}, {"days": "Sun", "time": "Closed"}], "id": "7991200055", "name": "USPS COLLECTION BOX - BLUE BOX", "address": {"city": "EL PASO", "state": "TX", "street": "5981 N MESA ST", "postcode": "79912"}}},
{"geometry": {"type": "Point", "coordinates": [-106.5285370026, 31.8292489744]}, "type": "Feature", "properties": {"collection_times": [{"days": "Mon-Fri", "time": "4:55pm"}, {"days": "Sat", "time": "4:35pm"}, {"days": "Sun", "time": "Closed"}], "id": "7991200056", "name": "USPS COLLECTION BOX - BLUE BOX", "address": {"city": "EL PASO", "state": "TX", "street": "5981 N MESA ST", "postcode": "79912"}}},
{"geometry": {"type": "Point", "coordinates": [-106.5767570046, 31.8639735641]}, "type": "Feature", "properties": {"collection_times": [{"days": "Mon-Fri", "time": "3:00pm"}, {"days": "Sat-Sun", "time": "Closed"}], "id": "7991200057", "name": "USPS COLLECTION BOX - BLUE BOX", "address": {"city": "EL PASO", "state": "TX", "street": "5610 N DESERT BLVD STE B-8", "postcode": "79912"}}},
{"geometry": {"type": "Point", "coordinates": [-106.5615879218, 31.839156268]}, "type": "Feature", "properties": {"collection_times": [{"days": "Mon-Fri", "time": "5:15pm"}, {"days": "Sat", "time": "4:45pm"}, {"days": "Sun", "time": "Closed"}], "id": "7991200058", "name": "USPS COLLECTION BOX - PO LOBBY", "address": {"city": "EL PASO", "state": "TX", "street": "7383 REMCON CIR", "postcode": "79912"}}},
{"geometry": {"type": "Point", "coordinates": [-106.5615879218, 31.839156268]}, "type": "Feature", "properties": {"collection_times": [{"days": "Mon-Fri", "time": "5:30pm"}, {"days": "Sat", "time": "4:00pm"}, {"days": "Sun", "time": "Closed"}], "id": "7991200060", "name": "USPS COLLECTION BOX - BLUE BOX", "address": {"city": "EL PASO", "state": "TX", "street": "7383 REMCON CIR", "postcode": "79912"}}},
{"geometry": {"type": "Point", "coordinates": [-106.5615879218, 31.839156268]}, "type": "Feature", "properties": {"collection_times": [{"days": "Mon-Fri", "time": "5:30pm"}, {"days": "Sat", "time": "4:00pm"}, {"days": "Sun", "time": "Closed"}], "id": "7991200061", "name": "USPS COLLECTION BOX - BLUE BOX", "address": {"city": "EL PASO", "state": "TX", "street": "7383 REMCON CIR", "postcode": "79912"}}},
{"geometry": {"type": "Point", "coordinates": [-106.5615879218, 31.839156268]}, "type": "Feature", "properties": {"collection_times": [{"days": "Mon-Fri", "time": "5:15pm"}, {"days": "Sat", "time": "4:45pm"}, {"days": "Sun", "time": "Closed"}], "id": "7991200067", "name": "USPS COLLECTION BOX - PO LOBBY", "address": {"city": "EL PASO", "state": "TX", "street": "7383 REMCON CIR", "postcode": "79912"}}},
{"geometry": {"type": "Point", "coordinates": [-106.5615879218, 31.839156268]}, "type": "Feature", "properties": {"collection_times": [{"days": "Mon-Fri", "time": "5:15pm"}, {"days": "Sat", "time": "4:45pm"}, {"days": "Sun", "time": "Closed"}], "id": "7991200068", "name": "USPS COLLECTION BOX - PO LOBBY", "address": {"city": "EL PASO", "state": "TX", "street": "7383 REMCON CIR", "postcode": "79912"}}},
{"geometry": {"type": "Point", "coordinates": [-106.5615879218, 31.839156268]}, "type": "Feature", "properties": {"collection_times": [{"days": "Mon-Fri", "time": "5:15pm"}, {"days": "Sat", "time": "4:45pm"}, {"days": "Sun", "time": "Closed"}], "id": "7991200069", "name": "USPS COLLECTION BOX - APC", "address": {"city": "EL PASO", "state": "TX", "street": "7383 REMCON CIR", "postcode": "79912"}}},
{"geometry": {"type": "Point", "coordinates": [-106.3894271718, 31.7513251137]}, "type": "Feature", "properties": {"collection_times": [{"days": "Mon-Fri", "time": "1:40pm"}, {"days": "Sat-Sun", "time": "Closed"}], "id": "7991500001", "name": "USPS COLLECTION BOX - BLUE BOX", "address": {"city": "EL PASO", "state": "TX", "street": "7150 ALAMEDA AVE", "postcode": "79915"}}},
{"geometry": {"type": "Point", "coordinates": [-106.3670420393, 31.7656377342]}, "type": "Feature", "properties": {"collection_times": [{"days": "Mon-Fri", "time": "5:15pm"}, {"days": "Sat", "time": "3:50pm"}, {"days": "Sun", "time": "Closed"}], "id": "7991500006", "name": "USPS COLLECTION BOX - PO LOBBY", "address": {"city": "EL PASO", "state": "TX", "street": "7314 GATEWAY BLVD E", "postcode": "79915"}}},
{"geometry": {"type": "Point", "coordinates": [-106.3670420393, 31.7656377342]}, "type": "Feature", "properties": {"collection_times": [{"days": "Mon-Fri", "time": "5:15pm"}, {"days": "Sat", "time": "3:30pm"}, {"days": "Sun", "time": "Closed"}], "id": "7991500008", "name": "USPS COLLECTION BOX - BLUE BOX", "address": {"city": "EL PASO", "state": "TX", "street": "7314 GATEWAY BLVD E", "postcode": "79915"}}},
{"geometry": {"type": "Point", "coordinates": [-106.3675561329, 31.7659260937]}, "type": "Feature", "properties": {"collection_times": [{"days": "Mon-Fri", "time": "5:15pm"}, {"days": "Sat", "time": "3:30pm"}, {"days": "Sun", "time": "Closed"}], "id": "7991500009", "name": "USPS COLLECTION BOX - BLUE BOX", "address": {"city": "EL PASO", "state": "TX", "street": "7314 GATEWAY BLVD E", "postcode": "79915"}}},
{"geometry": {"type": "Point", "coordinates": [-106.3617684083, 31.7291162421]}, "type": "Feature", "properties": {"collection_times": [{"days": "Mon-Fri", "time": "1:50pm"}, {"days": "Sat-Sun", "time": "Closed"}], "id": "7991500025", "name": "USPS COLLECTION BOX - BLUE BOX", "address": {"city": "EL PASO", "state": "TX", "street": "7900 ALAMEDA AVE", "postcode": "79915"}}},
{"geometry": {"type": "Point", "coordinates": [-106.3670420393, 31.7656377342]}, "type": "Feature", "properties": {"collection_times": [{"days": "Mon-Fri", "time": "5:15pm"}, {"days": "Sat", "time": "3:30pm"}, {"days": "Sun", "time": "Closed"}], "id": "7991500032", "name": "USPS COLLECTION BOX - BLUE BOX", "address": {"city": "EL PASO", "state": "TX", "street": "7314 GATEWAY BLVD E", "postcode": "79915"}}},
{"geometry": {"type": "Point", "coordinates": [-106.3913435358, 31.7528090831]}, "type": "Feature", "properties": {"collection_times": [{"days": "Mon-Fri", "time": "1:35pm"}, {"days": "Sat-Sun", "time": "Closed"}], "id": "7991500037", "name": "USPS COLLECTION BOX - BLUE BOX", "address": {"city": "EL PASO", "state": "TX", "street": "7110C ALAMEDA AVE", "postcode": "79915"}}},
{"geometry": {"type": "Point", "coordinates": [-106.3670420393, 31.7656377342]}, "type": "Feature", "properties": {"collection_times": [{"days": "Mon-Fri", "time": "5:15pm"}, {"days": "Sat", "time": "3:50pm"}, {"days": "Sun", "time": "Closed"}], "id": "7991500040", "name": "USPS COLLECTION BOX - PO LOBBY", "address": {"city": "EL PASO", "state": "TX", "street": "7314 GATEWAY BLVD E", "postcode": "79915"}}},
{"geometry": {"type": "Point", "coordinates": [-106.4614500463, 31.8188715999]}, "type": "Feature", "properties": {"collection_times": [{"days": "Mon-Fri", "time": "1:55pm"}, {"days": "Sat", "time": "4:35pm"}, {"days": "Sun", "time": "Closed"}], "id": "7992000000", "name": "USPS COLLECTION BOX - BLUE BOX", "address": {"city": "EL PASO", "state": "TX", "street": "5001 N PIEDRAS ST", "postcode": "79920"}}},
{"geometry": {"type": "Point", "coordinates": [-106.4614500463, 31.8188715999]}, "type": "Feature", "properties": {"collection_times": [{"days": "Mon-Fri", "time": "1:50pm"}, {"days": "Sat", "time": "4:45pm"}, {"days": "Sun", "time": "Closed"}], "id": "7992000002", "name": "USPS COLLECTION BOX - BLUE BOX", "address": {"city": "EL PASO", "state": "TX", "street": "5001 N PIEDRAS ST", "postcode": "79920"}}},
{"geometry": {"type": "Point", "coordinates": [-106.4182617966, 31.8806461877]}, "type": "Feature", "properties": {"collection_times": [{"days": "Mon-Fri", "time": "5:30pm"}, {"days": "Sat", "time": "3:15pm"}, {"days": "Sun", "time": "Closed"}], "id": "7992400010", "name": "USPS COLLECTION BOX - BLUE BOX", "address": {"city": "EL PASO", "state": "TX", "street": "5249 SANDERS AVE", "postcode": "79924"}}},
{"geometry": {"type": "Point", "coordinates": [-106.4182617966, 31.8806461877]}, "type": "Feature", "properties": {"collection_times": [{"days": "Mon-Fri", "time": "5:30pm"}, {"days": "Sat", "time": "4:15pm"}, {"days": "Sun", "time": "Closed"}], "id": "7992400055", "name": "USPS COLLECTION BOX - PO LOBBY", "address": {"city": "EL PASO", "state": "TX", "street": "5249 SANDERS AVE", "postcode": "79924"}}},
{"geometry": {"type": "Point", "coordinates": [-106.4182617966, 31.8806461877]}, "type": "Feature", "properties": {"collection_times": [{"days": "Mon-Fri", "time": "5:30pm"}, {"days": "Sat", "time": "4:15pm"}, {"days": "Sun", "time": "Closed"}], "id": "7992400056", "name": "USPS COLLECTION BOX - PO LOBBY", "address": {"city": "EL PASO", "state": "TX", "street": "5249 SANDERS AVE", "postcode": "79924"}}},
{"geometry": {"type": "Point", "coordinates": [-106.3524447553, 31.7575012301]}, "type": "Feature", "properties": {"collection_times": [{"days": "Mon-Fri", "time": "4:20pm"}, {"days": "Sat", "time": "4:45pm"}, {"days": "Sun", "time": "Closed"}], "id": "7992500015", "name": "USPS COLLECTION BOX - BLUE BOX", "address": {"city": "EL PASO", "state": "TX", "street": "10201 GATEWAY BLVD W", "postcode": "79925"}}},
{"geometry": {"type": "Point", "coordinates": [-106.3504877116, 31.7562024535]}, "type": "Feature", "properties": {"collection_times": [{"days": "Mon-Fri", "time": "4:30pm"}, {"days": "Sat", "time": "4:40pm"}, {"days": "Sun", "time": "Closed"}], "id": "7992500017", "name": "USPS COLLECTION BOX - BLUE BOX", "address": {"city": "EL PASO", "state": "TX", "street": "10301 GATEWAY BLVD W", "postcode": "79925"}}},
{"geometry": {"type": "Point", "coordinates": [-106.3715916325, 31.775506645]}, "type": "Feature", "properties": {"collection_times": [{"days": "Mon-Fri", "time": "2:30pm"}, {"days": "Sat", "time": "3:05pm"}, {"days": "Sun", "time": "Closed"}], "id": "7992500025", "name": "USPS COLLECTION BOX - BLUE BOX", "address": {"city": "EL PASO", "state": "TX", "street": "1200 GOLDEN KEY CIR", "postcode": "79925"}}},
{"geometry": {"type": "Point", "coordinates": [-106.3777986852, 31.7868552862]}, "type": "Feature", "properties": {"collection_times": [{"days": "Mon-Fri", "time": "2:10pm"}, {"days": "Sat", "time": "1:30pm"}, {"days": "Sun", "time": "Closed"}], "id": "7992500062", "name": "USPS COLLECTION BOX - BLUE BOX", "address": {"city": "EL PASO", "state": "TX", "street": "8301 EDGEMERE BLVD", "postcode": "79925"}}},
{"geometry": {"type": "Point", "coordinates": [-106.3355256466, 31.7852369983]}, "type": "Feature", "properties": {"collection_times": [{"days": "Mon-Sat", "time": "5:00pm"}, {"days": "Sun", "time": "Closed"}], "id": "7992500084", "name": "USPS COLLECTION BOX - BLUE BOX", "address": {"city": "EL PASO", "state": "TX", "street": "3100 N YARBROUGH DR", "postcode": "79925"}}},
{"geometry": {"type": "Point", "coordinates": [-106.3894295377, 31.7815781063]}, "type": "Feature", "properties": {"collection_times": [{"days": "Mon-Fri", "time": "2:45pm"}, {"days": "Sat", "time": "2:35pm"}, {"days": "Sun", "time": "Closed"}], "id": "7992500094", "name": "USPS COLLECTION BOX - BLUE BOX", "address": {"city": "EL PASO", "state": "TX", "street": "7227 VISCOUNT BLVD", "postcode": "79925"}}},
{"geometry": {"type": "Point", "coordinates": [-106.3954874706, 31.793001941]}, "type": "Feature", "properties": {"collection_times": [{"days": "Mon-Fri", "time": "4:45pm"}, {"days": "Sat-Sun", "time": "Closed"}], "id": "7992500096", "name": "USPS COLLECTION BOX - BLUE BOX", "address": {"city": "EL PASO", "state": "TX", "street": "1760 AIRWAY BLVD", "postcode": "79925"}}},
{"geometry": {"type": "Point", "coordinates": [-106.3396529904, 31.7735387171]}, "type": "Feature", "properties": {"collection_times": [{"days": "Mon-Fri", "time": "3:00pm"}, {"days": "Sat", "time": "3:45pm"}, {"days": "Sun", "time": "Closed"}], "id": "7992500101", "name": "USPS COLLECTION BOX - BLUE BOX", "address": {"city": "EL PASO", "state": "TX", "street": "2200 N YARBROUGH DR STE B", "postcode": "79925"}}},
{"geometry": {"type": "Point", "coordinates": [-106.3715916325, 31.775506645]}, "type": "Feature", "properties": {"collection_times": [{"days": "Mon-Fri", "time": "2:30pm"}, {"days": "Sat", "time": "3:05pm"}, {"days": "Sun", "time": "Closed"}], "id": "7992500106", "name": "USPS COLLECTION BOX - BLUE BOX", "address": {"city": "EL PASO", "state": "TX", "street": "1200 GOLDEN KEY CIR", "postcode": "79925"}}},
{"geometry": {"type": "Point", "coordinates": [-106.3715916325, 31.775506645]}, "type": "Feature", "properties": {"collection_times": [{"days": "Mon-Fri", "time": "2:30pm"}, {"days": "Sat", "time": "3:05pm"}, {"days": "Sun", "time": "Closed"}], "id": "7992500107", "name": "USPS COLLECTION BOX - BLUE BOX", "address": {"city": "EL PASO", "state": "TX", "street": "1200 GOLDEN KEY CIR", "postcode": "79925"}}},
{"geometry": {"type": "Point", "coordinates": [-106.3942698225, 31.7886894896]}, "type": "Feature", "properties": {"collection_times": [{"days": "Mon-Fri", "time": "1:25pm"}, {"days": "Sat", "time": "1:15pm"}, {"days": "Sun", "time": "Closed"}], "id": "7992500114", "name": "USPS COLLECTION BOX - BLUE BOX", "address": {"city": "EL PASO", "state": "TX", "street": "6825 CIELO VISTA DR", "postcode": "79925"}}},
{"geometry": {"type": "Point", "coordinates": [-106.3635850525, 31.7668488205]}, "type": "Feature", "properties": {"collection_times": [{"days": "Mon-Fri", "time": "2:25pm"}, {"days": "Sat", "time": "3:15pm"}, {"days": "Sun", "time": "Closed"}], "id": "7992500116", "name": "USPS COLLECTION BOX - BLUE BOX", "address": {"city": "EL PASO", "state": "TX", "street": "9480 VISCOUNT BLVD", "postcode": "79925"}}},
{"geometry": {"type": "Point", "coordinates": [-106.3635850525, 31.7668488205]}, "type": "Feature", "properties": {"collection_times": [{"days": "Mon-Fri", "time": "2:25pm"}, {"days": "Sat", "time": "3:15pm"}, {"days": "Sun", "time": "Closed"}], "id": "7992500117", "name": "USPS COLLECTION BOX - BLUE BOX", "address": {"city": "EL PASO", "state": "TX", "street": "9480 VISCOUNT BLVD", "postcode": "79925"}}},
{"geometry": {"type": "Point", "coordinates": [-106.4104720118, 31.7817756604]}, "type": "Feature", "properties": {"collection_times": [{"days": "Mon-Fri", "time": "4:20pm"}, {"days": "Sat", "time": "2:10pm"}, {"days": "Sun", "time": "Closed"}], "id": "7992500119", "name": "USPS COLLECTION BOX - BLUE BOX", "address": {"city": "EL PASO", "state": "TX", "street": "6101 GATEWAY BLVD W", "postcode": "79925"}}},
{"geometry": {"type": "Point", "coordinates": [-106.4104720118, 31.7817756604]}, "type": "Feature", "properties": {"collection_times": [{"days": "Mon-Fri", "time": "4:20pm"}, {"days": "Sat", "time": "2:10pm"}, {"days": "Sun", "time": "Closed"}], "id": "7992500120", "name": "USPS COLLECTION BOX - BLUE BOX", "address": {"city": "EL PASO", "state": "TX", "street": "6101 GATEWAY BLVD W", "postcode": "79925"}}},
{"geometry": {"type": "Point", "coordinates": [-106.4104720118, 31.7817756604]}, "type": "Feature", "properties": {"collection_times": [{"days": "Mon-Fri", "time": "4:20pm"}, {"days": "Sat", "time": "2:10pm"}, {"days": "Sun", "time": "Closed"}], "id": "7992500121", "name": "USPS COLLECTION BOX - BLUE BOX", "address": {"city": "EL PASO", "state": "TX", "street": "6101 GATEWAY BLVD W", "postcode": "79925"}}},
{"geometry": {"type": "Point", "coordinates": [-106.3355256466, 31.7852369983]}, "type": "Feature", "properties": {"collection_times": [{"days": "Mon-Fri", "time": "4:45pm"}, {"days": "Sat", "time": "4:30pm"}, {"days": "Sun", "time": "Closed"}], "id": "7992500127", "name": "USPS COLLECTION BOX - PO LOBBY", "address": {"city": "EL PASO", "state": "TX", "street": "3100 N YARBROUGH DR", "postcode": "79925"}}},
{"geometry": {"type": "Point", "coordinates": [-106.3811157021, 31.7736108776]}, "type": "Feature", "properties": {"collection_times": [{"days": "Mon-Fri", "time": "2:15pm"}, {"days": "Sat", "time": "2:45pm"}, {"days": "Sun", "time": "Closed"}], "id": "7992500130", "name": "USPS COLLECTION BOX - BLUE BOX", "address": {"city": "EL PASO", "state": "TX", "street": "8401 GATEWAY BLVD W", "postcode": "79925"}}},
{"geometry": {"type": "Point", "coordinates": [-106.34373746, 31.754340912]}, "type": "Feature", "properties": {"collection_times": [{"days": "Mon-Fri", "time": "4:15pm"}, {"days": "Sat", "time": "3:30pm"}, {"days": "Sun", "time": "Closed"}], "id": "7992500138", "name": "USPS COLLECTION BOX - BLUE BOX", "address": {"city": "EL PASO", "state": "TX", "street": "1144 N YARBROUGH DR", "postcode": "79925"}}},
{"geometry": {"type": "Point", "coordinates": [-106.34373746, 31.754340912]}, "type": "Feature", "properties": {"collection_times": [{"days": "Mon-Fri", "time": "4:15pm"}, {"days": "Sat", "time": "3:30pm"}, {"days": "Sun", "time": "Closed"}], "id": "7992500139", "name": "USPS COLLECTION BOX - BLUE BOX", "address": {"city": "EL PASO", "state": "TX", "street": "1144 N YARBROUGH DR", "postcode": "79925"}}},
{"geometry": {"type": "Point", "coordinates": [-106.215438468, 31.683864627]}, "type": "Feature", "properties": {"collection_times": [{"days": "Mon-Sat", "time": "9:45am"}, {"days": "Sun", "time": "Closed"}], "id": "7992700003", "name": "USPS COLLECTION BOX - BLUE BOX", "address": {"city": "EL PASO", "state": "TX", "street": "14200 ASHFORD ST", "postcode": "79927"}}},
{"geometry": {"type": "Point", "coordinates": [-106.242418274, 31.658419098]}, "type": "Feature", "properties": {"collection_times": [{"days": "Mon-Sat", "time": "11:15am"}, {"days": "Sun", "time": "Closed"}], "id": "7992700004", "name": "USPS COLLECTION BOX - BLUE BOX", "address": {"city": "EL PASO", "state": "TX", "street": "1295 HORIZON BLVD", "postcode": "79927"}}},
{"geometry": {"type": "Point", "coordinates": [-106.230124509, 31.668733496]}, "type": "Feature", "properties": {"collection_times": [{"days": "Mon-Sat", "time": "8:45am"}, {"days": "Sun", "time": "Closed"}], "id": "7992700007", "name": "USPS COLLECTION BOX - BLUE BOX", "address": {"city": "EL PASO", "state": "TX", "street": "1500 HORIZON BLVD", "postcode": "79927"}}},
{"geometry": {"type": "Point", "coordinates": [-106.284887964, 31.649823519]}, "type": "Feature", "properties": {"collection_times": [{"days": "Mon-Sat", "time": "9:45am"}, {"days": "Sun", "time": "Closed"}], "id": "7992700009", "name": "USPS COLLECTION BOX - BLUE BOX", "address": {"city": "EL PASO", "state": "TX", "street": "124 HORIZON BLVD", "postcode": "79927"}}},
{"geometry": {"type": "Point", "coordinates": [-106.320033165, 31.674375634]}, "type": "Feature", "properties": {"collection_times": [{"days": "Mon-Fri", "time": "9:45am"}, {"days": "Sat", "time": "8:45am"}, {"days": "Sun", "time": "Closed"}], "id": "7992700010", "name": "USPS COLLECTION BOX - BLUE BOX", "address": {"city": "EL PASO", "state": "TX", "street": "9615 PLAZA CIR", "postcode": "79927"}}},
{"geometry": {"type": "Point", "coordinates": [-106.211299389, 31.696899212]}, "type": "Feature", "properties": {"collection_times": [{"days": "Mon-Sat", "time": "9:45am"}, {"days": "Sun", "time": "Closed"}], "id": "7992700011", "name": "USPS COLLECTION BOX - BLUE BOX", "address": {"city": "EL PASO", "state": "TX", "street": "19017 DARRINGTON RD", "postcode": "79927"}}},
{"geometry": {"type": "Point", "coordinates": [-106.217069586, 31.653885726]}, "type": "Feature", "properties": {"collection_times": [{"days": "Mon-Sat", "time": "8:45am"}, {"days": "Sun", "time": "Closed"}], "id": "7992700012", "name": "USPS COLLECTION BOX - BLUE BOX", "address": {"city": "EL PASO", "state": "TX", "street": "13500 TIMOTHY DR", "postcode": "79927"}}},
{"geometry": {"type": "Point", "coordinates": [-106.27181867, 31.65678442]}, "type": "Feature", "properties": {"collection_times": [{"days": "Mon-Fri", "time": "5:15pm"}, {"days": "Sat", "time": "3:30pm"}, {"days": "Sun", "time": "Closed"}], "id": "7992700014", "name": "USPS COLLECTION BOX - BLUE BOX", "address": {"city": "EL PASO", "state": "TX", "street": "10550 N LOOP RD", "postcode": "79927"}}},
{"geometry": {"type": "Point", "coordinates": [-106.27181867, 31.65678442]}, "type": "Feature", "properties": {"collection_times": [{"days": "Mon-Fri", "time": "5:15pm"}, {"days": "Sat", "time": "3:30pm"}, {"days": "Sun", "time": "Closed"}], "id": "7992700015", "name": "USPS COLLECTION BOX - BLUE BOX", "address": {"city": "EL PASO", "state": "TX", "street": "10550 N LOOP RD", "postcode": "79927"}}},
{"geometry": {"type": "Point", "coordinates": [-106.27181867, 31.65678442]}, "type": "Feature", "properties": {"collection_times": [{"days": "Mon-Fri", "time": "5:15pm"}, {"days": "Sat", "time": "3:30pm"}, {"days": "Sun", "time": "Closed"}], "id": "7992700016", "name": "USPS COLLECTION BOX - PO LOBBY", "address": {"city": "EL PASO", "state": "TX", "street": "10550 N LOOP RD", "postcode": "79927"}}},
{"geometry": {"type": "Point", "coordinates": [-106.27181867, 31.65678442]}, "type": "Feature", "properties": {"collection_times": [{"days": "Mon-Fri", "time": "5:15pm"}, {"days": "Sat", "time": "3:30pm"}, {"days": "Sun", "time": "Closed"}], "id": "7992700017", "name": "USPS COLLECTION BOX - PO LOBBY", "address": {"city": "EL PASO", "state": "TX", "street": "10550 N LOOP RD", "postcode": "79927"}}},
{"geometry": {"type": "Point", "coordinates": [-106.27181867, 31.65678442]}, "type": "Feature", "properties": {"collection_times": [{"days": "Mon-Fri", "time": "5:15pm"}, {"days": "Sat", "time": "3:30pm"}, {"days": "Sun", "time": "Closed"}], "id": "7992700018", "name": "USPS COLLECTION BOX - PO LOBBY", "address": {"city": "EL PASO", "state": "TX", "street": "10550 N LOOP RD", "postcode": "79927"}}},
{"geometry": {"type": "Point", "coordinates": [-106.286566493, 31.649903148]}, "type": "Feature", "properties": {"collection_times": [{"days": "Mon-Sat", "time": "8:45am"}, {"days": "Sun", "time": "Closed"}], "id": "7992700019", "name": "USPS COLLECTION BOX - BLUE BOX", "address": {"city": "EL PASO", "state": "TX", "street": "12800 HORIZON BLVD", "postcode": "79927"}}},
{"geometry": {"type": "Point", "coordinates": [-106.261618858, 31.68062677]}, "type": "Feature", "properties": {"collection_times": [{"days": "Mon-Sat", "time": "8:45am"}, {"days": "Sun", "time": "Closed"}], "id": "7992700020", "name": "USPS COLLECTION BOX - BLUE BOX", "address": {"city": "EL PASO", "state": "TX", "street": "10700 GATEWAY BLVD E", "postcode": "79927"}}},
{"geometry": {"type": "Point", "coordinates": [-106.27628342, 31.646639299]}, "type": "Feature", "properties": {"collection_times": [{"days": "Mon-Sat", "time": "2:00pm"}, {"days": "Sun", "time": "Closed"}], "id": "7992700021", "name": "USPS COLLECTION BOX - BLUE BOX", "address": {"city": "EL PASO", "state": "TX", "street": "494 N KENAZO AVE", "postcode": "79927"}}},
{"geometry": {"type": "Point", "coordinates": [-106.4446914658, 31.8136209157]}, "type": "Feature", "properties": {"collection_times": [{"days": "Mon-Fri", "time": "5:05pm"}, {"days": "Sat", "time": "5:00pm"}, {"days": "Sun", "time": "Closed"}], "id": "7993000000", "name": "USPS COLLECTION BOX - BLUE BOX", "address": {"city": "EL PASO", "state": "TX", "street": "4116 DYER ST", "postcode": "79930"}}},
{"geometry": {"type": "Point", "coordinates": [-106.4446914658, 31.8136209157]}, "type": "Feature", "properties": {"collection_times": [{"days": "Mon-Fri", "time": "5:05pm"}, {"days": "Sat", "time": "5:00pm"}, {"days": "Sun", "time": "Closed"}], "id": "7993000001", "name": "USPS COLLECTION BOX - BLUE BOX", "address": {"city": "EL PASO", "state": "TX", "street": "4116 DYER ST", "postcode": "79930"}}},
{"geometry": {"type": "Point", "coordinates": [-106.4446914658, 31.8136209157]}, "type": "Feature", "properties": {"collection_times": [{"days": "Mon-Fri", "time": "5:05pm"}, {"days": "Sat", "time": "5:00pm"}, {"days": "Sun", "time": "Closed"}], "id": "7993000002", "name": "USPS COLLECTION BOX - BLUE BOX", "address": {"city": "EL PASO", "state": "TX", "street": "4116 DYER ST", "postcode": "79930"}}},
{"geometry": {"type": "Point", "coordinates": [-106.4446914658, 31.8136209157]}, "type": "Feature", "properties": {"collection_times": [{"days": "Mon-Fri", "time": "5:05pm"}, {"days": "Sat", "time": "5:00pm"}, {"days": "Sun", "time": "Closed"}], "id": "7993000003", "name": "USPS COLLECTION BOX - BLUE BOX", "address": {"city": "EL PASO", "state": "TX", "street": "4116 DYER ST", "postcode": "79930"}}},
{"geometry": {"type": "Point", "coordinates": [-106.4446914658, 31.8136209157]}, "type": "Feature", "properties": {"collection_times": [{"days": "Mon-Fri", "time": "5:05pm"}, {"days": "Sat-Sun", "time": "Closed"}], "id": "7993000041", "name": "USPS COLLECTION BOX - PO LOBBY", "address": {"city": "EL PASO", "state": "TX", "street": "4116 DYER ST", "postcode": "79930"}}},
{"geometry": {"type": "Point", "coordinates": [-106.4446914658, 31.8136209157]}, "type": "Feature", "properties": {"collection_times": [{"days": "Mon-Fri", "time": "5:05pm"}, {"days": "Sat-Sun", "time": "Closed"}], "id": "7993000042", "name": "USPS COLLECTION BOX - PO LOBBY", "address": {"city": "EL PASO", "state": "TX", "street": "4116 DYER ST", "postcode": "79930"}}},
{"geometry": {"type": "Point", "coordinates": [-106.5840073601, 31.8522054883]}, "type": "Feature", "properties": {"collection_times": [{"days": "Mon-Fri", "time": "3:15pm"}, {"days": "Sat-Sun", "time": "Closed"}], "id": "7993200000", "name": "USPS COLLECTION BOX - BLUE BOX", "address": {"city": "EL PASO", "state": "TX", "street": "5300 DONIPHAN DR", "postcode": "79932"}}},
{"geometry": {"type": "Point", "coordinates": [-106.5968661241, 31.8856477383]}, "type": "Feature", "properties": {"collection_times": [{"days": "Mon-Fri", "time": "3:10pm"}, {"days": "Sat-Sun", "time": "Closed"}], "id": "7993200005", "name": "USPS COLLECTION BOX - BLUE BOX", "address": {"city": "EL PASO", "state": "TX", "street": "6398 DONIPHAN DR", "postcode": "79932"}}},
{"geometry": {"type": "Point", "coordinates": [-106.6116188053, 31.8467236565]}, "type": "Feature", "properties": {"collection_times": [{"days": "Mon-Fri", "time": "3:25pm"}, {"days": "Sat-Sun", "time": "Closed"}], "id": "7993200007", "name": "USPS COLLECTION BOX - BLUE BOX", "address": {"city": "EL PASO", "state": "TX", "street": "1071 COUNTRY CLUB RD", "postcode": "79932"}}},
{"geometry": {"type": "Point", "coordinates": [-106.5746832776, 31.840162966]}, "type": "Feature", "properties": {"collection_times": [{"days": "Mon-Fri", "time": "3:45pm"}, {"days": "Sat", "time": "2:45pm"}, {"days": "Sun", "time": "Closed"}], "id": "7993200009", "name": "USPS COLLECTION BOX - BLUE BOX", "address": {"city": "EL PASO", "state": "TX", "street": "7933 N MESA ST STE I", "postcode": "79932"}}},
{"geometry": {"type": "Point", "coordinates": [-106.5770527444, 31.8406184052]}, "type": "Feature", "properties": {"collection_times": [{"days": "Mon-Fri", "time": "3:35pm"}, {"days": "Sat", "time": "2:50pm"}, {"days": "Sun", "time": "Closed"}], "id": "7993200010", "name": "USPS COLLECTION BOX - BLUE BOX", "address": {"city": "EL PASO", "state": "TX", "street": "8001 N MESA ST", "postcode": "79932"}}},
{"geometry": {"type": "Point", "coordinates": [-106.3404467559, 31.7499871871]}, "type": "Feature", "properties": {"collection_times": [{"days": "Mon-Fri", "time": "1:40pm"}, {"days": "Sat-Sun", "time": "Closed"}], "id": "7993500005", "name": "USPS COLLECTION BOX - BLUE BOX", "address": {"city": "EL PASO", "state": "TX", "street": "10737 GATEWAY BLVD W", "postcode": "79935"}}},
{"geometry": {"type": "Point", "coordinates": [-106.3404467559, 31.7499871871]}, "type": "Feature", "properties": {"collection_times": [{"days": "Mon-Fri", "time": "1:40pm"}, {"days": "Sat-Sun", "time": "Closed"}], "id": "7993500006", "name": "USPS COLLECTION BOX - BLUE BOX", "address": {"city": "EL PASO", "state": "TX", "street": "10737 GATEWAY BLVD W", "postcode": "79935"}}},
{"geometry": {"type": "Point", "coordinates": [-106.3188873287, 31.7642749655]}, "type": "Feature", "properties": {"collection_times": [{"days": "Mon-Fri", "time": "3:35pm"}, {"days": "Sat", "time": "1:25pm"}, {"days": "Sun", "time": "Closed"}], "id": "7993600028", "name": "USPS COLLECTION BOX - BLUE BOX", "address": {"city": "EL PASO", "state": "TX", "street": "1790 N LEE TREVINO DR", "postcode": "79936"}}},
{"geometry": {"type": "Point", "coordinates": [-106.3188991583, 31.7670501872]}, "type": "Feature", "properties": {"collection_times": [{"days": "Mon-Fri", "time": "3:30pm"}, {"days": "Sat", "time": "1:30pm"}, {"days": "Sun", "time": "Closed"}], "id": "7993600031", "name": "USPS COLLECTION BOX - BLUE BOX", "address": {"city": "EL PASO", "state": "TX", "street": "1840 N LEE TREVINO DR", "postcode": "79936"}}},
{"geometry": {"type": "Point", "coordinates": [-106.2962374843, 31.7634538051]}, "type": "Feature", "properties": {"collection_times": [{"days": "Mon-Fri", "time": "3:35pm"}, {"days": "Sat", "time": "1:25pm"}, {"days": "Sun", "time": "Closed"}], "id": "7993600036", "name": "USPS COLLECTION BOX - EXPRESS", "address": {"city": "EL PASO", "state": "TX", "street": "1790 N LEE TREVINO DR", "postcode": "79936"}}},
{"geometry": {"type": "Point", "coordinates": [-106.303457995, 31.7731022053]}, "type": "Feature", "properties": {"collection_times": [{"days": "Mon-Fri", "time": "5:30pm"}, {"days": "Sat", "time": "4:45pm"}, {"days": "Sun", "time": "Closed"}], "id": "7993600038", "name": "USPS COLLECTION BOX - BLUE BOX", "address": {"city": "EL PASO", "state": "TX", "street": "2100 GEORGE DIETER DR", "postcode": "79936"}}},
{"geometry": {"type": "Point", "coordinates": [-106.303457995, 31.7731022053]}, "type": "Feature", "properties": {"collection_times": [{"days": "Mon-Fri", "time": "5:30pm"}, {"days": "Sat", "time": "4:45pm"}, {"days": "Sun", "time": "Closed"}], "id": "7993600041", "name": "USPS COLLECTION BOX - PO LOBBY", "address": {"city": "EL PASO", "state": "TX", "street": "2100 GEORGE DIETER DR", "postcode": "79936"}}},
{"geometry": {"type": "Point", "coordinates": [-106.303457995, 31.7731022053]}, "type": "Feature", "properties": {"collection_times": [{"days": "Mon-Fri", "time": "5:30pm"}, {"days": "Sat", "time": "4:45pm"}, {"days": "Sun", "time": "Closed"}], "id": "7993600042", "name": "USPS COLLECTION BOX - PO LOBBY", "address": {"city": "EL PASO", "state": "TX", "street": "2100 GEORGE DIETER DR", "postcode": "79936"}}},
{"geometry": {"type": "Point", "coordinates": [-106.303457995, 31.7731022053]}, "type": "Feature", "properties": {"collection_times": [{"days": "Mon-Fri", "time": "5:30pm"}, {"days": "Sat", "time": "4:45pm"}, {"days": "Sun", "time": "Closed"}], "id": "7993600043", "name": "USPS COLLECTION BOX - PO LOBBY", "address": {"city": "EL PASO", "state": "TX", "street": "2100 GEORGE DIETER DR", "postcode": "79936"}}},
{"geometry": {"type": "Point", "coordinates": [-106.3188991583, 31.7670501872]}, "type": "Feature", "properties": {"collection_times": [{"days": "Mon-Fri", "time": "3:30pm"}, {"days": "Sat", "time": "1:30pm"}, {"days": "Sun", "time": "Closed"}], "id": "7993600044", "name": "USPS COLLECTION BOX - BLUE BOX", "address": {"city": "EL PASO", "state": "TX", "street": "1840 N LEE TREVINO DR", "postcode": "79936"}}},
{"geometry": {"type": "Point", "coordinates": [-106.303457995, 31.7731022053]}, "type": "Feature", "properties": {"collection_times": [{"days": "Mon-Fri", "time": "5:30pm"}, {"days": "Sat", "time": "4:45pm"}, {"days": "Sun", "time": "Closed"}], "id": "7993600045", "name": "USPS COLLECTION BOX - APC", "address": {"city": "EL PASO", "state": "TX", "street": "2100 GEORGE DIETER DR", "postcode": "79936"}}},
{"geometry": {"type": "Point", "coordinates": [-106.301648062, 31.742600312]}, "type": "Feature", "properties": {"collection_times": [{"days": "Mon-Fri", "time": "2:30pm"}, {"days": "Sat", "time": "1:00pm"}, {"days": "Sun", "time": "Closed"}], "id": "7993600048", "name": "USPS COLLECTION BOX - BLUE BOX", "address": {"city": "EL PASO", "state": "TX", "street": "1478 GEORGE DIETER DR", "postcode": "79936"}}},
{"geometry": {"type": "Point", "coordinates": [-106.301648062, 31.742600312]}, "type": "Feature", "properties": {"collection_times": [{"days": "Mon-Fri", "time": "2:30pm"}, {"days": "Sat", "time": "1:00pm"}, {"days": "Sun", "time": "Closed"}], "id": "7993600049", "name": "USPS COLLECTION BOX - BLUE BOX", "address": {"city": "EL PASO", "state": "TX", "street": "1478 GEORGE DIETER DR", "postcode": "79936"}}},
{"geometry": {"type": "Point", "coordinates": [-106.1674908436, 31.8195910065]}, "type": "Feature", "properties": {"collection_times": [{"days": "Mon-Sat", "time": "11:00am"}, {"days": "Sun", "time": "Closed"}], "id": "7993800000", "name": "USPS COLLECTION BOX - BLUE BOX", "address": {"city": "EL PASO", "state": "TX", "street": "14700 MONTANA AVE", "postcode": "79938"}}},
{"geometry": {"type": "Point", "coordinates": [-106.0647476931, 31.8364731984]}, "type": "Feature", "properties": {"collection_times": [{"days": "Mon-Sat", "time": "11:00am"}, {"days": "Sun", "time": "Closed"}], "id": "7993800001", "name": "USPS COLLECTION BOX - BLUE BOX", "address": {"city": "EL PASO", "state": "TX", "street": "4601 HUECO TANKS RD", "postcode": "79938"}}},
{"geometry": {"type": "Point", "coordinates": [-106.1412814186, 31.8600875439]}, "type": "Feature", "properties": {"collection_times": [{"days": "Mon-Sat", "time": "11:00am"}, {"days": "Sun", "time": "Closed"}], "id": "7993800002", "name": "USPS COLLECTION BOX - BLUE BOX", "address": {"city": "EL PASO", "state": "TX", "street": "5380 OLEARY DR", "postcode": "79938"}}},
{"geometry": {"type": "Point", "coordinates": [-106.2001084685, 31.8173937701]}, "type": "Feature", "properties": {"collection_times": [{"days": "Mon-Sat", "time": "11:00am"}, {"days": "Sun", "time": "Closed"}], "id": "7993800006", "name": "USPS COLLECTION BOX - BLUE BOX", "address": {"city": "EL PASO", "state": "TX", "street": "4051 FLAGER ST", "postcode": "79938"}}},
{"geometry": {"type": "Point", "coordinates": [-106.2869261434, 31.7435270482]}, "type": "Feature", "properties": {"collection_times": [{"days": "Mon-Sat", "time": "9:45am"}, {"days": "Sun", "time": "Closed"}], "id": "7993800007", "name": "USPS COLLECTION BOX - BLUE BOX", "address": {"city": "EL PASO", "state": "TX", "street": "1570 N ZARAGOZA RD", "postcode": "79938"}}},
{"geometry": {"type": "Point", "coordinates": [-106.2676144339, 31.7882372129]}, "type": "Feature", "properties": {"collection_times": [{"days": "Mon-Fri", "time": "3:45pm"}, {"days": "Sat", "time": "12:15pm"}, {"days": "Sun", "time": "Closed"}], "id": "7993800010", "name": "USPS COLLECTION BOX - BLUE BOX", "address": {"city": "EL PASO", "state": "TX", "street": "3070 JOE BATTLE BLVD", "postcode": "79938"}}},
{"geometry": {"type": "Point", "coordinates": [-106.4390665051, 31.7675424553]}, "type": "Feature", "properties": {"collection_times": [{"days": "Mon-Sat", "time": "5:30pm"}, {"days": "Sun", "time": "Closed"}], "id": "7999900000", "name": "USPS COLLECTION BOX - EXPRESS", "address": {"city": "EL PASO", "state": "TX", "street": "8401 BOEING DR", "postcode": "79999"}}},
{"geometry": {"type": "Point", "coordinates": [-106.3774004238, 31.7937732337]}, "type": "Feature", "properties": {"collection_times": [{"days": "Mon-Sat", "time": "8:45pm"}, {"days": "Sun", "time": "Closed"}], "id": "7999900002", "name": "USPS COLLECTION BOX - BLUE BOX", "address": {"city": "EL PASO", "state": "TX", "street": "8401 BOEING DR", "postcode": "79999"}}},
{"geometry": {"type": "Point", "coordinates": [-106.3774004238, 31.7937732337]}, "type": "Feature", "properties": {"collection_times": [{"days": "Mon-Sat", "time": "8:45pm"}, {"days": "Sun", "time": "Closed"}], "id": "7999900003", "name": "USPS COLLECTION BOX - BLUE BOX", "address": {"city": "EL PASO", "state": "TX", "street": "8401 BOEING DR", "postcode": "79999"}}},
{"geometry": {"type": "Point", "coordinates": [-106.3774004238, 31.7937732337]}, "type": "Feature", "properties": {"collection_times": [{"days": "Mon-Sat", "time": "8:45pm"}, {"days": "Sun", "time": "Closed"}], "id": "7999900006", "name": "USPS COLLECTION BOX - PO LOBBY", "address": {"city": "EL PASO", "state": "TX", "street": "8401 BOEING DR", "postcode": "79999"}}},
{"geometry": {"type": "Point", "coordinates": [-106.3774004238, 31.7937732337]}, "type": "Feature", "properties": {"collection_times": [{"days": "Mon-Sat", "time": "8:45pm"}, {"days": "Sun", "time": "Closed"}], "id": "7999900007", "name": "USPS COLLECTION BOX - APC", "address": {"city": "EL PASO", "state": "TX", "street": "8401 BOEING DR", "postcode": "79999"}}}
]}
